$GPGGA,100014.00,4155.821602,N,01236.694987,E,1,16,1.6,49.3,M,45.0,M,,*56
$GPGSV,3,1,10,13,82,111,26,15,60,300,20,28,47,052,39,24,28,279,28*7A
$GPGSV,3,2,10,17,28,115,37,30,19,077,42,05,18,197,22,19,16,141,39*7B
$GPGSV,3,3,10,20,11,318,15,12,01,216,*73
$GLGSV,3,1,09,66,69,227,26,76,63,007,21,67,37,321,20,75,25,047,44*63
$GLGSV,3,2,09,85,15,062,41,84,05,011,22,86,04,114,,77,36,259,*69
$GLGSV,3,3,09,65,17,169,*57
$GPGSA,A,3,05,13,15,17,19,20,24,28,30,,,,1.9,1.1,1.6*3D
$GNGSA,A,3,05,13,15,17,19,20,24,28,30,,,,1.9,1.1,1.6*23
$GNGSA,A,3,66,67,75,76,84,85,,,,,,,1.9,1.1,1.6*20
$QZGSA,A,3,,,,,,,,,,,,,1.9,1.1,1.6*21
$IMGSA,A,3,,,,,,,,,,,,,1.9,1.1,1.6*2E
$GPRMC,100014.00,A,4155.821602,N,01236.694987,E,000.0,,200319,,,A*7C
$GPGGA,100015.00,4155.822206,N,01236.695045,E,1,15,3.2,49.4,M,45.0,M,,*50
$GPGSV,3,1,10,13,82,111,26,15,60,300,20,28,47,052,38,24,28,279,28*7B
$GPGSV,3,2,10,17,28,115,37,30,19,077,42,05,18,197,21,19,16,141,38*79
$GPGSV,3,3,10,20,11,318,15,12,01,216,*73
$GLGSV,3,1,09,66,69,227,25,76,63,007,21,67,37,321,20,75,25,047,44*60
$GLGSV,3,2,09,85,15,062,41,84,05,011,22,86,04,114,,77,36,259,*69
$GLGSV,3,3,09,65,17,169,*57
$GPGSA,A,3,05,13,15,17,19,24,28,30,,,,,1.7,1.0,1.4*32
$GNGSA,A,3,05,13,15,17,19,24,28,30,,,,,1.7,1.0,1.4*2C
$GNGSA,A,3,66,67,75,76,84,85,,,,,,,1.7,1.0,1.4*2D
$QZGSA,A,3,,,,,,,,,,,,,1.7,1.0,1.4*2C
$IMGSA,A,3,,,,,,,,,,,,,1.7,1.0,1.4*23
$GPRMC,100015.00,A,4155.822206,N,01236.695045,E,000.0,,200319,,,A*78
$GPGGA,100016.00,4155.822652,N,01236.695029,E,1,15,3.2,49.1,M,45.0,M,,*59
$GPGSV,3,1,10,13,82,111,26,15,60,300,20,28,47,052,38,24,28,279,27*74
$GPGSV,3,2,10,17,28,115,36,30,19,077,42,05,18,197,21,19,16,141,38*78
$GPGSV,3,3,10,20,11,318,14,12,01,216,*72
$GLGSV,3,1,09,66,69,227,25,76,63,007,21,67,38,321,20,75,25,047,43*68
$GLGSV,3,2,09,85,15,062,41,84,05,011,22,86,04,114,,77,36,259,*69
$GLGSV,3,3,09,65,17,169,*57
$GPGSA,A,3,05,13,15,17,19,24,28,30,,,,,1.8,1.0,1.5*3C
$GNGSA,A,3,05,13,15,17,19,24,28,30,,,,,1.8,1.0,1.5*22
$GNGSA,A,3,66,67,75,76,84,85,,,,,,,1.8,1.0,1.5*23
$QZGSA,A,3,,,,,,,,,,,,,1.8,1.0,1.5*22
$IMGSA,A,3,,,,,,,,,,,,,1.8,1.0,1.5*2D
$GPRMC,100016.00,A,4155.822652,N,01236.695029,E,000.0,,200319,,,A*74
$GPGGA,100017.00,4155.822900,N,01236.695019,E,1,15,3.2,48.9,M,45.0,M,,*5A
$GPGSV,3,1,10,13,82,112,26,15,60,300,20,28,47,052,38,24,28,279,27*77
$GPGSV,3,2,10,17,28,115,36,30,19,077,42,05,18,197,21,19,16,141,38*78
$GPGSV,3,3,10,20,11,318,14,12,01,216,*72
$GLGSV,3,1,09,66,69,227,25,76,63,007,21,67,38,321,19,75,25,047,43*62
$GLGSV,3,2,09,85,15,062,41,84,05,011,22,86,04,114,,77,36,259,*69
$GLGSV,3,3,09,65,17,169,*57
$GPGSA,A,3,05,13,15,17,19,24,28,30,,,,,1.7,1.0,1.4*32
$GNGSA,A,3,05,13,15,17,19,24,28,30,,,,,1.7,1.0,1.4*2C
$GNGSA,A,3,66,67,75,76,84,85,,,,,,,1.7,1.0,1.4*2D
$QZGSA,A,3,,,,,,,,,,,,,1.7,1.0,1.4*2C
$IMGSA,A,3,,,,,,,,,,,,,1.7,1.0,1.4*23
$GPRMC,100017.00,A,4155.822900,N,01236.695019,E,000.0,,200319,,,A*7E
$GPGGA,100018.00,4155.823008,N,01236.695042,E,1,15,3.2,48.7,M,45.0,M,,*55
$GPGSV,3,1,10,13,82,112,26,15,60,300,20,28,47,052,38,24,28,279,27*77
$GPGSV,3,2,10,17,28,115,36,30,19,077,41,05,18,197,21,19,16,141,38*7B
$GPGSV,3,3,10,20,11,318,14,12,01,216,*72
$GLGSV,3,1,09,66,69,227,25,76,63,007,21,67,38,321,19,75,25,047,44*65
$GLGSV,3,2,09,85,15,062,42,84,05,011,21,86,04,114,,77,36,259,*69
$GLGSV,3,3,09,65,17,169,*57
$GPGSA,A,3,05,13,15,17,19,24,28,30,,,,,1.7,1.0,1.4*32
$GNGSA,A,3,05,13,15,17,19,24,28,30,,,,,1.7,1.0,1.4*2C
$GNGSA,A,3,66,67,75,76,84,85,,,,,,,1.7,1.0,1.4*2D
$QZGSA,A,3,,,,,,,,,,,,,1.7,1.0,1.4*2C
$IMGSA,A,3,,,,,,,,,,,,,1.7,1.0,1.4*23
$GPRMC,100018.00,A,4155.823008,N,01236.695042,E,000.0,,200319,,,A*7F
$GPGGA,100019.00,4155.823008,N,01236.695042,E,1,15,3.2,48.6,M,45.0,M,,*55
$GPGSV,3,1,10,13,82,112,26,15,60,300,20,28,47,052,38,24,28,279,27*77
$GPGSV,3,2,10,17,28,115,36,30,19,077,41,05,18,197,22,19,16,141,37*77
$GPGSV,3,3,10,20,11,318,13,12,01,216,*75
$GLGSV,3,1,09,66,69,227,25,76,63,007,21,67,38,321,19,75,25,047,44*65
$GLGSV,3,2,09,85,15,062,42,84,05,011,21,86,04,114,,77,36,259,*69
$GLGSV,3,3,09,65,17,169,*57
$GPGSA,A,3,05,13,15,17,19,24,28,30,,,,,1.7,1.0,1.4*32
$GNGSA,A,3,05,13,15,17,19,24,28,30,,,,,1.7,1.0,1.4*2C
$GNGSA,A,3,66,67,75,76,84,85,,,,,,,1.7,1.0,1.4*2D
$QZGSA,A,3,,,,,,,,,,,,,1.7,1.0,1.4*2C
$IMGSA,A,3,,,,,,,,,,,,,1.7,1.0,1.4*23
$GPRMC,100019.00,A,4155.823008,N,01236.695042,E,000.0,,200319,,,A*7E
$GPGGA,100020.00,4155.823008,N,01236.695042,E,1,18,3.2,48.5,M,45.0,M,,*51
$GPGSV,3,1,10,13,82,112,26,15,60,300,20,28,47,051,38,24,28,279,27*74
$GPGSV,3,2,10,17,28,115,36,30,19,077,41,05,18,197,22,19,16,141,37*77
$GPGSV,3,3,10,20,11,318,13,12,01,216,16*72
$GLGSV,3,1,09,66,69,227,25,76,63,007,20,67,38,321,19,77,36,259,16*6E
$GLGSV,3,2,09,75,25,047,43,65,17,169,16,85,15,062,42,84,05,011,21*61
$GLGSV,3,3,09,86,04,114,*52
$GPGSA,A,3,05,12,13,15,17,19,24,28,30,,,,1.7,1.0,1.4*31
$GNGSA,A,3,05,12,13,15,17,19,24,28,30,,,,1.7,1.0,1.4*2F
$GNGSA,A,3,65,66,67,75,76,77,84,85,,,,,1.7,1.0,1.4*2E
$QZGSA,A,3,,,,,,,,,,,,,1.7,1.0,1.4*2C
$IMGSA,A,3,,,,,,,,,,,,,1.7,1.0,1.4*23
$GPRMC,100020.00,A,4155.823008,N,01236.695042,E,000.0,,200319,,,A*74
$GPGGA,100021.00,4155.823008,N,01236.695042,E,1,18,3.2,48.9,M,45.0,M,,*5C
$GPGSV,3,1,10,13,82,112,26,15,60,300,20,28,47,051,38,24,28,279,27*74
$GPGSV,3,2,10,17,28,115,36,30,19,077,41,05,18,197,23,19,17,141,37*77
$GPGSV,3,3,10,20,11,318,17,12,01,216,16*76
$GLGSV,3,1,09,66,69,227,24,76,63,007,20,67,38,321,18,77,36,259,17*6F
$GLGSV,3,2,09,75,25,047,43,65,17,169,,85,15,062,42,84,05,011,21*66
$GLGSV,3,3,09,86,04,114,*52
$GPGSA,A,3,05,12,13,15,17,19,20,24,28,30,,,2.2,1.4,1.6*33
$GNGSA,A,3,05,12,13,15,17,19,20,24,28,30,,,2.2,1.4,1.6*2D
$GNGSA,A,3,66,67,75,76,77,84,85,,,,,,2.2,1.4,1.6*2D
$QZGSA,A,3,,,,,,,,,,,,,2.2,1.4,1.6*2C
$IMGSA,A,3,,,,,,,,,,,,,2.2,1.4,1.6*23
$GPRMC,100021.00,A,4155.823008,N,01236.695042,E,000.0,,200319,,,A*75
$GPGGA,100022.00,4155.823008,N,01236.695042,E,1,18,3.2,49.3,M,45.0,M,,*54
$GPGSV,3,1,10,13,82,112,26,15,60,300,20,28,47,051,38,24,28,279,27*74
$GPGSV,3,2,10,17,28,115,36,30,19,077,41,05,18,197,23,19,17,141,37*77
$GPGSV,3,3,10,20,11,318,,12,01,216,16*70
$GLGSV,3,1,09,66,69,226,24,76,63,007,20,67,38,321,18,77,36,259,17*6E
$GLGSV,3,2,09,75,25,047,43,65,17,169,15,85,15,062,42,84,05,011,21*62
$GLGSV,3,3,09,86,04,114,*52
$GPGSA,A,3,05,12,13,15,17,19,24,28,30,,,,2.2,1.4,1.6*31
$GNGSA,A,3,05,12,13,15,17,19,24,28,30,,,,2.2,1.4,1.6*2F
$GNGSA,A,3,65,66,67,75,76,77,84,85,,,,,2.2,1.4,1.6*2E
$QZGSA,A,3,,,,,,,,,,,,,2.2,1.4,1.6*2C
$IMGSA,A,3,,,,,,,,,,,,,2.2,1.4,1.6*23
$GPRMC,100022.00,A,4155.823008,N,01236.695042,E,000.0,,200319,,,A*76
$GPGGA,100023.00,4155.823008,N,01236.695042,E,1,17,3.2,50.1,M,45.0,M,,*50
$GPGSV,3,1,10,13,82,112,26,15,60,300,20,28,47,051,38,24,28,279,27*74
$GPGSV,3,2,10,17,28,115,36,30,19,077,41,05,18,197,24,19,17,141,36*71
$GPGSV,3,3,10,20,11,318,,12,01,216,*77
$GLGSV,3,1,09,66,69,226,24,76,63,007,20,67,38,321,18,77,36,259,16*6F
$GLGSV,3,2,09,75,25,047,44,65,17,169,19,85,15,062,42,84,05,011,21*69
$GLGSV,3,3,09,86,04,114,*52
$GPGSA,A,3,05,13,15,17,19,24,28,30,,,,,2.1,1.3,1.6*36
$GNGSA,A,3,05,13,15,17,19,24,28,30,,,,,2.1,1.3,1.6*28
$GNGSA,A,3,65,66,67,75,76,77,84,85,,,,,2.1,1.3,1.6*2A
$QZGSA,A,3,,,,,,,,,,,,,2.1,1.3,1.6*28
$IMGSA,A,3,,,,,,,,,,,,,2.1,1.3,1.6*27
$GPRMC,100023.00,A,4155.823008,N,01236.695042,E,000.0,,200319,,,A*77
$GPGGA,100024.00,4155.823008,N,01236.695042,E,1,18,3.2,50.8,M,45.0,M,,*51
$GPGSV,3,1,10,13,82,112,26,15,60,300,20,28,47,051,38,24,28,279,27*74
$GPGSV,3,2,10,17,28,115,36,30,19,077,41,05,18,197,24,19,17,141,36*71
$GPGSV,3,3,10,20,11,318,17,12,01,216,*71
$GLGSV,3,1,09,66,69,226,24,76,63,007,20,67,38,321,18,77,36,259,16*6F
$GLGSV,3,2,09,75,25,047,44,65,17,169,20,85,15,062,42,84,05,011,20*62
$GLGSV,3,3,09,86,04,114,*52
$GPGSA,A,3,05,13,15,17,19,20,24,28,30,,,,2.1,1.3,1.6*34
$GNGSA,A,3,05,13,15,17,19,20,24,28,30,,,,2.1,1.3,1.6*2A
$GNGSA,A,3,65,66,67,75,76,77,84,85,,,,,2.1,1.3,1.6*2A
$QZGSA,A,3,,,,,,,,,,,,,2.1,1.3,1.6*28
$IMGSA,A,3,,,,,,,,,,,,,2.1,1.3,1.6*27
$GPRMC,100024.00,A,4155.823008,N,01236.695042,E,000.0,,200319,,,A*70
$GPGGA,100025.00,4155.823008,N,01236.695042,E,1,18,3.2,51.4,M,45.0,M,,*5D
$GPGSV,3,1,10,13,82,112,26,15,60,300,20,28,47,051,38,24,28,279,27*74
$GPGSV,3,2,10,17,28,115,36,30,19,077,41,05,18,197,24,19,17,141,36*71
$GPGSV,3,3,10,20,12,318,,12,01,216,15*70
$GLGSV,3,1,09,66,69,226,24,76,63,007,20,67,38,321,18,77,36,259,16*6F
$GLGSV,3,2,09,75,25,047,44,65,17,169,19,85,15,062,42,84,05,011,20*68
$GLGSV,3,3,09,86,04,114,*52
$GPGSA,A,3,05,12,13,15,17,19,24,28,30,,,,1.9,1.2,1.4*3D
$GNGSA,A,3,05,12,13,15,17,19,24,28,30,,,,1.9,1.2,1.4*23
$GNGSA,A,3,65,66,67,75,76,77,84,85,,,,,1.9,1.2,1.4*22
$QZGSA,A,3,,,,,,,,,,,,,1.9,1.2,1.4*20
$IMGSA,A,3,,,,,,,,,,,,,1.9,1.2,1.4*2F
$GPRMC,100025.00,A,4155.823008,N,01236.695042,E,000.0,,200319,,,A*71
$GPGGA,100026.00,4155.823008,N,01236.695042,E,1,19,3.2,51.4,M,45.0,M,,*5F
$GPGSV,3,1,10,13,82,112,26,15,60,300,20,28,47,051,38,24,28,279,27*74
$GPGSV,3,2,10,17,28,115,35,30,19,077,41,05,18,197,25,19,17,141,36*73
$GPGSV,3,3,10,20,12,318,15,12,01,216,18*79
$GLGSV,3,1,09,66,69,226,24,76,63,007,20,67,38,321,18,77,36,259,16*6F
$GLGSV,3,2,09,75,25,047,44,65,17,169,19,85,15,062,42,84,05,011,19*62
$GLGSV,3,3,09,86,04,114,*52
$GPGSA,A,3,05,12,13,15,17,19,20,24,28,30,,,1.7,1.0,1.4*33
$GNGSA,A,3,05,12,13,15,17,19,20,24,28,30,,,1.7,1.0,1.4*2D
$GNGSA,A,3,65,66,67,75,76,77,84,85,,,,,1.7,1.0,1.4*2E
$QZGSA,A,3,,,,,,,,,,,,,1.7,1.0,1.4*2C
$IMGSA,A,3,,,,,,,,,,,,,1.7,1.0,1.4*23
$GPRMC,100026.00,A,4155.823008,N,01236.695042,E,000.0,,200319,,,A*72
$GPGGA,100027.00,4155.823008,N,01236.695042,E,1,18,3.2,51.4,M,45.0,M,,*5F
$GPGSV,3,1,10,13,82,112,26,15,60,300,20,28,47,051,38,24,28,279,27*74
$GPGSV,3,2,10,17,28,115,35,30,19,077,41,05,18,197,25,19,17,141,36*73
$GPGSV,3,3,10,20,12,318,17,12,01,216,17*74
$GLGSV,3,1,09,66,69,226,24,76,63,007,20,67,38,321,18,77,36,259,16*6F
$GLGSV,3,2,09,75,25,047,44,65,17,169,20,85,15,062,42,84,05,011,19*68
$GLGSV,3,3,09,86,04,114,*52
$GPGSA,A,3,05,13,15,17,19,20,24,28,30,,,,1.9,1.3,1.5*3C
$GNGSA,A,3,05,13,15,17,19,20,24,28,30,,,,1.9,1.3,1.5*22
$GNGSA,A,3,65,66,67,75,76,77,84,85,,,,,1.9,1.3,1.5*22
$QZGSA,A,3,,,,,,,,,,,,,1.9,1.3,1.5*20
$IMGSA,A,3,,,,,,,,,,,,,1.9,1.3,1.5*2F
$GPRMC,100027.00,A,4155.823008,N,01236.695042,E,000.0,,200319,,,A*73
$GPGGA,100028.00,4155.823008,N,01236.695042,E,1,18,3.2,51.4,M,45.0,M,,*50
$GPGSV,3,1,10,13,82,112,26,15,60,300,20,28,47,051,38,24,28,279,27*74
$GPGSV,3,2,10,17,28,115,35,30,19,077,41,05,18,197,26,19,17,141,35*73
$GPGSV,3,3,10,20,12,318,17,12,01,216,*72
$GLGSV,3,1,09,66,69,226,24,76,63,007,20,67,38,321,18,77,36,259,16*6F
$GLGSV,3,2,09,75,25,047,44,65,17,169,20,85,15,062,42,84,05,011,18*69
$GLGSV,3,3,09,86,04,114,*52
$GPGSA,A,3,05,13,15,17,19,20,24,28,30,,,,1.7,1.0,1.4*30
$GNGSA,A,3,05,13,15,17,19,20,24,28,30,,,,1.7,1.0,1.4*2E
$GNGSA,A,3,65,66,67,75,76,77,84,85,,,,,1.7,1.0,1.4*2E
$QZGSA,A,3,,,,,,,,,,,,,1.7,1.0,1.4*2C
$IMGSA,A,3,,,,,,,,,,,,,1.7,1.0,1.4*23
$GPRMC,100028.00,A,4155.823008,N,01236.695042,E,000.0,,200319,,,A*7C
$GPGGA,100029.00,4155.823008,N,01236.695042,E,1,18,3.2,51.4,M,45.0,M,,*51
$GPGSV,3,1,10,13,82,112,26,15,60,300,20,28,47,051,38,24,28,279,27*74
$GPGSV,3,2,10,17,28,115,35,30,19,077,41,05,18,197,26,19,17,141,35*73
$GPGSV,3,3,10,20,12,318,16,12,01,216,*73
$GLGSV,3,1,09,66,69,226,24,76,63,007,20,67,38,321,19,77,36,259,16*6E
$GLGSV,3,2,09,75,25,047,44,65,17,169,20,85,15,062,42,84,05,011,18*69
$GLGSV,3,3,09,86,04,114,*52
$GPGSA,A,3,05,13,15,17,19,20,24,28,30,,,,1.7,1.0,1.3*37
$GNGSA,A,3,05,13,15,17,19,20,24,28,30,,,,1.7,1.0,1.3*29
$GNGSA,A,3,65,66,67,75,76,77,84,85,,,,,1.7,1.0,1.3*29
$QZGSA,A,3,,,,,,,,,,,,,1.7,1.0,1.3*2B
$IMGSA,A,3,,,,,,,,,,,,,1.7,1.0,1.3*24
$GPRMC,100029.00,A,4155.823008,N,01236.695042,E,000.0,,200319,,,A*7D
$GPGGA,100030.00,4155.823008,N,01236.695042,E,1,19,3.2,51.4,M,45.0,M,,*58
$GPGSV,3,1,10,13,82,112,26,15,60,300,20,28,47,051,38,24,28,279,27*74
$GPGSV,3,2,10,17,28,115,36,30,19,077,41,05,18,197,27,19,17,141,35*71
$GPGSV,3,3,10,20,12,318,16,12,01,216,16*74
$GLGSV,3,1,09,66,69,226,24,76,63,007,21,67,38,321,20,77,36,259,16*65
$GLGSV,3,2,09,75,25,047,44,65,16,169,19,85,15,062,42,84,05,011,18*62
$GLGSV,3,3,09,86,04,114,*52
$GPGSA,A,3,05,12,13,15,17,19,20,24,28,30,,,1.9,1.3,1.5*3F
$GNGSA,A,3,05,12,13,15,17,19,20,24,28,30,,,1.9,1.3,1.5*21
$GNGSA,A,3,65,66,67,75,76,77,84,85,,,,,1.9,1.3,1.5*22
$QZGSA,A,3,,,,,,,,,,,,,1.9,1.3,1.5*20
$IMGSA,A,3,,,,,,,,,,,,,1.9,1.3,1.5*2F
$GPRMC,100030.00,A,4155.823008,N,01236.695042,E,000.0,,200319,,,A*75
$GPGGA,100031.00,4155.823008,N,01236.695042,E,1,18,3.2,51.4,M,45.0,M,,*58
$GPGSV,3,1,10,13,82,112,26,15,60,300,20,28,47,051,38,24,28,279,27*74
$GPGSV,3,2,10,17,28,115,36,30,19,077,41,05,18,197,27,19,17,141,35*71
$GPGSV,3,3,10,20,12,318,,12,01,216,16*73
$GLGSV,3,1,09,66,69,226,24,76,63,007,21,67,38,321,20,77,36,259,16*65
$GLGSV,3,2,09,75,25,047,44,65,16,169,21,85,15,062,42,84,05,011,18*69
$GLGSV,3,3,09,86,04,114,*52
$GPGSA,A,3,05,12,13,15,17,19,24,28,30,,,,2.2,1.4,1.7*30
$GNGSA,A,3,05,12,13,15,17,19,24,28,30,,,,2.2,1.4,1.7*2E
$GNGSA,A,3,65,66,67,75,76,77,84,85,,,,,2.2,1.4,1.7*2F
$QZGSA,A,3,,,,,,,,,,,,,2.2,1.4,1.7*2D
$IMGSA,A,3,,,,,,,,,,,,,2.2,1.4,1.7*22
$GPRMC,100031.00,A,4155.823008,N,01236.695042,E,000.0,,200319,,,A*74
$GPGGA,100032.00,4155.823008,N,01236.695042,E,1,18,3.2,51.5,M,45.0,M,,*5A
$GPGSV,3,1,10,13,82,112,26,15,60,300,21,28,47,051,38,24,28,279,28*7A
$GPGSV,3,2,10,17,28,115,36,30,19,077,41,05,18,197,27,19,17,141,36*72
$GPGSV,3,3,10,20,12,318,,12,01,216,15*70
$GLGSV,3,1,09,66,69,226,24,76,63,007,22,67,38,321,19,77,36,259,15*6F
$GLGSV,3,2,09,75,25,047,44,65,16,169,20,85,15,062,42,84,05,011,18*68
$GLGSV,3,3,09,86,04,114,*52
$GPGSA,A,3,05,12,13,15,17,19,24,28,30,,,,1.9,1.3,1.5*3D
$GNGSA,A,3,05,12,13,15,17,19,24,28,30,,,,1.9,1.3,1.5*23
$GNGSA,A,3,65,66,67,75,76,77,84,85,,,,,1.9,1.3,1.5*22
$QZGSA,A,3,,,,,,,,,,,,,1.9,1.3,1.5*20
$IMGSA,A,3,,,,,,,,,,,,,1.9,1.3,1.5*2F
$GPRMC,100032.00,A,4155.823008,N,01236.695042,E,000.0,,200319,,,A*77
$GPGGA,100033.00,4155.823008,N,01236.695042,E,1,19,3.2,51.5,M,45.0,M,,*5A
$GPGSV,3,1,10,13,82,112,26,15,60,300,21,28,47,051,38,24,28,279,28*7A
$GPGSV,3,2,10,17,28,114,36,30,19,077,41,05,18,197,27,19,17,141,36*73
$GPGSV,3,3,10,20,12,318,20,12,01,216,15*72
$GLGSV,3,1,09,66,69,226,24,76,63,007,22,67,38,321,19,77,36,259,16*6C
$GLGSV,3,2,09,75,25,047,44,65,16,169,20,85,15,062,42,84,05,011,18*68
$GLGSV,3,3,09,86,04,113,*55
$GPGSA,A,3,05,12,13,15,17,19,20,24,28,30,,,1.9,1.3,1.5*3F
$GNGSA,A,3,05,12,13,15,17,19,20,24,28,30,,,1.9,1.3,1.5*21
$GNGSA,A,3,65,66,67,75,76,77,84,85,,,,,1.9,1.3,1.5*22
$QZGSA,A,3,,,,,,,,,,,,,1.9,1.3,1.5*20
$IMGSA,A,3,,,,,,,,,,,,,1.9,1.3,1.5*2F
$GPRMC,100033.00,A,4155.823008,N,01236.695042,E,000.0,,200319,,,A*76
$GPGGA,100034.00,4155.823008,N,01236.695042,E,1,19,3.2,51.5,M,45.0,M,,*5D
$GPGSV,3,1,10,13,82,112,26,15,60,300,21,28,47,051,38,24,28,279,28*7A
$GPGSV,3,2,10,17,28,114,36,30,19,077,41,05,18,197,27,19,17,141,37*72
$GPGSV,3,3,10,20,12,318,19,12,01,216,16*7B
$GLGSV,3,1,09,66,69,226,24,76,63,007,22,67,38,321,19,77,36,259,16*6C
$GLGSV,3,2,09,75,25,047,44,65,16,169,20,85,15,062,42,84,05,011,18*68
$GLGSV,3,3,09,86,04,113,*55
$GPGSA,A,3,05,12,13,15,17,19,20,24,28,30,,,1.9,1.3,1.5*3F
$GNGSA,A,3,05,12,13,15,17,19,20,24,28,30,,,1.9,1.3,1.5*21
$GNGSA,A,3,65,66,67,75,76,77,84,85,,,,,1.9,1.3,1.5*22
$QZGSA,A,3,,,,,,,,,,,,,1.9,1.3,1.5*20
$IMGSA,A,3,,,,,,,,,,,,,1.9,1.3,1.5*2F
$GPRMC,100034.00,A,4155.823008,N,01236.695042,E,000.0,,200319,,,A*71
$GPGGA,100035.00,4155.823008,N,01236.695042,E,1,19,3.2,51.5,M,45.0,M,,*5C
$GPGSV,3,1,10,13,82,112,26,15,60,300,20,28,47,051,38,24,28,279,28*7B
$GPGSV,3,2,10,17,28,114,37,30,19,077,41,05,18,197,27,19,17,141,37*73
$GPGSV,3,3,10,20,12,318,19,12,01,216,20*7E
$GLGSV,3,1,09,66,69,226,23,76,63,007,22,67,38,321,19,77,36,259,16*6B
$GLGSV,3,2,09,75,25,047,44,65,16,169,19,85,15,062,42,84,05,011,18*62
$GLGSV,3,3,09,86,04,113,*55
$GPGSA,A,3,05,12,13,15,17,19,20,24,28,30,,,1.9,1.3,1.5*3F
$GNGSA,A,3,05,12,13,15,17,19,20,24,28,30,,,1.9,1.3,1.5*21
$GNGSA,A,3,65,66,67,75,76,77,84,85,,,,,1.9,1.3,1.5*22
$QZGSA,A,3,,,,,,,,,,,,,1.9,1.3,1.5*20
$IMGSA,A,3,,,,,,,,,,,,,1.9,1.3,1.5*2F
$GPRMC,100035.00,A,4155.823008,N,01236.695042,E,000.0,,200319,,,A*70
$GPGGA,100036.00,4155.823008,N,01236.695042,E,1,18,3.2,51.5,M,45.0,M,,*5E
$GPGSV,3,1,10,13,82,112,26,15,60,300,20,28,47,051,38,24,28,279,28*7B
$GPGSV,3,2,10,17,28,114,37,30,19,077,41,05,18,197,27,19,17,141,37*73
$GPGSV,3,3,10,20,12,318,19,12,01,216,*7C
$GLGSV,3,1,09,66,69,226,23,76,63,007,22,67,38,321,19,77,36,259,16*6B
$GLGSV,3,2,09,75,25,047,44,65,16,169,21,85,15,062,42,84,05,011,18*69
$GLGSV,3,3,09,86,04,113,*55
$GPGSA,A,3,05,13,15,17,19,20,24,28,30,,,,2.2,1.4,1.7*31
$GNGSA,A,3,05,13,15,17,19,20,24,28,30,,,,2.2,1.4,1.7*2F
$GNGSA,A,3,65,66,67,75,76,77,84,85,,,,,2.2,1.4,1.7*2F
$QZGSA,A,3,,,,,,,,,,,,,2.2,1.4,1.7*2D
$IMGSA,A,3,,,,,,,,,,,,,2.2,1.4,1.7*22
$GPRMC,100036.00,A,4155.823008,N,01236.695042,E,000.0,,200319,,,A*73
$GPGGA,100037.00,4155.823008,N,01236.695042,E,1,19,3.2,51.5,M,45.0,M,,*5E
$GPGSV,3,1,10,13,82,112,26,15,60,300,20,28,47,051,38,24,28,279,28*7B
$GPGSV,3,2,10,17,28,114,37,30,19,077,41,05,18,197,27,19,17,141,38*7C
$GPGSV,3,3,10,20,12,318,19,12,01,216,19*74
$GLGSV,3,1,09,66,69,226,22,76,63,007,22,67,38,321,20,77,36,259,16*60
$GLGSV,3,2,09,75,25,047,44,65,16,169,20,85,15,062,42,84,05,011,18*68
$GLGSV,3,3,09,86,04,113,*55
$GPGSA,A,3,05,12,13,15,17,19,20,24,28,30,,,1.9,1.3,1.5*3F
$GNGSA,A,3,05,12,13,15,17,19,20,24,28,30,,,1.9,1.3,1.5*21
$GNGSA,A,3,65,66,67,75,76,77,84,85,,,,,1.9,1.3,1.5*22
$QZGSA,A,3,,,,,,,,,,,,,1.9,1.3,1.5*20
$IMGSA,A,3,,,,,,,,,,,,,1.9,1.3,1.5*2F
$GPRMC,100037.00,A,4155.823008,N,01236.695042,E,000.0,,200319,,,A*72
$GPGGA,100038.00,4155.823008,N,01236.695042,E,1,18,3.2,51.5,M,45.0,M,,*50
$GPGSV,3,1,10,13,82,112,26,15,60,300,19,28,47,051,38,24,28,279,28*71
$GPGSV,3,2,10,17,28,114,36,30,19,077,41,05,18,197,28,19,17,141,38*72
$GPGSV,3,3,10,20,12,318,18,12,01,216,18*74
$GLGSV,3,1,09,66,69,226,22,76,63,007,22,67,38,321,20,77,36,259,16*60
$GLGSV,3,2,09,75,25,047,44,65,16,169,20,85,15,062,42,84,05,011,17*67
$GLGSV,3,3,09,86,04,113,*55
$GPGSA,A,3,05,13,15,17,19,20,24,28,30,,,,2.0,1.3,1.5*36
$GNGSA,A,3,05,13,15,17,19,20,24,28,30,,,,2.0,1.3,1.5*28
$GNGSA,A,3,65,66,67,75,76,77,84,85,,,,,2.0,1.3,1.5*28
$QZGSA,A,3,,,,,,,,,,,,,2.0,1.3,1.5*2A
$IMGSA,A,3,,,,,,,,,,,,,2.0,1.3,1.5*25
$GPRMC,100038.00,A,4155.823008,N,01236.695042,E,000.0,,200319,,,A*7D
$GPGGA,100039.00,4155.823008,N,01236.695042,E,1,17,3.2,51.5,M,45.0,M,,*5E
$GPGSV,3,1,10,13,82,112,26,15,60,300,19,28,47,051,38,24,28,279,28*71
$GPGSV,3,2,10,17,28,114,36,30,19,077,41,05,18,197,28,19,17,141,38*72
$GPGSV,3,3,10,20,12,318,,12,01,216,17*72
$GLGSV,3,1,09,66,69,226,21,76,63,007,23,67,38,321,20,77,36,259,16*62
$GLGSV,3,2,09,75,25,047,44,65,16,169,20,85,15,062,42,84,05,011,18*68
$GLGSV,3,3,09,86,04,113,*55
$GPGSA,A,3,05,13,15,17,19,24,28,30,,,,,2.0,1.3,1.5*34
$GNGSA,A,3,05,13,15,17,19,24,28,30,,,,,2.0,1.3,1.5*2A
$GNGSA,A,3,65,66,67,75,76,77,84,85,,,,,2.0,1.3,1.5*28
$QZGSA,A,3,,,,,,,,,,,,,2.0,1.3,1.5*2A
$IMGSA,A,3,,,,,,,,,,,,,2.0,1.3,1.5*25
$GPRMC,100039.00,A,4155.823008,N,01236.695042,E,000.0,,200319,,,A*7C
$GPGGA,100040.00,4155.823008,N,01236.695042,E,1,17,3.2,51.5,M,45.0,M,,*50
$GPGSV,3,1,10,13,82,112,26,15,60,300,18,28,47,051,38,24,28,279,28*70
$GPGSV,3,2,10,17,28,114,36,30,19,077,41,05,18,197,28,19,17,141,39*73
$GPGSV,3,3,10,20,12,318,,12,01,216,16*73
$GLGSV,3,1,09,66,69,226,21,76,63,007,23,67,38,321,20,77,36,259,16*62
$GLGSV,3,2,09,75,25,047,45,65,16,169,20,85,15,062,42,84,05,011,17*66
$GLGSV,3,3,09,86,04,113,*55
$GPGSA,A,3,05,13,15,17,19,24,28,30,,,,,2.2,1.4,1.6*32
$GNGSA,A,3,05,13,15,17,19,24,28,30,,,,,2.2,1.4,1.6*2C
$GNGSA,A,3,65,66,67,75,76,77,84,85,,,,,2.2,1.4,1.6*2E
$QZGSA,A,3,,,,,,,,,,,,,2.2,1.4,1.6*2C
$IMGSA,A,3,,,,,,,,,,,,,2.2,1.4,1.6*23
$GPRMC,100040.00,A,4155.823008,N,01236.695042,E,000.0,,200319,,,A*72
$GPGGA,100041.00,4155.823008,N,01236.695042,E,1,17,3.2,51.6,M,45.0,M,,*52
$GPGSV,3,1,10,13,82,112,26,15,60,300,18,28,47,051,38,24,28,279,27*7F
$GPGSV,3,2,10,17,28,114,36,30,19,077,41,05,18,197,28,19,17,141,39*73
$GPGSV,3,3,10,20,12,318,,12,01,216,*74
$GLGSV,3,1,09,66,69,226,20,76,63,007,22,67,38,321,20,77,36,259,16*62
$GLGSV,3,2,09,75,25,047,44,65,16,169,20,85,15,062,42,84,05,011,17*67
$GLGSV,3,3,09,86,04,113,*55
$GPGSA,A,3,05,13,15,17,19,24,28,30,,,,,2.0,1.3,1.5*34
$GNGSA,A,3,05,13,15,17,19,24,28,30,,,,,2.0,1.3,1.5*2A
$GNGSA,A,3,65,66,67,75,76,77,84,85,,,,,2.0,1.3,1.5*28
$QZGSA,A,3,,,,,,,,,,,,,2.0,1.3,1.5*2A
$IMGSA,A,3,,,,,,,,,,,,,2.0,1.3,1.5*25
$GPRMC,100041.00,A,4155.823008,N,01236.695042,E,000.0,,200319,,,A*73
$GPGGA,100042.00,4155.823008,N,01236.695042,E,1,19,3.2,51.6,M,45.0,M,,*5F
$GPGSV,3,1,10,13,82,112,27,15,60,300,18,28,47,051,39,24,28,279,27*7F
$GPGSV,3,2,10,17,28,114,36,30,19,077,41,05,18,197,28,19,17,141,39*73
$GPGSV,3,3,10,20,12,318,15,12,01,216,15*74
$GLGSV,3,1,09,66,69,226,19,76,63,008,22,67,38,321,20,77,36,259,16*67
$GLGSV,3,2,09,75,25,047,45,65,16,169,20,85,15,062,42,84,05,011,17*66
$GLGSV,3,3,09,86,04,113,*55
$GPGSA,A,3,05,12,13,15,17,19,20,24,28,30,,,1.9,1.2,1.5*3E
$GNGSA,A,3,05,12,13,15,17,19,20,24,28,30,,,1.9,1.2,1.5*20
$GNGSA,A,3,65,66,67,75,76,77,84,85,,,,,1.9,1.2,1.5*23
$QZGSA,A,3,,,,,,,,,,,,,1.9,1.2,1.5*21
$IMGSA,A,3,,,,,,,,,,,,,1.9,1.2,1.5*2E
$GPRMC,100042.00,A,4155.823008,N,01236.695042,E,000.0,,200319,,,A*70
$GPGGA,100043.00,4155.823008,N,01236.695042,E,1,18,3.2,51.6,M,45.0,M,,*5F
$GPGSV,3,1,10,13,82,112,27,15,60,300,18,28,47,051,39,24,28,279,27*7F
$GPGSV,3,2,10,17,28,114,36,30,19,077,42,05,18,197,28,19,17,141,39*70
$GPGSV,3,3,10,20,12,318,15,12,01,216,15*74
$GLGSV,3,1,09,66,69,226,19,76,63,008,22,67,38,321,20,77,36,259,15*64
$GLGSV,3,2,09,75,25,047,45,65,16,169,24,85,15,062,42,84,05,011,18*6D
$GLGSV,3,3,09,86,04,113,*55
$GPGSA,A,3,05,13,15,17,19,20,24,28,30,,,,2.2,1.3,1.7*36
$GNGSA,A,3,05,13,15,17,19,20,24,28,30,,,,2.2,1.3,1.7*28
$GNGSA,A,3,65,66,67,75,76,77,84,85,,,,,2.2,1.3,1.7*28
$QZGSA,A,3,,,,,,,,,,,,,2.2,1.3,1.7*2A
$IMGSA,A,3,,,,,,,,,,,,,2.2,1.3,1.7*25
$GPRMC,100043.00,A,4155.823008,N,01236.695042,E,000.0,,200319,,,A*71
$GPGGA,100044.00,4155.823008,N,01236.695042,E,1,17,3.2,51.6,M,45.0,M,,*57
$GPGSV,3,1,10,13,82,113,26,15,60,300,17,28,47,051,39,24,28,279,27*70
$GPGSV,3,2,10,17,28,114,36,30,19,077,41,05,18,197,28,19,17,141,39*73
$GPGSV,3,3,10,20,12,318,,12,01,216,15*70
$GLGSV,3,1,09,66,69,226,19,76,63,008,22,67,38,321,20,77,36,259,15*64
$GLGSV,3,2,09,75,25,047,45,65,16,169,23,85,15,062,42,84,05,011,18*6A
$GLGSV,3,3,09,86,04,113,*55
$GPGSA,A,3,05,12,13,15,17,19,24,28,30,,,,2.0,1.3,1.5*37
$GNGSA,A,3,05,12,13,15,17,19,24,28,30,,,,2.0,1.3,1.5*29
$GNGSA,A,3,65,66,67,75,76,84,85,,,,,,2.0,1.3,1.5*28
$QZGSA,A,3,,,,,,,,,,,,,2.0,1.3,1.5*2A
$IMGSA,A,3,,,,,,,,,,,,,2.0,1.3,1.5*25
$GPRMC,100044.00,A,4155.823008,N,01236.695042,E,000.0,,200319,,,A*76
$GPGGA,100045.00,4155.823008,N,01236.695042,E,1,17,3.2,51.6,M,45.0,M,,*56
$GPGSV,3,1,10,13,82,113,26,15,60,300,17,28,47,051,39,24,28,279,27*70
$GPGSV,3,2,10,17,28,114,36,30,19,077,41,05,18,197,28,19,17,141,39*73
$GPGSV,3,3,10,20,12,318,14,12,01,216,*71
$GLGSV,3,1,09,66,69,226,,76,63,008,22,67,38,321,20,77,36,259,15*6C
$GLGSV,3,2,09,75,25,047,45,65,16,169,22,85,15,062,42,84,05,011,18*6B
$GLGSV,3,3,09,86,04,113,*55
$GPGSA,A,3,05,13,15,17,19,20,24,28,30,,,,2.3,1.4,1.7*30
$GNGSA,A,3,05,13,15,17,19,20,24,28,30,,,,2.3,1.4,1.7*2E
$GNGSA,A,3,65,67,75,76,77,84,85,,,,,,2.3,1.4,1.7*2E
$QZGSA,A,3,,,,,,,,,,,,,2.3,1.4,1.7*2C
$IMGSA,A,3,,,,,,,,,,,,,2.3,1.4,1.7*23
$GPRMC,100045.00,A,4155.823008,N,01236.695042,E,000.0,,200319,,,A*77
$GPGGA,100046.00,4155.823008,N,01236.695042,E,1,18,3.2,51.6,M,45.0,M,,*5A
$GPGSV,3,1,10,13,82,113,26,15,60,300,17,28,47,051,39,24,28,279,27*70
$GPGSV,3,2,10,17,28,114,36,30,19,077,41,05,18,197,28,19,17,141,40*7D
$GPGSV,3,3,10,20,12,318,17,12,01,216,*72
$GLGSV,3,1,09,66,68,226,21,76,63,008,22,67,38,321,20,77,36,259,15*6E
$GLGSV,3,2,09,75,25,047,45,65,16,169,22,85,15,062,42,84,05,011,18*6B
$GLGSV,3,3,09,86,04,113,*55
$GPGSA,A,3,05,13,15,17,19,20,24,28,30,,,,1.8,1.1,1.5*3F
$GNGSA,A,3,05,13,15,17,19,20,24,28,30,,,,1.8,1.1,1.5*21
$GNGSA,A,3,65,66,67,75,76,77,84,85,,,,,1.8,1.1,1.5*21
$QZGSA,A,3,,,,,,,,,,,,,1.8,1.1,1.5*23
$IMGSA,A,3,,,,,,,,,,,,,1.8,1.1,1.5*2C
$GPRMC,100046.00,A,4155.823008,N,01236.695042,E,000.0,,200319,,,A*74
$GPGGA,100047.00,4155.823008,N,01236.695042,E,1,19,3.2,51.6,M,45.0,M,,*5A
$GPGSV,3,1,10,13,82,113,26,15,60,300,22,28,47,051,39,24,28,279,27*76
$GPGSV,3,2,10,17,28,114,36,30,19,077,41,05,18,197,28,19,17,141,40*7D
$GPGSV,3,3,10,20,12,318,17,12,01,216,18*7B
$GLGSV,3,1,09,66,68,226,21,76,63,008,22,67,38,321,19,77,36,259,15*64
$GLGSV,3,2,09,75,25,047,45,65,16,169,22,85,15,062,42,84,05,011,18*6B
$GLGSV,3,3,09,86,04,113,*55
$GPGSA,A,3,05,12,13,15,17,19,20,24,28,30,,,1.9,1.1,1.6*3E
$GNGSA,A,3,05,12,13,15,17,19,20,24,28,30,,,1.9,1.1,1.6*20
$GNGSA,A,3,65,66,67,75,76,77,84,85,,,,,1.9,1.1,1.6*23
$QZGSA,A,3,,,,,,,,,,,,,1.9,1.1,1.6*21
$IMGSA,A,3,,,,,,,,,,,,,1.9,1.1,1.6*2E
$GPRMC,100047.00,A,4155.823008,N,01236.695042,E,000.0,,200319,,,A*75
$GPGGA,100048.00,4155.823008,N,01236.695042,E,1,19,3.2,51.7,M,45.0,M,,*54
$GPGSV,3,1,10,13,82,113,26,15,60,300,22,28,47,051,39,24,28,279,27*76
$GPGSV,3,2,10,17,28,114,36,30,19,077,41,05,18,197,28,19,17,141,40*7D
$GPGSV,3,3,10,20,12,318,17,12,01,216,18*7B
$GLGSV,3,1,09,66,68,226,20,76,63,008,22,67,38,321,19,77,36,260,15*6F
$GLGSV,3,2,09,75,25,047,45,65,16,169,21,85,15,062,42,84,05,011,18*68
$GLGSV,3,3,09,86,04,113,*55
$GPGSA,A,3,05,12,13,15,17,19,20,24,28,30,,,2.2,1.3,1.7*35
$GNGSA,A,3,05,12,13,15,17,19,20,24,28,30,,,2.2,1.3,1.7*2B
$GNGSA,A,3,65,66,67,75,76,77,84,85,,,,,2.2,1.3,1.7*28
$QZGSA,A,3,,,,,,,,,,,,,2.2,1.3,1.7*2A
$IMGSA,A,3,,,,,,,,,,,,,2.2,1.3,1.7*25
$GPRMC,100048.00,A,4155.823008,N,01236.695042,E,000.0,,200319,,,A*7A
$GPGGA,100049.00,4155.823008,N,01236.695042,E,1,18,3.2,51.7,M,45.0,M,,*54
$GPGSV,3,1,10,13,82,113,26,15,60,300,21,28,47,051,39,24,28,279,26*74
$GPGSV,3,2,10,17,28,114,36,30,19,077,41,05,18,197,27,19,17,141,40*72
$GPGSV,3,3,10,20,12,318,17,12,01,216,*72
$GLGSV,3,1,09,66,68,226,20,76,63,008,22,67,38,321,19,77,36,260,15*6F
$GLGSV,3,2,09,75,25,047,45,65,16,169,21,85,15,062,42,84,05,011,17*67
$GLGSV,3,3,09,86,04,113,*55
$GPGSA,A,3,05,13,15,17,19,20,24,28,30,,,,1.7,1.0,1.4*30
$GNGSA,A,3,05,13,15,17,19,20,24,28,30,,,,1.7,1.0,1.4*2E
$GNGSA,A,3,65,66,67,75,76,77,84,85,,,,,1.7,1.0,1.4*2E
$QZGSA,A,3,,,,,,,,,,,,,1.7,1.0,1.4*2C
$IMGSA,A,3,,,,,,,,,,,,,1.7,1.0,1.4*23
$GPRMC,100049.00,A,4155.823008,N,01236.695042,E,000.0,,200319,,,A*7B
$GPGGA,100050.00,4155.823008,N,01236.695042,E,1,18,3.2,51.7,M,45.0,M,,*5C
$GPGSV,3,1,10,13,82,113,26,15,60,300,23,28,47,051,39,24,28,279,26*76
$GPGSV,3,2,10,17,28,114,35,30,19,077,41,05,18,197,27,19,17,141,40*71
$GPGSV,3,3,10,20,12,318,,12,01,216,17*72
$GLGSV,3,1,09,66,68,226,19,76,63,008,22,67,38,321,19,77,36,260,15*65
$GLGSV,3,2,09,75,25,047,45,65,16,169,21,85,15,062,42,84,05,011,17*67
$GLGSV,3,3,09,86,04,113,*55
$GPGSA,A,3,05,12,13,15,17,19,24,28,30,,,,1.8,1.1,1.5*3E
$GNGSA,A,3,05,12,13,15,17,19,24,28,30,,,,1.8,1.1,1.5*20
$GNGSA,A,3,65,66,67,75,76,77,84,85,,,,,1.8,1.1,1.5*21
$QZGSA,A,3,,,,,,,,,,,,,1.8,1.1,1.5*23
$IMGSA,A,3,,,,,,,,,,,,,1.8,1.1,1.5*2C
$GPRMC,100050.00,A,4155.823008,N,01236.695042,E,000.0,,200319,,,A*73
$GPGGA,100051.00,4155.823008,N,01236.695042,E,1,19,3.2,51.7,M,45.0,M,,*5C
$GPGSV,3,1,10,13,82,113,26,15,60,300,23,28,47,051,39,24,28,279,26*76
$GPGSV,3,2,10,17,28,114,35,30,19,077,41,05,18,197,27,19,17,141,40*71
$GPGSV,3,3,10,20,12,318,16,12,01,216,17*75
$GLGSV,3,1,09,66,68,226,21,76,63,008,21,67,38,321,19,77,36,260,16*6E
$GLGSV,3,2,09,75,25,047,45,65,16,169,21,85,15,062,41,84,05,011,17*64
$GLGSV,3,3,09,86,04,113,*55
$GPGSA,A,3,05,12,13,15,17,19,20,24,28,30,,,1.7,1.0,1.4*33
$GNGSA,A,3,05,12,13,15,17,19,20,24,28,30,,,1.7,1.0,1.4*2D
$GNGSA,A,3,65,66,67,75,76,77,84,85,,,,,1.7,1.0,1.4*2E
$QZGSA,A,3,,,,,,,,,,,,,1.7,1.0,1.4*2C
$IMGSA,A,3,,,,,,,,,,,,,1.7,1.0,1.4*23
$GPRMC,100051.00,A,4155.823008,N,01236.695042,E,000.0,,200319,,,A*72
$GPGGA,100052.00,4155.823008,N,01236.695042,E,1,19,3.2,51.7,M,45.0,M,,*5F
$GPGSV,3,1,10,13,82,113,26,15,60,300,23,28,47,051,39,24,28,279,26*76
$GPGSV,3,2,10,17,28,114,35,30,19,077,41,05,18,197,27,19,17,141,40*71
$GPGSV,3,3,10,20,12,318,18,12,01,216,22*7D
$GLGSV,3,1,09,66,68,226,21,76,63,008,21,67,38,321,19,77,36,260,17*6F
$GLGSV,3,2,09,75,25,047,45,65,16,169,21,85,15,062,41,84,05,011,18*6B
$GLGSV,3,3,09,86,04,113,*55
$GPGSA,A,3,05,12,13,15,17,19,20,24,28,30,,,1.9,1.0,1.6*3F
$GNGSA,A,3,05,12,13,15,17,19,20,24,28,30,,,1.9,1.0,1.6*21
$GNGSA,A,3,65,66,67,75,76,77,84,85,,,,,1.9,1.0,1.6*22
$QZGSA,A,3,,,,,,,,,,,,,1.9,1.0,1.6*20
$IMGSA,A,3,,,,,,,,,,,,,1.9,1.0,1.6*2F
$GPRMC,100052.00,A,4155.823008,N,01236.695042,E,000.0,,200319,,,A*71
$GPGGA,100053.00,4155.823008,N,01236.695042,E,1,19,3.2,51.7,M,45.0,M,,*5E
$GPGSV,3,1,10,13,82,113,26,15,60,300,23,28,47,051,39,24,28,279,26*76
$GPGSV,3,2,10,17,28,114,35,30,19,077,41,05,18,197,27,19,17,141,40*71
$GPGSV,3,3,10,20,12,318,17,12,01,216,22*72
$GLGSV,3,1,09,66,68,226,20,76,63,008,21,67,38,321,19,77,36,260,16*6F
$GLGSV,3,2,09,75,25,047,45,65,16,169,21,85,15,062,41,84,05,011,18*6B
$GLGSV,3,3,09,86,04,113,*55
$GPGSA,A,3,05,12,13,15,17,19,20,24,28,30,,,1.8,1.0,1.4*3C
$GNGSA,A,3,05,12,13,15,17,19,20,24,28,30,,,1.8,1.0,1.4*22
$GNGSA,A,3,65,66,67,75,76,77,84,85,,,,,1.8,1.0,1.4*21
$QZGSA,A,3,,,,,,,,,,,,,1.8,1.0,1.4*23
$IMGSA,A,3,,,,,,,,,,,,,1.8,1.0,1.4*2C
$GPRMC,100053.00,A,4155.823008,N,01236.695042,E,000.0,,200319,,,A*70
$GPGGA,100054.00,4155.823008,N,01236.695042,E,1,17,3.2,51.7,M,45.0,M,,*57
$GPGSV,3,1,10,13,82,113,25,15,60,300,23,28,47,051,39,24,28,279,26*75
$GPGSV,3,2,10,17,28,114,34,30,19,077,41,05,18,197,27,19,17,141,40*70
$GPGSV,3,3,10,20,12,318,18,12,01,216,*7D
$GLGSV,3,1,09,66,68,226,20,76,63,008,21,67,38,321,19,77,36,260,16*6F
$GLGSV,3,2,09,75,25,047,45,65,16,169,21,85,15,062,41,84,05,011,*62
$GLGSV,3,3,09,86,04,113,*55
$GPGSA,A,3,05,13,15,17,19,20,24,28,30,,,,1.9,1.0,1.5*3F
$GNGSA,A,3,05,13,15,17,19,20,24,28,30,,,,1.9,1.0,1.5*21
$GNGSA,A,3,65,66,67,75,76,77,85,,,,,,1.9,1.0,1.5*2D
$QZGSA,A,3,,,,,,,,,,,,,1.9,1.0,1.5*23
$IMGSA,A,3,,,,,,,,,,,,,1.9,1.0,1.5*2C
$GPRMC,100054.00,A,4155.823008,N,01236.695042,E,000.0,,200319,,,A*77
$GPGGA,100055.00,4155.823008,N,01236.695042,E,1,17,3.2,51.8,M,45.0,M,,*59
$GPGSV,3,1,10,13,82,113,25,15,60,300,22,28,47,051,39,24,28,279,25*77
$GPGSV,3,2,10,17,28,114,34,30,19,077,41,05,18,197,26,19,17,141,40*71
$GPGSV,3,3,10,20,12,318,,12,01,216,20*76
$GLGSV,3,1,09,66,68,226,19,76,63,008,20,67,38,321,19,77,36,260,16*64
$GLGSV,3,2,09,75,25,047,45,65,16,169,21,85,15,062,41,84,05,011,18*6B
$GLGSV,3,3,09,86,04,113,*55
$GPGSA,A,3,05,12,13,15,17,19,24,28,30,,,,1.9,1.0,1.5*3E
$GNGSA,A,3,05,12,13,15,17,19,24,28,30,,,,1.9,1.0,1.5*20
$GNGSA,A,3,65,67,75,76,77,84,85,,,,,,1.9,1.0,1.5*21
$QZGSA,A,3,,,,,,,,,,,,,1.9,1.0,1.5*23
$IMGSA,A,3,,,,,,,,,,,,,1.9,1.0,1.5*2C
$GPRMC,100055.00,A,4155.823008,N,01236.695042,E,000.0,,200319,,,A*76
$GPGGA,100056.00,4155.823008,N,01236.695042,E,1,17,3.2,51.8,M,45.0,M,,*5A
$GPGSV,3,1,10,13,82,113,24,15,60,300,23,28,47,051,39,24,28,279,25*77
$GPGSV,3,2,10,17,28,114,34,30,19,077,41,05,18,197,26,19,17,141,40*71
$GPGSV,3,3,10,20,12,318,16,12,01,216,19*7B
$GLGSV,3,1,09,66,68,226,,76,63,008,20,67,38,321,19,77,36,260,16*6C
$GLGSV,3,2,09,75,25,047,45,65,16,169,21,85,15,062,41,84,05,011,17*64
$GLGSV,3,3,09,86,04,113,*55
$GPGSA,A,3,05,12,13,15,17,19,20,24,28,30,,,1.9,1.0,1.5*3C
$GNGSA,A,3,05,12,13,15,17,19,20,24,28,30,,,1.9,1.0,1.5*22
$GNGSA,A,3,65,67,75,76,77,85,,,,,,,1.9,1.0,1.5*2D
$QZGSA,A,3,,,,,,,,,,,,,1.9,1.0,1.5*23
$IMGSA,A,3,,,,,,,,,,,,,1.9,1.0,1.5*2C
$GPRMC,100056.00,A,4155.823008,N,01236.695042,E,000.0,,200319,,,A*75
$GPGGA,100057.00,4155.823008,N,01236.695042,E,1,18,3.2,51.8,M,45.0,M,,*54
$GPGSV,3,1,10,13,82,113,24,15,60,300,23,28,47,051,39,24,28,279,25*77
$GPGSV,3,2,10,17,28,114,34,30,19,077,41,05,18,197,26,19,17,141,40*71
$GPGSV,3,3,10,20,12,318,16,12,01,216,19*7B
$GLGSV,3,1,09,66,68,226,,76,63,008,20,67,38,321,18,77,36,260,16*6D
$GLGSV,3,2,09,75,25,047,45,65,16,169,21,85,15,062,41,84,05,011,18*6B
$GLGSV,3,3,09,86,04,113,*55
$GPGSA,A,3,05,12,13,15,17,19,20,24,28,30,,,1.8,1.1,1.5*3C
$GNGSA,A,3,05,12,13,15,17,19,20,24,28,30,,,1.8,1.1,1.5*22
$GNGSA,A,3,65,67,75,76,77,84,85,,,,,,1.8,1.1,1.5*21
$QZGSA,A,3,,,,,,,,,,,,,1.8,1.1,1.5*23
$IMGSA,A,3,,,,,,,,,,,,,1.8,1.1,1.5*2C
$GPRMC,100057.00,A,4155.823008,N,01236.695042,E,000.0,,200319,,,A*74
$GPGGA,100058.00,4155.823008,N,01236.695042,E,1,18,3.2,51.8,M,45.0,M,,*5B
$GPGSV,3,1,10,13,82,113,24,15,60,300,23,28,47,051,39,24,28,279,25*77
$GPGSV,3,2,10,17,28,114,34,30,19,077,41,05,18,197,26,19,17,141,40*71
$GPGSV,3,3,10,20,12,318,17,12,01,216,18*7B
$GLGSV,3,1,09,66,68,226,16,76,63,008,19,67,38,321,18,77,36,260,16*60
$GLGSV,3,2,09,75,25,047,45,65,16,169,22,85,15,062,41,84,05,011,20*63
$GLGSV,3,3,09,86,04,113,*55
$GPGSA,A,3,05,12,13,15,17,19,20,24,28,30,,,1.9,1.0,1.5*3C
$GNGSA,A,3,05,12,13,15,17,19,20,24,28,30,,,1.9,1.0,1.5*22
$GNGSA,A,3,65,67,75,76,77,84,85,,,,,,1.9,1.0,1.5*21
$QZGSA,A,3,,,,,,,,,,,,,1.9,1.0,1.5*23
$IMGSA,A,3,,,,,,,,,,,,,1.9,1.0,1.5*2C
$GPRMC,100058.00,A,4155.823008,N,01236.695042,E,000.0,,200319,,,A*7B
$GPGGA,100059.00,4155.823008,N,01236.695042,E,1,17,3.2,51.8,M,45.0,M,,*55
$GPGSV,3,1,10,13,82,113,24,15,60,300,23,28,47,051,39,24,28,279,25*77
$GPGSV,3,2,10,17,28,114,33,30,19,077,41,05,18,197,27,19,17,141,40*77
$GPGSV,3,3,10,20,12,318,20,12,01,216,18*7F
$GLGSV,3,1,09,66,68,226,15,76,63,008,18,67,38,321,17,77,36,260,16*6D
$GLGSV,3,2,09,75,25,047,45,65,16,169,22,85,15,062,41,84,05,011,19*69
$GLGSV,3,3,09,86,04,113,*55
$GPGSA,A,3,05,13,15,17,19,20,24,28,30,,,,1.8,1.0,1.4*3F
$GNGSA,A,3,05,13,15,17,19,20,24,28,30,,,,1.8,1.0,1.4*21
$GNGSA,A,3,65,67,75,76,77,84,85,,,,,,1.8,1.0,1.4*21
$QZGSA,A,3,,,,,,,,,,,,,1.8,1.0,1.4*23
$IMGSA,A,3,,,,,,,,,,,,,1.8,1.0,1.4*2C
$GPRMC,100059.00,A,4155.823008,N,01236.695042,E,000.0,,200319,,,A*7A
$GPGGA,100100.00,4155.823008,N,01236.695042,E,1,17,3.2,51.8,M,45.0,M,,*58
$GPGSV,3,1,10,13,82,113,24,15,60,300,23,28,47,051,40,24,28,279,25*79
$GPGSV,3,2,10,17,28,114,33,30,19,077,41,05,18,197,27,19,17,141,40*77
$GPGSV,3,3,10,20,12,318,20,12,01,216,17*70
$GLGSV,3,1,09,66,68,226,15,76,63,008,18,67,38,321,16,77,36,260,16*6C
$GLGSV,3,2,09,75,25,047,45,65,16,169,22,85,15,062,41,84,05,011,19*69
$GLGSV,3,3,09,86,04,113,*55
$GPGSA,A,3,05,12,13,15,17,19,20,24,28,30,,,1.7,0.9,1.4*3B
$GNGSA,A,3,05,12,13,15,17,19,20,24,28,30,,,1.7,0.9,1.4*25
$GNGSA,A,3,65,75,76,77,84,85,,,,,,,1.7,0.9,1.4*27
$QZGSA,A,3,,,,,,,,,,,,,1.7,0.9,1.4*24
$IMGSA,A,3,,,,,,,,,,,,,1.7,0.9,1.4*2B
$GPRMC,100100.00,A,4155.823008,N,01236.695042,E,000.0,,200319,,,A*77
$GPGGA,100101.00,4155.823008,N,01236.695042,E,1,18,3.2,51.9,M,45.0,M,,*57
$GPGSV,3,1,10,13,82,113,24,15,60,300,23,28,47,051,39,24,28,279,24*76
$GPGSV,3,2,10,17,28,114,32,30,19,077,41,05,18,197,27,19,17,141,39*78
$GPGSV,3,3,10,20,12,318,20,12,02,216,*75
$GLGSV,3,1,09,66,68,226,14,76,63,008,18,67,38,321,17,77,36,260,16*6C
$GLGSV,3,2,09,75,25,047,45,65,16,169,23,85,15,062,40,84,05,011,19*69
$GLGSV,3,3,09,86,04,113,*55
$GPGSA,A,3,05,13,15,17,19,20,24,28,30,,,,1.8,1.0,1.4*3F
$GNGSA,A,3,05,13,15,17,19,20,24,28,30,,,,1.8,1.0,1.4*21
$GNGSA,A,3,65,67,75,76,77,84,85,,,,,,1.8,1.0,1.4*21
$QZGSA,A,3,,,,,,,,,,,,,1.8,1.0,1.4*23
$IMGSA,A,3,,,,,,,,,,,,,1.8,1.0,1.4*2C
$GPRMC,100101.00,A,4155.823008,N,01236.695042,E,000.0,,200319,,,A*76
$GPGGA,100102.00,4155.823008,N,01236.695042,E,1,19,3.2,51.9,M,45.0,M,,*55
$GPGSV,3,1,10,13,82,113,24,15,60,300,23,28,47,051,39,24,28,279,24*76
$GPGSV,3,2,10,17,28,114,32,30,19,077,41,05,18,197,27,19,17,141,39*78
$GPGSV,3,3,10,20,12,318,19,12,02,216,*7F
$GLGSV,3,1,09,66,68,226,15,76,63,008,19,67,38,321,20,77,36,260,16*68
$GLGSV,3,2,09,75,25,047,45,65,16,169,23,85,15,062,40,84,05,011,19*69
$GLGSV,3,3,09,86,04,113,*55
$GPGSA,A,3,05,13,15,17,19,20,24,28,30,,,,1.8,1.0,1.4*3F
$GNGSA,A,3,05,13,15,17,19,20,24,28,30,,,,1.8,1.0,1.4*21
$GNGSA,A,3,65,66,67,75,76,77,84,85,,,,,1.8,1.0,1.4*21
$QZGSA,A,3,,,,,,,,,,,,,1.8,1.0,1.4*23
$IMGSA,A,3,,,,,,,,,,,,,1.8,1.0,1.4*2C
$GPRMC,100102.00,A,4155.823008,N,01236.695042,E,000.0,,200319,,,A*75
$GPGGA,100103.00,4155.823008,N,01236.695042,E,1,18,3.2,51.9,M,45.0,M,,*55
$GPGSV,3,1,10,13,82,113,24,15,60,300,23,28,47,051,39,24,28,279,24*76
$GPGSV,3,2,10,17,28,114,32,30,19,077,41,19,17,141,39,05,17,197,27*77
$GPGSV,3,3,10,20,12,318,19,12,02,216,*7F
$GLGSV,3,1,09,66,68,226,15,76,63,008,18,67,38,321,,77,36,260,16*6B
$GLGSV,3,2,09,75,25,047,45,65,16,169,23,85,15,062,40,84,05,011,20*63
$GLGSV,3,3,09,86,04,113,*55
$GPGSA,A,3,05,13,15,17,19,20,24,28,30,,,,1.9,1.0,1.5*3F
$GNGSA,A,3,05,13,15,17,19,20,24,28,30,,,,1.9,1.0,1.5*21
$GNGSA,A,3,65,66,75,76,77,84,85,,,,,,1.9,1.0,1.5*20
$QZGSA,A,3,,,,,,,,,,,,,1.9,1.0,1.5*23
$IMGSA,A,3,,,,,,,,,,,,,1.9,1.0,1.5*2C
$GPRMC,100103.00,A,4155.823008,N,01236.695042,E,000.0,,200319,,,A*74
$GPGGA,100104.00,4155.823008,N,01236.695042,E,1,19,3.2,51.9,M,45.0,M,,*53
$GPGSV,3,1,10,13,82,113,25,15,60,300,23,28,47,051,39,24,28,279,24*77
$GPGSV,3,2,10,17,28,114,31,30,19,077,41,19,17,141,39,05,17,197,27*74
$GPGSV,3,3,10,20,12,318,18,12,02,216,*7E
$GLGSV,3,1,09,66,68,226,16,76,63,008,18,67,38,321,18,77,36,260,16*61
$GLGSV,3,2,09,75,25,047,45,65,16,169,22,85,15,062,40,84,05,011,20*62
$GLGSV,3,3,09,86,04,113,*55
$GPGSA,A,3,05,13,15,17,19,20,24,28,30,,,,1.7,0.9,1.5*39
$GNGSA,A,3,05,13,15,17,19,20,24,28,30,,,,1.7,0.9,1.5*27
$GNGSA,A,3,65,66,67,75,76,77,84,85,,,,,1.7,0.9,1.5*27
$QZGSA,A,3,,,,,,,,,,,,,1.7,0.9,1.5*25
$IMGSA,A,3,,,,,,,,,,,,,1.7,0.9,1.5*2A
$GPRMC,100104.00,A,4155.823008,N,01236.695042,E,000.0,,200319,,,A*73
$GPGGA,100105.00,4155.823008,N,01236.695042,E,1,17,3.2,51.9,M,45.0,M,,*5C
$GPGSV,3,1,10,13,82,113,25,15,60,300,23,28,47,051,39,24,28,279,24*77
$GPGSV,3,2,10,17,28,114,31,30,19,077,41,19,17,141,39,05,17,197,27*74
$GPGSV,3,3,10,20,12,318,18,12,02,216,*7E
$GLGSV,3,1,09,66,68,226,15,76,63,008,18,67,38,321,17,77,36,260,16*6D
$GLGSV,3,2,09,75,25,047,45,65,16,169,22,85,15,062,40,84,05,011,22*60
$GLGSV,3,3,09,86,04,113,*55
$GPGSA,A,3,05,13,15,17,19,20,24,28,30,,,,1.7,0.9,1.5*39
$GNGSA,A,3,05,13,15,17,19,20,24,28,30,,,,1.7,0.9,1.5*27
$GNGSA,A,3,65,75,76,77,84,85,,,,,,,1.7,0.9,1.5*26
$QZGSA,A,3,,,,,,,,,,,,,1.7,0.9,1.5*25
$IMGSA,A,3,,,,,,,,,,,,,1.7,0.9,1.5*2A
$GPRMC,100105.00,A,4155.823008,N,01236.695042,E,000.0,,200319,,,A*72
$GPGGA,100106.00,4155.823008,N,01236.695042,E,1,18,3.2,52.0,M,45.0,M,,*5A
$GPGSV,3,1,10,13,82,113,25,15,60,300,23,28,47,051,39,24,28,279,24*77
$GPGSV,3,2,10,17,28,114,31,30,19,077,41,19,17,141,39,05,17,197,27*74
$GPGSV,3,3,10,20,12,318,18,12,02,216,*7E
$GLGSV,3,1,09,66,68,226,15,76,63,008,19,67,38,321,19,77,36,260,15*61
$GLGSV,3,2,09,75,25,047,45,65,16,169,22,85,15,062,40,84,05,011,22*60
$GLGSV,3,3,09,86,04,113,*55
$GPGSA,A,3,05,13,15,17,19,20,24,28,30,,,,1.9,1.0,1.5*3F
$GNGSA,A,3,05,13,15,17,19,20,24,28,30,,,,1.9,1.0,1.5*21
$GNGSA,A,3,65,66,67,75,76,84,85,,,,,,1.9,1.0,1.5*21
$QZGSA,A,3,,,,,,,,,,,,,1.9,1.0,1.5*23
$IMGSA,A,3,,,,,,,,,,,,,1.9,1.0,1.5*2C
$GPRMC,100106.00,A,4155.823008,N,01236.695042,E,000.0,,200319,,,A*71
$GPGGA,100107.00,4155.823008,N,01236.695042,E,1,19,3.2,52.0,M,45.0,M,,*5A
$GPGSV,3,1,10,13,82,113,25,15,60,300,22,28,47,051,39,24,28,279,24*76
$GPGSV,3,2,10,17,28,114,30,30,19,077,41,19,17,141,39,05,17,197,27*75
$GPGSV,3,3,10,20,12,318,18,12,02,216,*7E
$GLGSV,3,1,09,66,68,226,15,76,63,008,20,67,38,321,19,77,36,260,15*6B
$GLGSV,3,2,09,75,25,047,45,65,16,169,23,85,15,062,40,84,05,011,21*62
$GLGSV,3,3,09,86,04,113,*55
$GPGSA,A,3,05,13,15,17,19,20,24,28,30,,,,1.7,0.9,1.5*39
$GNGSA,A,3,05,13,15,17,19,20,24,28,30,,,,1.7,0.9,1.5*27
$GNGSA,A,3,65,66,67,75,76,77,84,85,,,,,1.7,0.9,1.5*27
$QZGSA,A,3,,,,,,,,,,,,,1.7,0.9,1.5*25
$IMGSA,A,3,,,,,,,,,,,,,1.7,0.9,1.5*2A
$GPRMC,100107.00,A,4155.823008,N,01236.695042,E,000.0,,200319,,,A*70
$GPGGA,100108.00,4155.823008,N,01236.695042,E,1,17,3.2,52.0,M,45.0,M,,*5B
$GPGSV,3,1,10,13,82,113,25,15,60,300,22,28,47,051,39,24,28,279,24*76
$GPGSV,3,2,10,17,28,114,30,30,19,077,41,19,17,141,38,05,17,197,27*74
$GPGSV,3,3,10,20,12,318,18,12,02,216,*7E
$GLGSV,3,1,09,66,68,226,15,76,63,008,19,67,38,321,19,77,36,260,15*61
$GLGSV,3,2,09,75,25,047,45,65,16,169,23,85,15,062,40,84,05,011,21*62
$GLGSV,3,3,09,86,04,113,*55
$GPGSA,A,3,05,13,15,17,19,20,24,28,30,,,,1.7,0.9,1.5*39
$GNGSA,A,3,05,13,15,17,19,20,24,28,30,,,,1.7,0.9,1.5*27
$GNGSA,A,3,65,67,75,76,77,84,85,,,,,,1.7,0.9,1.5*27
$QZGSA,A,3,,,,,,,,,,,,,1.7,0.9,1.5*25
$IMGSA,A,3,,,,,,,,,,,,,1.7,0.9,1.5*2A
$GPRMC,100108.00,A,4155.823008,N,01236.695042,E,000.0,,200319,,,A*7F
$GPGGA,100109.00,4155.823008,N,01236.695042,E,1,18,3.2,52.0,M,45.0,M,,*55
$GPGSV,3,1,11,13,82,113,25,15,60,300,22,28,47,051,39,24,28,279,24*77
$GPGSV,3,2,11,17,28,114,30,30,19,077,41,19,17,141,38,05,17,197,26*74
$GPGSV,3,3,11,20,12,318,17,12,02,216,,11,00,047,*43
$GLGSV,3,1,09,66,68,226,15,76,63,008,20,67,38,321,18,77,36,260,15*6A
$GLGSV,3,2,09,75,25,047,45,65,16,169,23,85,15,062,40,84,05,011,20*63
$GLGSV,3,3,09,86,04,113,*55
$GPGSA,A,3,05,13,15,17,19,20,24,28,30,,,,1.7,0.9,1.5*39
$GNGSA,A,3,05,13,15,17,19,20,24,28,30,,,,1.7,0.9,1.5*27
$GNGSA,A,3,65,66,67,75,76,77,84,85,,,,,1.7,0.9,1.5*27
$QZGSA,A,3,,,,,,,,,,,,,1.7,0.9,1.5*25
$IMGSA,A,3,,,,,,,,,,,,,1.7,0.9,1.5*2A
$GPRMC,100109.00,A,4155.823008,N,01236.695042,E,000.0,,200319,,,A*7E
$GPGGA,100110.00,4155.823008,N,01236.695042,E,1,16,3.2,52.0,M,45.0,M,,*53
$GPGSV,3,1,11,13,82,113,25,15,60,300,22,28,47,051,39,24,28,279,24*77
$GPGSV,3,2,11,17,28,114,30,30,19,077,41,19,17,141,38,05,17,197,26*74
$GPGSV,3,3,11,20,12,318,17,12,02,216,,11,00,047,*43
$GLGSV,3,1,09,66,68,226,14,76,63,008,20,67,38,321,,77,36,260,15*62
$GLGSV,3,2,09,75,25,047,45,65,16,169,23,85,15,062,40,84,05,011,20*63
$GLGSV,3,3,09,86,04,113,*55
$GPGSA,A,3,05,13,15,17,19,20,24,28,30,,,,1.4,0.8,1.2*3C
$GNGSA,A,3,05,13,15,17,19,20,24,28,30,,,,1.4,0.8,1.2*22
$GNGSA,A,3,65,75,76,77,84,85,,,,,,,1.4,0.8,1.2*23
$QZGSA,A,3,,,,,,,,,,,,,1.4,0.8,1.2*20
$IMGSA,A,3,,,,,,,,,,,,,1.4,0.8,1.2*2F
$GPRMC,100110.00,A,4155.823008,N,01236.695042,E,000.0,,200319,,,A*76
$GPGGA,100111.00,4155.823008,N,01236.695042,E,1,19,3.2,52.1,M,45.0,M,,*5C
$GPGSV,3,1,11,13,82,113,25,15,60,300,22,28,47,051,39,24,28,279,24*77
$GPGSV,3,2,11,17,28,114,29,30,19,077,41,19,17,141,38,05,17,197,26*7C
$GPGSV,3,3,11,20,12,318,17,12,02,216,,11,00,047,*43
$GLGSV,3,1,09,66,68,226,15,76,63,008,20,67,38,321,17,77,36,260,15*65
$GLGSV,3,2,09,75,25,047,44,65,16,169,23,85,15,062,40,84,05,011,19*68
$GLGSV,3,3,09,86,04,113,*55
$GPGSA,A,3,05,13,15,17,19,20,24,28,30,,,,1.7,0.9,1.5*39
$GNGSA,A,3,05,13,15,17,19,20,24,28,30,,,,1.7,0.9,1.5*27
$GNGSA,A,3,65,66,67,75,76,77,84,85,,,,,1.7,0.9,1.5*27
$QZGSA,A,3,,,,,,,,,,,,,1.7,0.9,1.5*25
$IMGSA,A,3,,,,,,,,,,,,,1.7,0.9,1.5*2A
$GPRMC,100111.00,A,4155.823008,N,01236.695042,E,000.0,,200319,,,A*77
$GPGGA,100112.00,4155.823008,N,01236.695042,E,1,18,3.2,52.1,M,45.0,M,,*5E
$GPGSV,3,1,11,13,82,114,25,15,60,300,22,28,47,051,39,24,28,279,24*70
$GPGSV,3,2,11,17,28,114,29,30,19,077,41,19,17,141,38,05,17,197,26*7C
$GPGSV,3,3,11,20,12,318,17,12,02,216,,11,00,047,*43
$GLGSV,3,1,09,66,68,226,15,76,63,008,21,67,38,321,18,77,36,260,15*6B
$GLGSV,3,2,09,75,25,047,44,65,16,169,22,85,15,062,40,84,05,011,19*69
$GLGSV,3,3,09,86,04,113,*55
$GPGSA,A,3,05,13,15,17,19,20,24,28,30,,,,1.9,1.0,1.5*3F
$GNGSA,A,3,05,13,15,17,19,20,24,28,30,,,,1.9,1.0,1.5*21
$GNGSA,A,3,65,66,67,75,76,77,84,85,,,,,1.9,1.0,1.5*21
$QZGSA,A,3,,,,,,,,,,,,,1.9,1.0,1.5*23
$IMGSA,A,3,,,,,,,,,,,,,1.9,1.0,1.5*2C
$GPRMC,100112.00,A,4155.823008,N,01236.695042,E,000.0,,200319,,,A*74
$GPGGA,100113.00,4155.823008,N,01236.695042,E,1,19,3.2,52.1,M,45.0,M,,*5E
$GPGSV,3,1,11,13,82,114,25,15,60,300,22,28,47,051,39,24,28,279,23*77
$GPGSV,3,2,11,17,28,114,31,30,19,077,41,19,17,141,38,05,17,197,25*76
$GPGSV,3,3,11,20,12,318,17,12,02,216,,11,00,047,*43
$GLGSV,3,1,09,66,68,226,17,76,63,008,21,67,38,321,18,77,36,260,14*68
$GLGSV,3,2,09,75,25,047,44,65,16,169,22,85,15,062,40,84,05,011,21*62
$GLGSV,3,3,09,86,04,113,*55
$GPGSA,A,3,05,13,15,17,19,20,24,28,30,,,,1.6,0.9,1.3*3E
$GNGSA,A,3,05,13,15,17,19,20,24,28,30,,,,1.6,0.9,1.3*20
$GNGSA,A,3,65,66,67,75,76,77,84,85,,,,,1.6,0.9,1.3*20
$QZGSA,A,3,,,,,,,,,,,,,1.6,0.9,1.3*22
$IMGSA,A,3,,,,,,,,,,,,,1.6,0.9,1.3*2D
$GPRMC,100113.00,A,4155.823008,N,01236.695042,E,000.0,,200319,,,A*75
$GPGGA,100114.00,4155.823008,N,01236.695042,E,1,18,3.2,52.1,M,45.0,M,,*58
$GPGSV,3,1,11,13,82,114,25,15,60,300,21,28,47,051,39,24,28,279,23*74
$GPGSV,3,2,11,17,28,114,31,30,19,077,41,19,17,141,37,05,17,197,25*79
$GPGSV,3,3,11,20,12,318,,12,02,216,,11,00,047,*45
$GLGSV,3,1,09,66,68,225,16,76,63,008,22,67,38,321,22,77,36,260,17*63
$GLGSV,3,2,09,75,25,047,44,65,16,169,22,85,15,062,40,84,05,011,20*63
$GLGSV,3,3,09,86,04,113,*55
$GPGSA,A,3,05,13,15,17,19,24,28,30,,,,,1.7,0.9,1.4*3A
$GNGSA,A,3,05,13,15,17,19,24,28,30,,,,,1.7,0.9,1.4*24
$GNGSA,A,3,65,66,67,75,76,77,84,85,,,,,1.7,0.9,1.4*26
$QZGSA,A,3,,,,,,,,,,,,,1.7,0.9,1.4*24
$IMGSA,A,3,,,,,,,,,,,,,1.7,0.9,1.4*2B
$GPRMC,100114.00,A,4155.823008,N,01236.695042,E,000.0,,200319,,,A*72
$GPGGA,100115.00,4155.823008,N,01236.695042,E,1,18,3.2,52.1,M,45.0,M,,*59
$GPGSV,3,1,11,13,82,114,25,15,60,300,21,28,47,051,39,24,28,279,23*74
$GPGSV,3,2,11,17,28,114,32,30,19,077,41,19,17,141,37,05,17,197,25*7A
$GPGSV,3,3,11,20,12,318,15,12,02,216,,11,00,047,*41
$GLGSV,3,1,09,66,68,225,15,76,63,008,22,67,38,321,21,77,36,260,16*62
$GLGSV,3,2,09,75,25,047,44,65,16,169,22,85,15,062,40,84,05,011,20*63
$GLGSV,3,3,09,86,04,113,*55
$GPGSA,A,3,05,13,15,17,19,20,24,28,30,,,,1.7,0.9,1.4*38
$GNGSA,A,3,05,13,15,17,19,20,24,28,30,,,,1.7,0.9,1.4*26
$GNGSA,A,3,65,67,75,76,77,84,85,,,,,,1.7,0.9,1.4*26
$QZGSA,A,3,,,,,,,,,,,,,1.7,0.9,1.4*24
$IMGSA,A,3,,,,,,,,,,,,,1.7,0.9,1.4*2B
$GPRMC,100115.00,A,4155.823008,N,01236.695042,E,000.0,,200319,,,A*73
$GPGGA,100116.00,4155.823008,N,01236.695042,E,1,15,3.2,52.1,M,45.0,M,,*57
$GPGSV,3,1,11,13,82,114,25,15,60,300,21,28,47,051,39,24,28,279,23*74
$GPGSV,3,2,11,17,28,114,33,30,19,077,41,19,17,141,37,05,17,197,24*7A
$GPGSV,3,3,11,20,12,318,15,12,02,216,,11,00,047,*41
$GLGSV,3,1,09,66,68,225,15,76,63,008,23,67,38,321,20,77,36,260,16*62
$GLGSV,3,2,09,75,25,047,44,65,16,169,22,85,15,062,40,84,05,011,19*69
$GLGSV,3,3,09,86,04,113,*55
$GPGSA,A,3,05,13,15,17,19,24,28,30,,,,,2.4,1.4,1.9*3B
$GNGSA,A,3,05,13,15,17,19,24,28,30,,,,,2.4,1.4,1.9*25
$GNGSA,A,3,65,66,75,76,77,85,,,,,,,2.4,1.4,1.9*2A
$QZGSA,A,3,,,,,,,,,,,,,2.4,1.4,1.9*25
$IMGSA,A,3,,,,,,,,,,,,,2.4,1.4,1.9*2A
$GPRMC,100116.00,A,4155.823008,N,01236.695042,E,000.0,,200319,,,A*70
$GPGGA,100117.00,4155.823008,N,01236.695042,E,1,18,3.2,52.2,M,45.0,M,,*58
$GPGSV,3,1,11,13,82,114,24,15,60,300,20,28,47,051,39,24,28,279,23*74
$GPGSV,3,2,11,17,28,114,34,30,19,077,41,19,17,141,37,05,17,197,24*7D
$GPGSV,3,3,11,20,12,318,,12,02,216,,11,00,047,*45
$GLGSV,3,1,09,66,68,225,15,76,62,008,24,67,38,321,20,77,36,260,16*64
$GLGSV,3,2,09,75,25,047,44,65,16,169,22,85,15,062,40,84,05,011,19*69
$GLGSV,3,3,09,86,04,113,*55
$GPGSA,A,3,05,13,15,17,19,24,28,30,,,,,1.7,0.9,1.4*3A
$GNGSA,A,3,05,13,15,17,19,24,28,30,,,,,1.7,0.9,1.4*24
$GNGSA,A,3,65,66,67,75,76,77,84,85,,,,,1.7,0.9,1.4*26
$QZGSA,A,3,,,,,,,,,,,,,1.7,0.9,1.4*24
$IMGSA,A,3,,,,,,,,,,,,,1.7,0.9,1.4*2B
$GPRMC,100117.00,A,4155.823008,N,01236.695042,E,000.0,,200319,,,A*71
$GPGGA,100118.00,4155.823008,N,01236.695042,E,1,19,3.2,52.2,M,45.0,M,,*56
$GPGSV,3,1,11,13,82,114,24,15,60,300,20,28,47,051,40,24,28,279,22*7B
$GPGSV,3,2,11,17,28,114,35,30,19,077,41,19,17,141,37,05,17,197,24*7C
$GPGSV,3,3,11,20,12,318,14,12,02,216,,11,00,047,*40
$GLGSV,3,1,09,66,68,225,15,76,62,008,24,67,38,321,19,77,36,260,16*6E
$GLGSV,3,2,09,75,25,047,44,65,16,169,22,85,15,062,40,84,05,011,19*69
$GLGSV,3,3,09,86,04,113,*55
$GPGSA,A,3,05,13,15,17,19,20,24,28,30,,,,1.7,0.9,1.4*38
$GNGSA,A,3,05,13,15,17,19,20,24,28,30,,,,1.7,0.9,1.4*26
$GNGSA,A,3,65,66,67,75,76,77,84,85,,,,,1.7,0.9,1.4*26
$QZGSA,A,3,,,,,,,,,,,,,1.7,0.9,1.4*24
$IMGSA,A,3,,,,,,,,,,,,,1.7,0.9,1.4*2B
$GPRMC,100118.00,A,4155.823008,N,01236.695042,E,000.0,,200319,,,A*7E
$GPGGA,100119.00,4155.823008,N,01236.695042,E,1,18,3.2,52.2,M,45.0,M,,*56
$GPGSV,3,1,11,13,82,114,24,15,60,300,20,28,47,051,40,24,28,279,22*7B
$GPGSV,3,2,11,17,28,114,36,30,19,077,41,19,17,141,37,05,17,197,23*78
$GPGSV,3,3,11,20,12,318,17,12,02,216,,11,00,047,*43
$GLGSV,3,1,09,66,68,225,15,76,62,008,24,67,38,321,20,77,36,260,16*64
$GLGSV,3,2,09,75,25,047,44,65,16,169,22,85,15,062,40,84,05,011,18*68
$GLGSV,3,3,09,86,04,113,*55
$GPGSA,A,3,05,13,15,17,19,20,24,28,30,,,,1.7,0.9,1.4*38
$GNGSA,A,3,05,13,15,17,19,20,24,28,30,,,,1.7,0.9,1.4*26
$GNGSA,A,3,65,66,67,75,76,77,84,85,,,,,1.7,0.9,1.4*26
$QZGSA,A,3,,,,,,,,,,,,,1.7,0.9,1.4*24
$IMGSA,A,3,,,,,,,,,,,,,1.7,0.9,1.4*2B
$GPRMC,100119.00,A,4155.823008,N,01236.695042,E,000.0,,200319,,,A*7F
$GPGGA,100120.00,4155.823008,N,01236.695042,E,1,18,3.2,52.2,M,45.0,M,,*5C
$GPGSV,3,1,11,13,82,114,24,15,60,300,20,28,47,051,40,24,28,279,22*7B
$GPGSV,3,2,11,17,28,114,36,30,19,077,41,19,17,141,38,05,17,197,23*77
$GPGSV,3,3,11,20,12,318,17,12,02,216,,11,00,047,*43
$GLGSV,3,1,09,66,68,225,15,76,62,008,24,67,38,321,,77,36,260,16*66
$GLGSV,3,2,09,75,25,047,44,65,16,169,22,85,15,062,40,84,05,011,18*68
$GLGSV,3,3,09,86,04,113,*55
$GPGSA,A,3,05,13,15,17,19,20,24,28,30,,,,1.7,0.9,1.4*38
$GNGSA,A,3,05,13,15,17,19,20,24,28,30,,,,1.7,0.9,1.4*26
$GNGSA,A,3,65,66,75,76,77,84,85,,,,,,1.7,0.9,1.4*27
$QZGSA,A,3,,,,,,,,,,,,,1.7,0.9,1.4*24
$IMGSA,A,3,,,,,,,,,,,,,1.7,0.9,1.4*2B
$GPRMC,100120.00,A,4155.823008,N,01236.695042,E,000.0,,200319,,,A*75
$GPGGA,100121.00,4155.823008,N,01236.695042,E,1,18,3.2,52.2,M,45.0,M,,*5D
$GPGSV,3,1,11,13,82,114,23,15,60,300,19,28,47,051,40,24,28,279,21*75
$GPGSV,3,2,11,17,28,114,36,30,19,077,41,19,17,141,38,05,17,197,23*77
$GPGSV,3,3,11,20,12,318,,12,02,216,,11,00,047,*45
$GLGSV,3,1,09,66,68,225,15,76,62,008,24,67,38,321,21,77,36,260,16*65
$GLGSV,3,2,09,75,25,047,44,65,16,169,22,85,15,062,40,84,05,011,18*68
$GLGSV,3,3,09,86,04,113,*55
$GPGSA,A,3,05,13,15,17,19,24,28,30,,,,,2.4,1.4,1.9*3B
$GNGSA,A,3,05,13,15,17,19,24,28,30,,,,,2.4,1.4,1.9*25
$GNGSA,A,3,65,66,67,75,76,77,84,85,,,,,2.4,1.4,1.9*27
$QZGSA,A,3,,,,,,,,,,,,,2.4,1.4,1.9*25
$IMGSA,A,3,,,,,,,,,,,,,2.4,1.4,1.9*2A
$GPRMC,100121.00,A,4155.823008,N,01236.695042,E,000.0,,200319,,,A*74
$GPGGA,100122.00,4155.823008,N,01236.695042,E,1,18,3.2,52.3,M,45.0,M,,*5F
$GPGSV,3,1,11,13,82,114,23,15,60,300,19,28,47,051,40,24,28,279,21*75
$GPGSV,3,2,11,17,28,114,37,30,19,077,41,19,17,141,39,05,17,197,22*76
$GPGSV,3,3,11,20,12,318,16,12,02,216,,11,00,047,*42
$GLGSV,3,1,09,66,68,225,17,76,62,008,24,67,38,321,20,77,36,260,16*66
$GLGSV,3,2,09,75,25,047,44,65,16,169,22,85,15,062,40,84,05,011,18*68
$GLGSV,3,3,09,86,04,113,*55
$GPGSA,A,3,05,13,15,17,19,20,24,28,30,,,,1.7,0.9,1.4*38
$GNGSA,A,3,05,13,15,17,19,20,24,28,30,,,,1.7,0.9,1.4*26
$GNGSA,A,3,65,66,67,75,76,77,84,85,,,,,1.7,0.9,1.4*26
$QZGSA,A,3,,,,,,,,,,,,,1.7,0.9,1.4*24
$IMGSA,A,3,,,,,,,,,,,,,1.7,0.9,1.4*2B
$GPRMC,100122.00,A,4155.823008,N,01236.695042,E,000.0,,200319,,,A*77
$GPGGA,100123.00,4155.823008,N,01236.695042,E,1,18,3.2,52.3,M,45.0,M,,*5E
$GPGSV,3,1,11,13,82,114,22,15,60,300,19,28,47,051,40,24,28,279,21*74
$GPGSV,3,2,11,17,28,114,37,30,19,077,41,19,17,141,39,05,17,197,22*76
$GPGSV,3,3,11,20,12,318,16,12,02,216,,11,00,047,*42
$GLGSV,3,1,09,66,68,225,17,76,62,008,24,67,38,321,22,77,36,260,16*64
$GLGSV,3,2,09,75,25,047,45,65,16,169,21,85,15,062,40,84,05,011,18*6A
$GLGSV,3,3,09,86,04,113,*55
$GPGSA,A,3,05,13,15,17,19,20,24,28,30,,,,2.4,1.4,1.9*39
$GNGSA,A,3,05,13,15,17,19,20,24,28,30,,,,2.4,1.4,1.9*27
$GNGSA,A,3,65,66,67,75,76,77,84,85,,,,,2.4,1.4,1.9*27
$QZGSA,A,3,,,,,,,,,,,,,2.4,1.4,1.9*25
$IMGSA,A,3,,,,,,,,,,,,,2.4,1.4,1.9*2A
$GPRMC,100123.00,A,4155.823008,N,01236.695042,E,000.0,,200319,,,A*76
$GPGGA,100124.00,4155.823008,N,01236.695042,E,1,19,3.2,52.3,M,45.0,M,,*58
$GPGSV,3,1,11,13,82,114,22,15,60,300,18,28,47,051,40,24,28,279,21*75
$GPGSV,3,2,11,17,28,114,37,30,19,077,41,19,17,141,39,05,17,197,21*75
$GPGSV,3,3,11,20,12,318,16,12,02,216,,11,00,047,*42
$GLGSV,3,1,09,66,68,225,17,76,62,008,24,67,38,321,21,77,36,260,16*67
$GLGSV,3,2,09,75,25,047,45,65,16,169,21,85,15,062,40,84,05,011,18*6A
$GLGSV,3,3,09,86,04,113,*55
$GPGSA,A,3,05,13,15,17,19,20,24,28,30,,,,2.4,1.4,1.9*39
$GNGSA,A,3,05,13,15,17,19,20,24,28,30,,,,2.4,1.4,1.9*27
$GNGSA,A,3,65,66,67,75,76,77,84,85,,,,,2.4,1.4,1.9*27
$QZGSA,A,3,,,,,,,,,,,,,2.4,1.4,1.9*25
$IMGSA,A,3,,,,,,,,,,,,,2.4,1.4,1.9*2A
$GPRMC,100124.00,A,4155.823008,N,01236.695042,E,000.0,,200319,,,A*71
$GPGGA,100125.00,4155.823008,N,01236.695042,E,1,18,3.2,52.3,M,45.0,M,,*58
$GPGSV,3,1,11,13,82,114,22,15,60,300,18,28,47,051,41,24,28,279,20*75
$GPGSV,3,2,11,17,28,114,37,30,19,077,41,19,17,141,40,05,17,197,21*7B
$GPGSV,3,3,11,20,12,318,16,12,02,216,,11,00,047,*42
$GLGSV,3,1,09,66,68,225,16,76,62,008,23,67,38,321,21,77,36,260,16*61
$GLGSV,3,2,09,75,25,047,45,65,16,169,21,85,15,062,40,84,05,011,19*6B
$GLGSV,3,3,09,86,04,113,*55
$GPGSA,A,3,05,13,15,17,19,24,28,30,,,,,1.7,0.9,1.4*3A
$GNGSA,A,3,05,13,15,17,19,24,28,30,,,,,1.7,0.9,1.4*24
$GNGSA,A,3,65,66,67,75,76,77,84,85,,,,,1.7,0.9,1.4*26
$QZGSA,A,3,,,,,,,,,,,,,1.7,0.9,1.4*24
$IMGSA,A,3,,,,,,,,,,,,,1.7,0.9,1.4*2B
$GPRMC,100125.00,A,4155.823008,N,01236.695042,E,000.0,,200319,,,A*70
$GPGGA,100126.00,4155.823008,N,01236.695042,E,1,18,3.2,52.3,M,45.0,M,,*5B
$GPGSV,3,1,11,13,82,114,22,15,60,300,18,28,47,051,41,24,28,279,20*75
$GPGSV,3,2,11,17,28,114,37,30,19,077,41,19,17,141,40,05,17,197,20*7A
$GPGSV,3,3,11,20,12,318,18,12,02,216,,11,00,047,*4C
$GLGSV,3,1,09,66,68,225,16,76,62,008,24,67,38,321,22,77,36,260,15*66
$GLGSV,3,2,09,75,25,047,45,65,16,169,21,85,15,062,40,84,05,011,19*6B
$GLGSV,3,3,09,86,04,113,*55
$GPGSA,A,3,05,13,15,17,19,20,24,28,30,,,,1.7,0.9,1.4*38
$GNGSA,A,3,05,13,15,17,19,20,24,28,30,,,,1.7,0.9,1.4*26
$GNGSA,A,3,65,66,67,75,76,77,84,85,,,,,1.7,0.9,1.4*26
$QZGSA,A,3,,,,,,,,,,,,,1.7,0.9,1.4*24
$IMGSA,A,3,,,,,,,,,,,,,1.7,0.9,1.4*2B
$GPRMC,100126.00,A,4155.823008,N,01236.695042,E,000.0,,200319,,,A*73
$GPGGA,100127.00,4155.823008,N,01236.695042,E,1,17,3.2,52.4,M,45.0,M,,*52
$GPGSV,3,1,11,13,82,114,21,15,60,300,18,28,47,051,41,24,28,279,20*76
$GPGSV,3,2,11,17,28,114,38,30,19,077,41,19,17,141,40,05,17,197,20*75
$GPGSV,3,3,11,20,12,318,18,12,02,216,,11,00,047,*4C
$GLGSV,3,1,09,66,68,225,16,76,62,008,23,67,38,321,22,77,36,260,15*61
$GLGSV,3,2,09,75,25,047,45,65,16,169,21,85,15,062,40,84,05,011,19*6B
$GLGSV,3,3,09,86,04,113,*55
$GPGSA,A,3,05,13,15,17,19,20,24,28,30,,,,1.4,0.8,1.2*3C
$GNGSA,A,3,05,13,15,17,19,20,24,28,30,,,,1.4,0.8,1.2*22
$GNGSA,A,3,65,66,67,75,76,84,85,,,,,,1.4,0.8,1.2*22
$QZGSA,A,3,,,,,,,,,,,,,1.4,0.8,1.2*20
$IMGSA,A,3,,,,,,,,,,,,,1.4,0.8,1.2*2F
$GPRMC,100127.00,A,4155.823008,N,01236.695042,E,000.0,,200319,,,A*72
$GPGGA,100128.00,4155.823008,N,01236.695042,E,1,19,3.2,52.4,M,45.0,M,,*53
$GPGSV,3,1,11,13,82,114,21,15,60,300,18,28,47,051,41,24,28,279,20*76
$GPGSV,3,2,11,17,28,114,38,30,19,077,41,19,17,141,40,05,17,197,19*7F
$GPGSV,3,3,11,20,12,318,18,12,02,216,,11,00,047,*4C
$GLGSV,3,1,09,66,68,225,16,76,62,008,23,67,38,321,21,77,36,260,15*62
$GLGSV,3,2,09,75,25,047,45,65,16,169,20,85,15,062,40,84,05,011,19*6A
$GLGSV,3,3,09,86,04,113,*55
$GPGSA,A,3,05,13,15,17,19,20,24,28,30,,,,1.4,0.8,1.2*3C
$GNGSA,A,3,05,13,15,17,19,20,24,28,30,,,,1.4,0.8,1.2*22
$GNGSA,A,3,65,66,67,75,76,77,84,85,,,,,1.4,0.8,1.2*22
$QZGSA,A,3,,,,,,,,,,,,,1.4,0.8,1.2*20
$IMGSA,A,3,,,,,,,,,,,,,1.4,0.8,1.2*2F
$GPRMC,100128.00,A,4155.823008,N,01236.695042,E,000.0,,200319,,,A*7D
$GPGGA,100129.00,4155.823008,N,01236.695042,E,1,17,3.2,52.4,M,45.0,M,,*5C
$GPGSV,3,1,11,13,82,114,21,15,60,300,17,28,47,051,41,24,28,279,20*79
$GPGSV,3,2,11,17,28,114,38,30,19,077,41,19,17,141,40,05,17,197,19*7F
$GPGSV,3,3,11,20,12,318,17,12,02,216,,11,00,047,*43
$GLGSV,3,1,09,66,68,225,15,76,62,008,23,67,38,321,21,77,36,260,15*61
$GLGSV,3,2,09,75,25,047,44,65,16,169,20,85,15,062,40,84,05,011,19*6B
$GLGSV,3,3,09,86,04,113,*55
$GPGSA,A,3,05,13,15,17,19,24,28,30,,,,,1.8,0.9,1.6*37
$GNGSA,A,3,05,13,15,17,19,24,28,30,,,,,1.8,0.9,1.6*29
$GNGSA,A,3,65,66,67,75,76,77,84,85,,,,,1.8,0.9,1.6*2B
$QZGSA,A,3,,,,,,,,,,,,,1.8,0.9,1.6*29
$IMGSA,A,3,,,,,,,,,,,,,1.8,0.9,1.6*26
$GPRMC,100129.00,A,4155.823008,N,01236.695042,E,000.0,,200319,,,A*7C
$GPGGA,100130.00,4155.823008,N,01236.695042,E,1,18,3.2,52.4,M,45.0,M,,*5B
$GPGSV,3,1,11,13,82,114,20,15,60,300,21,28,47,051,41,24,28,279,20*7D
$GPGSV,3,2,11,17,28,114,38,30,19,077,41,19,17,141,40,05,17,197,18*7E
$GPGSV,3,3,11,20,12,318,20,12,02,216,,11,00,047,*47
$GLGSV,3,1,09,66,68,225,16,76,62,008,23,67,38,321,21,77,36,260,16*61
$GLGSV,3,2,09,75,25,047,44,65,16,169,20,85,15,062,40,84,05,011,18*6A
$GLGSV,3,3,09,86,04,113,*55
$GPGSA,A,3,05,13,15,17,19,20,24,28,30,,,,1.8,0.9,1.6*35
$GNGSA,A,3,05,13,15,17,19,20,24,28,30,,,,1.8,0.9,1.6*2B
$GNGSA,A,3,65,66,67,75,76,77,84,85,,,,,1.8,0.9,1.6*2B
$QZGSA,A,3,,,,,,,,,,,,,1.8,0.9,1.6*29
$IMGSA,A,3,,,,,,,,,,,,,1.8,0.9,1.6*26
$GPRMC,100130.00,A,4155.823008,N,01236.695042,E,000.0,,200319,,,A*74
$GPGGA,100131.00,4155.823008,N,01236.695042,E,1,17,3.2,52.4,M,45.0,M,,*55
$GPGSV,3,1,11,13,82,114,19,15,60,299,20,28,47,051,41,24,28,279,20*77
$GPGSV,3,2,11,17,28,114,38,30,19,077,41,19,17,141,40,05,17,197,*77
$GPGSV,3,3,11,20,12,318,,12,02,216,,11,00,047,*45
$GLGSV,3,1,09,66,68,225,16,76,62,008,23,67,38,321,22,77,36,260,16*62
$GLGSV,3,2,09,75,25,047,44,65,16,169,20,85,15,062,40,84,05,011,18*6A
$GLGSV,3,3,09,86,04,113,*55
$GPGSA,A,3,13,15,17,19,24,28,30,,,,,,2.2,1.0,2.0*36
$GNGSA,A,3,13,15,17,19,24,28,30,,,,,,2.2,1.0,2.0*28
$GNGSA,A,3,65,66,67,75,76,77,84,85,,,,,2.2,1.0,2.0*2F
$QZGSA,A,3,,,,,,,,,,,,,2.2,1.0,2.0*2D
$IMGSA,A,3,,,,,,,,,,,,,2.2,1.0,2.0*22
$GPRMC,100131.00,A,4155.823008,N,01236.695042,E,000.0,,200319,,,A*75
$GPGGA,100132.00,4155.823008,N,01236.695042,E,1,17,3.2,52.5,M,45.0,M,,*57
$GPGSV,3,1,11,13,82,114,18,15,60,299,20,28,47,051,41,24,28,279,20*76
$GPGSV,3,2,11,17,28,114,38,30,19,077,41,19,17,141,41,05,17,197,*76
$GPGSV,3,3,11,20,12,318,18,12,02,216,,11,00,047,*4C
$GLGSV,3,1,09,66,68,225,16,76,62,008,23,67,38,321,22,77,36,260,16*62
$GLGSV,3,2,09,75,25,047,44,65,16,169,20,85,15,062,40,84,05,011,18*6A
$GLGSV,3,3,09,86,04,113,*55
$GPGSA,A,3,13,15,17,19,24,28,30,,,,,,2.2,1.0,2.0*36
$GNGSA,A,3,13,15,17,19,24,28,30,,,,,,2.2,1.0,2.0*28
$GNGSA,A,3,65,66,67,75,76,77,84,85,,,,,2.2,1.0,2.0*2F
$QZGSA,A,3,,,,,,,,,,,,,2.2,1.0,2.0*2D
$IMGSA,A,3,,,,,,,,,,,,,2.2,1.0,2.0*22
$GPRMC,100132.00,A,4155.823008,N,01236.695042,E,000.0,,200319,,,A*76
$GPGGA,100133.00,4155.823008,N,01236.695042,E,1,18,3.2,52.5,M,45.0,M,,*59
$GPGSV,3,1,11,13,82,114,18,15,60,299,20,28,47,051,41,24,28,279,19*7C
$GPGSV,3,2,11,17,28,114,38,30,19,077,41,19,17,141,41,05,17,197,16*71
$GPGSV,3,3,11,20,12,318,19,12,02,216,,11,00,047,*4D
$GLGSV,3,1,09,66,68,225,16,76,62,008,23,67,38,321,21,77,36,260,16*61
$GLGSV,3,2,09,75,25,047,44,65,16,169,20,85,15,062,40,84,05,011,18*6A
$GLGSV,3,3,09,86,04,113,*55
$GPGSA,A,3,05,15,17,19,20,24,28,30,,,,,2.6,1.1,2.4*32
$GNGSA,A,3,05,15,17,19,20,24,28,30,,,,,2.6,1.1,2.4*2C
$GNGSA,A,3,65,66,67,75,76,77,84,85,,,,,2.6,1.1,2.4*2E
$QZGSA,A,3,,,,,,,,,,,,,2.6,1.1,2.4*2C
$IMGSA,A,3,,,,,,,,,,,,,2.6,1.1,2.4*23
$GPRMC,100133.00,A,4155.823008,N,01236.695042,E,000.0,,200319,,,A*77
$GPGGA,100134.00,4155.823008,N,01236.695042,E,1,16,3.2,52.5,M,45.0,M,,*50
$GPGSV,3,1,11,13,82,114,17,15,60,299,19,28,47,051,41,24,28,279,19*79
$GPGSV,3,2,11,17,28,114,38,30,19,077,41,19,17,141,41,05,17,197,19*7E
$GPGSV,3,3,11,20,12,318,18,12,02,216,,11,00,047,*4C
$GLGSV,3,1,09,66,68,225,17,76,62,008,23,67,38,321,21,77,36,260,16*60
