$GPGGA,000000.00,,,,,0,00,999.9,,M,,M,,*66
$GPGSA,A,1,,,,,,,,,,,,,140.0,99.0,99.0*35
$GNGSA,A,1,,,,,,,,,,,,,140.0,99.0,99.0*2B
$GNGSA,A,1,,,,,,,,,,,,,140.0,99.0,99.0*2B
$QZGSA,A,1,,,,,,,,,,,,,140.0,99.0,99.0*29
$IMGSA,A,1,,,,,,,,,,,,,140.0,99.0,99.0*26
$GPRMC,000000.00,V,,,,,,,,,,N*7D
$GPGGA,000001.00,,,,,0,00,999.9,,M,,M,,*67
$GPGSA,A,1,,,,,,,,,,,,,140.0,99.0,99.0*35
$GNGSA,A,1,,,,,,,,,,,,,140.0,99.0,99.0*2B
$GNGSA,A,1,,,,,,,,,,,,,140.0,99.0,99.0*2B
$QZGSA,A,1,,,,,,,,,,,,,140.0,99.0,99.0*29
$IMGSA,A,1,,,,,,,,,,,,,140.0,99.0,99.0*26
$GPRMC,000001.00,V,,,,,,,,,,N*7C
$GPGGA,000002.00,,,,,0,00,999.9,,M,,M,,*64
$GPGSA,A,1,,,,,,,,,,,,,140.0,99.0,99.0*35
$GNGSA,A,1,,,,,,,,,,,,,140.0,99.0,99.0*2B
$GNGSA,A,1,,,,,,,,,,,,,140.0,99.0,99.0*2B
$QZGSA,A,1,,,,,,,,,,,,,140.0,99.0,99.0*29
$IMGSA,A,1,,,,,,,,,,,,,140.0,99.0,99.0*26
$GPRMC,000002.00,V,,,,,,,,,,N*7F
$GPGGA,000003.00,,,,,0,00,999.9,,M,,M,,*65
$GPGSA,A,1,,,,,,,,,,,,,140.0,99.0,99.0*35
$GNGSA,A,1,,,,,,,,,,,,,140.0,99.0,99.0*2B
$GNGSA,A,1,,,,,,,,,,,,,140.0,99.0,99.0*2B
$QZGSA,A,1,,,,,,,,,,,,,140.0,99.0,99.0*29
$IMGSA,A,1,,,,,,,,,,,,,140.0,99.0,99.0*26
$GPRMC,000003.00,V,,,,,,,,,,N*7E
$GPGGA,000004.00,,,,,0,00,999.9,,M,,M,,*62
$GPGSA,A,1,,,,,,,,,,,,,140.0,99.0,99.0*35
$GNGSA,A,1,,,,,,,,,,,,,140.0,99.0,99.0*2B
$GNGSA,A,1,,,,,,,,,,,,,140.0,99.0,99.0*2B
$QZGSA,A,1,,,,,,,,,,,,,140.0,99.0,99.0*29
$IMGSA,A,1,,,,,,,,,,,,,140.0,99.0,99.0*26
$GPRMC,000004.00,V,,,,,,,,,,N*79
$GPGGA,000004.00,,,,,0,00,999.9,,M,,M,,*62
$GPGSV,1,1,01,15,,,42*7A
$GPGSA,A,1,,,,,,,,,,,,,140.0,99.0,99.0*35
$GNGSA,A,1,,,,,,,,,,,,,140.0,99.0,99.0*2B
$GNGSA,A,1,,,,,,,,,,,,,140.0,99.0,99.0*2B
$QZGSA,A,1,,,,,,,,,,,,,140.0,99.0,99.0*29
$IMGSA,A,1,,,,,,,,,,,,,140.0,99.0,99.0*26
$GPRMC,000004.00,V,,,,,,,,,,N*79
$GPGGA,000005.00,,,,,0,00,999.9,,M,,M,,*63
$GPGSV,1,1,02,28,,,43,15,,,42*74
$GPGSA,A,1,,,,,,,,,,,,,140.0,99.0,99.0*35
$GNGSA,A,1,,,,,,,,,,,,,140.0,99.0,99.0*2B
$GNGSA,A,1,,,,,,,,,,,,,140.0,99.0,99.0*2B
$QZGSA,A,1,,,,,,,,,,,,,140.0,99.0,99.0*29
$IMGSA,A,1,,,,,,,,,,,,,140.0,99.0,99.0*26
$GPRMC,000005.00,V,,,,,,,,,,N*78
$GPGGA,000006.00,,,,,0,00,999.9,,M,,M,,*60
$GPGSV,1,1,02,28,,,48,15,,,49*74
$GPGSA,A,1,,,,,,,,,,,,,140.0,99.0,99.0*35
$GNGSA,A,1,,,,,,,,,,,,,140.0,99.0,99.0*2B
$GNGSA,A,1,,,,,,,,,,,,,140.0,99.0,99.0*2B
$QZGSA,A,1,,,,,,,,,,,,,140.0,99.0,99.0*29
$IMGSA,A,1,,,,,,,,,,,,,140.0,99.0,99.0*26
$GPRMC,000006.00,V,,,,,,,,,,N*7B
$GPGGA,000007.00,,,,,0,00,999.9,,M,,M,,*61
$GPGSV,1,1,03,15,,,50,13,,,42,28,,,51*71
$GPGSA,A,1,,,,,,,,,,,,,140.0,99.0,99.0*35
$GNGSA,A,1,,,,,,,,,,,,,140.0,99.0,99.0*2B
$GNGSA,A,1,,,,,,,,,,,,,140.0,99.0,99.0*2B
$QZGSA,A,1,,,,,,,,,,,,,140.0,99.0,99.0*29
$IMGSA,A,1,,,,,,,,,,,,,140.0,99.0,99.0*26
$GPRMC,000007.00,V,,,,,,,,,,N*7A
$GPGGA,000008.00,,,,,0,00,999.9,,M,,M,,*6E
$GPGSV,1,1,04,13,,,49,07,,,42,28,,,51,15,,,50*7C
$GPGSA,A,1,,,,,,,,,,,,,140.0,99.0,99.0*35
$GNGSA,A,1,,,,,,,,,,,,,140.0,99.0,99.0*2B
$GNGSA,A,1,,,,,,,,,,,,,140.0,99.0,99.0*2B
$QZGSA,A,1,,,,,,,,,,,,,140.0,99.0,99.0*29
$IMGSA,A,1,,,,,,,,,,,,,140.0,99.0,99.0*26
$GPRMC,000008.00,V,,,,,,,,,,N*75
$GPGGA,000009.00,,,,,0,00,999.9,,M,,M,,*6F
$GPGSV,2,1,06,08,,,42,07,,,49,15,,,50,13,,,51*7F
$GPGSV,2,2,06,28,,,51,21,,,47*71
$GPGSA,A,1,,,,,,,,,,,,,140.0,99.0,99.0*35
$GNGSA,A,1,,,,,,,,,,,,,140.0,99.0,99.0*2B
$GNGSA,A,1,,,,,,,,,,,,,140.0,99.0,99.0*2B
$QZGSA,A,1,,,,,,,,,,,,,140.0,99.0,99.0*29
$IMGSA,A,1,,,,,,,,,,,,,140.0,99.0,99.0*26
$GPRMC,000009.00,V,,,,,,,,,,N*74
$GPGGA,000010.00,,,,,0,00,999.9,,M,,M,,*67
$GPGSV,2,1,08,07,,,50,04,,,40,09,,,42,08,,,48*7B
$GPGSV,2,2,08,15,,,50,13,,,51,28,,,51,21,,,48*77
$GPGSA,A,1,,,,,,,,,,,,,140.0,99.0,99.0*35
$GNGSA,A,1,,,,,,,,,,,,,140.0,99.0,99.0*2B
$GNGSA,A,1,,,,,,,,,,,,,140.0,99.0,99.0*2B
$QZGSA,A,1,,,,,,,,,,,,,140.0,99.0,99.0*29
$IMGSA,A,1,,,,,,,,,,,,,140.0,99.0,99.0*26
$GPRMC,000010.00,V,,,,,,,,,,N*7C
$GPGGA,000011.00,,,,,0,00,999.9,,M,,M,,*66
$GPGSV,2,1,08,07,,,51,04,,,48,09,,,48,08,,,49*79
$GPGSV,2,2,08,15,,,50,13,,,51,28,,,51,21,,,48*77
$GPGSA,A,1,,,,,,,,,,,,,140.0,99.0,99.0*35
$GNGSA,A,1,,,,,,,,,,,,,140.0,99.0,99.0*2B
$GNGSA,A,1,,,,,,,,,,,,,140.0,99.0,99.0*2B
$QZGSA,A,1,,,,,,,,,,,,,140.0,99.0,99.0*29
$IMGSA,A,1,,,,,,,,,,,,,140.0,99.0,99.0*26
$GPRMC,000011.00,V,,,,,,,,,,N*7D
$GPGGA,000012.00,,,,,0,00,999.9,,M,,M,,*65
$GPGSV,2,1,08,07,,,51,04,,,50,09,,,49,08,,,49*71
$GPGSV,2,2,08,15,,,50,13,,,51,28,,,51,21,,,48*77
$GPGSA,A,1,,,,,,,,,,,,,140.0,99.0,99.0*35
$GNGSA,A,1,,,,,,,,,,,,,140.0,99.0,99.0*2B
$GNGSA,A,1,,,,,,,,,,,,,140.0,99.0,99.0*2B
$QZGSA,A,1,,,,,,,,,,,,,140.0,99.0,99.0*29
$IMGSA,A,1,,,,,,,,,,,,,140.0,99.0,99.0*26
$GPRMC,000012.00,V,,,,,,,,,,N*7E
$GPGGA,000013.00,,,,,0,00,999.9,,M,,M,,*64
$GPGSV,2,1,08,07,,,51,04,,,50,09,,,49,08,,,49*71
$GPGSV,2,2,08,15,,,50,13,,,51,28,,,51,21,,,49*76
$GPGSA,A,1,,,,,,,,,,,,,140.0,99.0,99.0*35
$GNGSA,A,1,,,,,,,,,,,,,140.0,99.0,99.0*2B
$GNGSA,A,1,,,,,,,,,,,,,140.0,99.0,99.0*2B
$QZGSA,A,1,,,,,,,,,,,,,140.0,99.0,99.0*29
$IMGSA,A,1,,,,,,,,,,,,,140.0,99.0,99.0*26
$GPRMC,000013.00,V,,,,,,,,,,N*7F
$GPGGA,000014.00,,,,,0,00,999.9,,M,,M,,*63
$GPGSV,2,1,08,07,,,51,04,,,51,09,,,49,08,,,49*70
$GPGSV,2,2,08,15,,,50,13,,,51,28,,,51,21,,,49*76
$GPGSA,A,1,,,,,,,,,,,,,140.0,99.0,99.0*35
$GNGSA,A,1,,,,,,,,,,,,,140.0,99.0,99.0*2B
$GNGSA,A,1,,,,,,,,,,,,,140.0,99.0,99.0*2B
$QZGSA,A,1,,,,,,,,,,,,,140.0,99.0,99.0*29
$IMGSA,A,1,,,,,,,,,,,,,140.0,99.0,99.0*26
$GPRMC,000014.00,V,,,,,,,,,,N*78
$GPGGA,000015.00,,,,,0,00,999.9,,M,,M,,*62
$GPGSV,2,1,08,07,,,51,04,,,51,09,,,49,08,,,49*70
$GPGSV,2,2,08,15,,,50,13,,,51,28,,,51,21,,,49*76
$GPGSA,A,1,,,,,,,,,,,,,140.0,99.0,99.0*35
$GNGSA,A,1,,,,,,,,,,,,,140.0,99.0,99.0*2B
$GNGSA,A,1,,,,,,,,,,,,,140.0,99.0,99.0*2B
$QZGSA,A,1,,,,,,,,,,,,,140.0,99.0,99.0*29
$IMGSA,A,1,,,,,,,,,,,,,140.0,99.0,99.0*26
$GPRMC,000015.00,V,,,,,,,,,,N*79
$GPGGA,000016.00,,,,,0,00,999.9,,M,,M,,*61
$GPGSV,2,1,08,07,,,51,04,,,51,09,,,49,08,,,49*70
$GPGSV,2,2,08,15,,,50,13,,,51,28,,,52,21,,,49*75
$GPGSA,A,1,,,,,,,,,,,,,140.0,99.0,99.0*35
$GNGSA,A,1,,,,,,,,,,,,,140.0,99.0,99.0*2B
$GNGSA,A,1,,,,,,,,,,,,,140.0,99.0,99.0*2B
$QZGSA,A,1,,,,,,,,,,,,,140.0,99.0,99.0*29
$IMGSA,A,1,,,,,,,,,,,,,140.0,99.0,99.0*26
$GPRMC,000016.00,V,,,,,,,,,,N*7A
$GPGGA,000017.00,,,,,0,00,999.9,,M,,M,,*60
$GPGSV,2,1,08,07,,,51,04,,,50,09,,,50,08,,,50*71
$GPGSV,2,2,08,15,,,50,13,,,51,28,,,52,21,,,49*75
$GPGSA,A,1,,,,,,,,,,,,,140.0,99.0,99.0*35
$GNGSA,A,1,,,,,,,,,,,,,140.0,99.0,99.0*2B
$GNGSA,A,1,,,,,,,,,,,,,140.0,99.0,99.0*2B
$QZGSA,A,1,,,,,,,,,,,,,140.0,99.0,99.0*29
$IMGSA,A,1,,,,,,,,,,,,,140.0,99.0,99.0*26
$GPRMC,000017.00,V,,,,,,,,,,N*7B
$GPGGA,000018.00,,,,,0,00,999.9,,M,,M,,*6F
$GPGSV,2,1,08,07,,,51,04,,,50,09,,,50,08,,,49*79
$GPGSV,2,2,08,15,,,50,13,,,51,28,,,52,21,,,49*75
$GPGSA,A,1,,,,,,,,,,,,,140.0,99.0,99.0*35
$GNGSA,A,1,,,,,,,,,,,,,140.0,99.0,99.0*2B
$GNGSA,A,1,,,,,,,,,,,,,140.0,99.0,99.0*2B
$QZGSA,A,1,,,,,,,,,,,,,140.0,99.0,99.0*29
$IMGSA,A,1,,,,,,,,,,,,,140.0,99.0,99.0*26
$GPRMC,000018.00,V,,,,,,,,,,N*74
$GPGGA,000019.00,,,,,0,00,999.9,,M,,M,,*6E
$GPGSV,2,1,08,07,,,51,04,,,50,09,,,49,08,,,49*71
$GPGSV,2,2,08,15,,,50,13,,,51,28,,,52,21,,,49*75
$GPGSA,A,1,,,,,,,,,,,,,140.0,99.0,99.0*35
$GNGSA,A,1,,,,,,,,,,,,,140.0,99.0,99.0*2B
$GNGSA,A,1,,,,,,,,,,,,,140.0,99.0,99.0*2B
$QZGSA,A,1,,,,,,,,,,,,,140.0,99.0,99.0*29
$IMGSA,A,1,,,,,,,,,,,,,140.0,99.0,99.0*26
$GPRMC,000019.00,V,,,,,,,,,,N*75
$GPGGA,000020.00,,,,,0,00,999.9,,M,,M,,*64
$GPGSV,2,1,08,07,,,51,04,,,50,09,,,49,08,,,49*71
$GPGSV,2,2,08,15,,,50,13,,,51,28,,,52,21,,,49*75
$GPGSA,A,1,,,,,,,,,,,,,140.0,99.0,99.0*35
$GNGSA,A,1,,,,,,,,,,,,,140.0,99.0,99.0*2B
$GNGSA,A,1,,,,,,,,,,,,,140.0,99.0,99.0*2B
$QZGSA,A,1,,,,,,,,,,,,,140.0,99.0,99.0*29
$IMGSA,A,1,,,,,,,,,,,,,140.0,99.0,99.0*26
$GPRMC,000020.00,V,,,,,,,,,,N*7F
$GPGGA,000021.00,,,,,0,00,999.9,,M,,M,,*65
$GPGSV,2,1,08,07,,,51,04,,,50,09,,,49,08,,,49*71
$GPGSV,2,2,08,15,,,50,13,,,51,28,,,52,21,,,49*75
$GPGSA,A,1,,,,,,,,,,,,,140.0,99.0,99.0*35
$GNGSA,A,1,,,,,,,,,,,,,140.0,99.0,99.0*2B
$GNGSA,A,1,,,,,,,,,,,,,140.0,99.0,99.0*2B
$QZGSA,A,1,,,,,,,,,,,,,140.0,99.0,99.0*29
$IMGSA,A,1,,,,,,,,,,,,,140.0,99.0,99.0*26
$GPRMC,000021.00,V,,,,,,,,,,N*7E
$GPGGA,000022.00,,,,,0,00,999.9,,M,,M,,*66
$GPGSV,2,1,08,07,,,51,04,,,51,09,,,49,08,,,49*70
$GPGSV,2,2,08,15,,,50,13,,,51,28,,,52,21,,,49*75
$GPGSA,A,1,,,,,,,,,,,,,140.0,99.0,99.0*35
$GNGSA,A,1,,,,,,,,,,,,,140.0,99.0,99.0*2B
$GNGSA,A,1,,,,,,,,,,,,,140.0,99.0,99.0*2B
$QZGSA,A,1,,,,,,,,,,,,,140.0,99.0,99.0*29
$IMGSA,A,1,,,,,,,,,,,,,140.0,99.0,99.0*26
$GPRMC,000022.00,V,,,,,,,,,,N*7D
$GPGGA,000023.00,,,,,0,00,999.9,,M,,M,,*67
$GPGSV,2,1,08,07,,,51,04,,,51,09,,,49,08,,,49*70
$GPGSV,2,2,08,15,,,50,13,,,51,28,,,52,21,,,49*75
$GPGSA,A,1,,,,,,,,,,,,,140.0,99.0,99.0*35
$GNGSA,A,1,,,,,,,,,,,,,140.0,99.0,99.0*2B
$GNGSA,A,1,,,,,,,,,,,,,140.0,99.0,99.0*2B
$QZGSA,A,1,,,,,,,,,,,,,140.0,99.0,99.0*29
$IMGSA,A,1,,,,,,,,,,,,,140.0,99.0,99.0*26
$GPRMC,000023.00,V,,,,,,,,,,N*7C
$GPGGA,000024.00,,,,,0,00,999.9,,M,,M,,*60
$GPGSV,2,1,08,07,,,51,04,,,51,09,,,49,08,,,49*70
$GPGSV,2,2,08,15,,,50,13,,,51,28,,,52,21,,,49*75
$GPGSA,A,1,,,,,,,,,,,,,140.0,99.0,99.0*35
$GNGSA,A,1,,,,,,,,,,,,,140.0,99.0,99.0*2B
$GNGSA,A,1,,,,,,,,,,,,,140.0,99.0,99.0*2B
$QZGSA,A,1,,,,,,,,,,,,,140.0,99.0,99.0*29
$IMGSA,A,1,,,,,,,,,,,,,140.0,99.0,99.0*26
$GPRMC,000024.00,V,,,,,,,,,,N*7B
$GPGGA,000025.00,,,,,0,00,999.9,,M,,M,,*61
$GPGSV,3,1,09,07,,,51,04,,,51,09,,,49,08,,,49*70
$GPGSV,3,2,09,15,,,50,13,,,51,28,,,52,21,,,49*75
$GPGSV,3,3,09,30,,,44*73
$GPGSA,A,1,,,,,,,,,,,,,140.0,99.0,99.0*35
$GNGSA,A,1,,,,,,,,,,,,,140.0,99.0,99.0*2B
$GNGSA,A,1,,,,,,,,,,,,,140.0,99.0,99.0*2B
$QZGSA,A,1,,,,,,,,,,,,,140.0,99.0,99.0*29
$IMGSA,A,1,,,,,,,,,,,,,140.0,99.0,99.0*26
$GPRMC,000025.00,V,,,,,,,,,,N*7A
$GPGGA,000026.00,,,,,0,00,999.9,,M,,M,,*62
$GPGSV,3,1,09,07,,,51,04,,,51,09,,,49,08,,,49*70
$GPGSV,3,2,09,15,,,50,13,,,51,28,,,52,21,,,49*75
$GPGSV,3,3,09,30,,,43*74
$GPGSA,A,1,,,,,,,,,,,,,140.0,99.0,99.0*35
$GNGSA,A,1,,,,,,,,,,,,,140.0,99.0,99.0*2B
$GNGSA,A,1,,,,,,,,,,,,,140.0,99.0,99.0*2B
$QZGSA,A,1,,,,,,,,,,,,,140.0,99.0,99.0*29
$IMGSA,A,1,,,,,,,,,,,,,140.0,99.0,99.0*26
$GPRMC,000026.00,V,,,,,,,,,,N*79
$GPGGA,000027.00,,,,,0,00,999.9,,M,,M,,*63
$GPGSV,3,1,09,07,,,51,04,,,51,09,,,49,08,,,49*70
$GPGSV,3,2,09,15,,,50,13,,,51,28,,,51,21,,,49*76
$GPGSV,3,3,09,30,,,51*77
$GPGSA,A,1,,,,,,,,,,,,,140.0,99.0,99.0*35
$GNGSA,A,1,,,,,,,,,,,,,140.0,99.0,99.0*2B
$GNGSA,A,1,,,,,,,,,,,,,140.0,99.0,99.0*2B
$QZGSA,A,1,,,,,,,,,,,,,140.0,99.0,99.0*29
$IMGSA,A,1,,,,,,,,,,,,,140.0,99.0,99.0*26
$GPRMC,000027.00,V,,,,,,,,,,N*78
$GPGGA,000028.00,,,,,0,00,999.9,,M,,M,,*6C
$GPGSV,3,1,09,07,,,51,04,,,51,09,,,49,08,,,49*70
$GPGSV,3,2,09,15,,,50,13,,,51,28,,,51,21,,,49*76
$GPGSV,3,3,09,30,,,51*77
$GPGSA,A,1,,,,,,,,,,,,,140.0,99.0,99.0*35
$GNGSA,A,1,,,,,,,,,,,,,140.0,99.0,99.0*2B
$GNGSA,A,1,,,,,,,,,,,,,140.0,99.0,99.0*2B
$QZGSA,A,1,,,,,,,,,,,,,140.0,99.0,99.0*29
$IMGSA,A,1,,,,,,,,,,,,,140.0,99.0,99.0*26
$GPRMC,000028.00,V,,,,,,,,,,N*77
$GPGGA,000029.00,,,,,0,00,999.9,,M,,M,,*6D
$GPGSV,3,1,09,07,,,51,04,,,51,09,,,49,08,,,49*70
$GPGSV,3,2,09,15,,,50,13,,,51,28,,,51,21,,,49*76
$GPGSV,3,3,09,30,,,51*77
$GPGSA,A,1,,,,,,,,,,,,,140.0,99.0,99.0*35
$GNGSA,A,1,,,,,,,,,,,,,140.0,99.0,99.0*2B
$GNGSA,A,1,,,,,,,,,,,,,140.0,99.0,99.0*2B
$QZGSA,A,1,,,,,,,,,,,,,140.0,99.0,99.0*29
$IMGSA,A,1,,,,,,,,,,,,,140.0,99.0,99.0*26
$GPRMC,000029.00,V,,,,,,,,,,N*76
$GPGGA,000030.00,,,,,0,00,999.9,,M,,M,,*65
$GPGSV,3,1,09,07,,,51,04,,,51,09,,,49,08,,,49*70
$GPGSV,3,2,09,15,,,50,13,,,51,28,,,51,21,,,49*76
$GPGSV,3,3,09,30,,,51*77
$GPGSA,A,1,,,,,,,,,,,,,140.0,99.0,99.0*35
$GNGSA,A,1,,,,,,,,,,,,,140.0,99.0,99.0*2B
$GNGSA,A,1,,,,,,,,,,,,,140.0,99.0,99.0*2B
$QZGSA,A,1,,,,,,,,,,,,,140.0,99.0,99.0*29
$IMGSA,A,1,,,,,,,,,,,,,140.0,99.0,99.0*26
$GPRMC,000030.00,V,,,,,,,,,,N*7E
$GPGGA,000031.00,,,,,0,00,999.9,,M,,M,,*64
$GPGSV,3,1,09,07,,,51,04,,,51,09,,,49,08,,,49*70
$GPGSV,3,2,09,15,,,50,13,,,51,28,,,51,21,,,49*76
$GPGSV,3,3,09,30,,,51*77
$GPGSA,A,1,,,,,,,,,,,,,140.0,99.0,99.0*35
$GNGSA,A,1,,,,,,,,,,,,,140.0,99.0,99.0*2B
$GNGSA,A,1,,,,,,,,,,,,,140.0,99.0,99.0*2B
$QZGSA,A,1,,,,,,,,,,,,,140.0,99.0,99.0*29
$IMGSA,A,1,,,,,,,,,,,,,140.0,99.0,99.0*26
$GPRMC,000031.00,V,,,,,,,,,,N*7F
$GPGGA,000032.00,,,,,0,00,999.9,,M,,M,,*67
$GPGSV,3,1,09,07,,,51,04,,,51,09,,,49,08,,,49*70
$GPGSV,3,2,09,15,,,50,13,,,51,28,,,51,21,,,49*76
$GPGSV,3,3,09,30,,,51*77
$GPGSA,A,1,,,,,,,,,,,,,140.0,99.0,99.0*35
$GNGSA,A,1,,,,,,,,,,,,,140.0,99.0,99.0*2B
$GNGSA,A,1,,,,,,,,,,,,,140.0,99.0,99.0*2B
$QZGSA,A,1,,,,,,,,,,,,,140.0,99.0,99.0*29
$IMGSA,A,1,,,,,,,,,,,,,140.0,99.0,99.0*26
$GPRMC,000032.00,V,,,,,,,,,,N*7C
$GPGGA,000033.00,,,,,0,00,999.9,,M,,M,,*66
$GPGSV,3,1,09,07,,,51,04,,,51,09,,,49,08,,,49*70
$GPGSV,3,2,09,15,,,50,13,,,51,28,,,51,21,,,49*76
$GPGSV,3,3,09,30,,,51*77
$GPGSA,A,1,,,,,,,,,,,,,140.0,99.0,99.0*35
$GNGSA,A,1,,,,,,,,,,,,,140.0,99.0,99.0*2B
$GNGSA,A,1,,,,,,,,,,,,,140.0,99.0,99.0*2B
$QZGSA,A,1,,,,,,,,,,,,,140.0,99.0,99.0*29
$IMGSA,A,1,,,,,,,,,,,,,140.0,99.0,99.0*26
$GPRMC,000033.00,V,,,,,,,,,,N*7D
$GPGGA,000034.00,,,,,0,00,999.9,,M,,M,,*61
$GPGSV,3,1,09,07,,,51,04,,,51,09,,,49,08,,,49*70
$GPGSV,3,2,09,15,,,50,13,,,51,28,,,51,21,,,49*76
$GPGSV,3,3,09,30,,,51*77
$GPGSA,A,1,,,,,,,,,,,,,140.0,99.0,99.0*35
$GNGSA,A,1,,,,,,,,,,,,,140.0,99.0,99.0*2B
$GNGSA,A,1,,,,,,,,,,,,,140.0,99.0,99.0*2B
$QZGSA,A,1,,,,,,,,,,,,,140.0,99.0,99.0*29
$IMGSA,A,1,,,,,,,,,,,,,140.0,99.0,99.0*26
$GPRMC,000034.00,V,,,,,,,,,,N*7A
$GPGGA,000035.00,,,,,0,00,999.9,,M,,M,,*60
$GPGSV,3,1,09,07,,,51,04,,,51,09,,,49,08,,,49*70
$GPGSV,3,2,09,15,,,50,13,,,51,28,,,51,21,,,49*76
$GPGSV,3,3,09,30,,,51*77
$GPGSA,A,1,,,,,,,,,,,,,140.0,99.0,99.0*35
$GNGSA,A,1,,,,,,,,,,,,,140.0,99.0,99.0*2B
$GNGSA,A,1,,,,,,,,,,,,,140.0,99.0,99.0*2B
$QZGSA,A,1,,,,,,,,,,,,,140.0,99.0,99.0*29
$IMGSA,A,1,,,,,,,,,,,,,140.0,99.0,99.0*26
$GPRMC,000035.00,V,,,,,,,,,,N*7B
$GPGGA,000036.00,,,,,0,00,999.9,,M,,M,,*63
$GPGSV,3,1,09,07,,,51,04,,,51,09,,,49,08,,,49*70
$GPGSV,3,2,09,15,,,50,13,,,51,28,,,51,21,,,49*76
$GPGSV,3,3,09,30,,,51*77
$GPGSA,A,1,,,,,,,,,,,,,140.0,99.0,99.0*35
$GNGSA,A,1,,,,,,,,,,,,,140.0,99.0,99.0*2B
$GNGSA,A,1,,,,,,,,,,,,,140.0,99.0,99.0*2B
$QZGSA,A,1,,,,,,,,,,,,,140.0,99.0,99.0*29
$IMGSA,A,1,,,,,,,,,,,,,140.0,99.0,99.0*26
$GPRMC,000036.00,V,,,,,,,,,,N*78
$GPGGA,000037.00,,,,,0,00,999.9,,M,,M,,*62
$GPGSV,3,1,09,07,,,51,04,,,51,09,,,49,08,,,49*70
$GPGSV,3,2,09,15,,,50,13,,,51,28,,,51,21,,,49*76
$GPGSV,3,3,09,30,,,51*77
$GPGSA,A,1,,,,,,,,,,,,,140.0,99.0,99.0*35
$GNGSA,A,1,,,,,,,,,,,,,140.0,99.0,99.0*2B
$GNGSA,A,1,,,,,,,,,,,,,140.0,99.0,99.0*2B
$QZGSA,A,1,,,,,,,,,,,,,140.0,99.0,99.0*29
$IMGSA,A,1,,,,,,,,,,,,,140.0,99.0,99.0*26
$GPRMC,000037.00,V,,,,,,,,,,N*79
$GPGGA,110018.41,,,,,0,00,999.9,,M,,M,,*6A
$GPGSV,3,1,09,07,,,51,04,,,51,09,,,49,08,,,49*70
$GPGSV,3,2,09,15,,,50,13,,,51,28,,,51,21,,,49*76
$GPGSV,3,3,09,30,,,51*77
$GPGSA,A,1,,,,,,,,,,,,,140.0,99.0,99.0*35
$GNGSA,A,1,,,,,,,,,,,,,140.0,99.0,99.0*2B
$GNGSA,A,1,,,,,,,,,,,,,140.0,99.0,99.0*2B
$QZGSA,A,1,,,,,,,,,,,,,140.0,99.0,99.0*29
$IMGSA,A,1,,,,,,,,,,,,,140.0,99.0,99.0*26
$GPRMC,110018.41,V,,,,,,,080219,,,N*73
$GPGGA,110019.41,,,,,0,00,999.9,,M,,M,,*6B
$GPGSV,3,1,09,07,,,51,04,,,51,09,,,49,08,,,49*70
$GPGSV,3,2,09,15,,,50,13,,,51,28,,,51,21,,,49*76
$GPGSV,3,3,09,30,,,52*74
$GPGSA,A,1,,,,,,,,,,,,,140.0,99.0,99.0*35
$GNGSA,A,1,,,,,,,,,,,,,140.0,99.0,99.0*2B
$GNGSA,A,1,,,,,,,,,,,,,140.0,99.0,99.0*2B
$QZGSA,A,1,,,,,,,,,,,,,140.0,99.0,99.0*29
$IMGSA,A,1,,,,,,,,,,,,,140.0,99.0,99.0*26
$GPRMC,110019.41,V,,,,,,,080219,,,N*72
$GPGGA,110020.41,,,,,0,00,999.9,,M,,M,,*61
$GPGSV,3,1,09,07,,,51,04,,,51,09,,,49,08,,,49*70
$GPGSV,3,2,09,15,,,50,13,,,51,28,,,51,21,,,49*76
$GPGSV,3,3,09,30,,,52*74
$GPGSA,A,1,,,,,,,,,,,,,140.0,99.0,99.0*35
$GNGSA,A,1,,,,,,,,,,,,,140.0,99.0,99.0*2B
$GNGSA,A,1,,,,,,,,,,,,,140.0,99.0,99.0*2B
$QZGSA,A,1,,,,,,,,,,,,,140.0,99.0,99.0*29
$IMGSA,A,1,,,,,,,,,,,,,140.0,99.0,99.0*26
$GPRMC,110020.41,V,,,,,,,080219,,,N*78
$GPGGA,110021.41,,,,,0,00,999.9,,M,,M,,*60
$GPGSV,3,1,09,07,,,51,04,,,51,09,,,49,08,,,49*70
$GPGSV,3,2,09,15,,,50,13,,,51,28,,,51,21,,,49*76
$GPGSV,3,3,09,30,,,52*74
$GPGSA,A,1,,,,,,,,,,,,,140.0,99.0,99.0*35
$GNGSA,A,1,,,,,,,,,,,,,140.0,99.0,99.0*2B
$GNGSA,A,1,,,,,,,,,,,,,140.0,99.0,99.0*2B
$QZGSA,A,1,,,,,,,,,,,,,140.0,99.0,99.0*29
$IMGSA,A,1,,,,,,,,,,,,,140.0,99.0,99.0*26
$GPRMC,110021.41,V,,,,,,,080219,,,N*79
$GPGGA,110022.41,,,,,0,00,999.9,,M,,M,,*63
$GPGSV,3,1,10,05,,,38,04,,,51,08,,,49,07,,,51*72
$GPGSV,3,2,10,13,,,51,09,,,49,21,,,49,15,,,50*74
$GPGSV,3,3,10,30,,,52,28,,,51*72
$GPGSA,A,1,,,,,,,,,,,,,140.0,99.0,99.0*35
$GNGSA,A,1,,,,,,,,,,,,,140.0,99.0,99.0*2B
$GNGSA,A,1,,,,,,,,,,,,,140.0,99.0,99.0*2B
$QZGSA,A,1,,,,,,,,,,,,,140.0,99.0,99.0*29
$IMGSA,A,1,,,,,,,,,,,,,140.0,99.0,99.0*26
$GPRMC,110022.41,V,,,,,,,080219,,,N*7A
$GPGGA,110023.41,,,,,0,00,999.9,,M,,M,,*62
$GPGSV,3,1,10,05,,,50,04,,,51,08,,,49,07,,,51*7C
$GPGSV,3,2,10,13,,,51,09,,,49,21,,,49,15,,,50*74
$GPGSV,3,3,10,30,,,52,28,,,51*72
$GPGSA,A,1,,,,,,,,,,,,,140.0,99.0,99.0*35
$GNGSA,A,1,,,,,,,,,,,,,140.0,99.0,99.0*2B
$GNGSA,A,1,,,,,,,,,,,,,140.0,99.0,99.0*2B
$QZGSA,A,1,,,,,,,,,,,,,140.0,99.0,99.0*29
$IMGSA,A,1,,,,,,,,,,,,,140.0,99.0,99.0*26
$GPRMC,110023.41,V,,,,,,,080219,,,N*7B
$GPGGA,110024.40,4155.823192,N,01236.686757,E,1,04,0.8,0.0,M,45.0,M,,*6E
$GPGSV,3,1,10,05,59,236,50,04,,,51,08,06,045,49,07,26,058,51*49
$GPGSV,3,2,10,13,49,307,51,09,07,111,49,21,02,323,49,15,16,300,50*7F
$GPGSV,3,3,10,30,59,049,52,28,56,130,51*72
$GPGSA,A,3,07,08,09,15,,,,,,,,,4.3,1.6,4.0*34
$GNGSA,A,3,07,08,09,15,,,,,,,,,4.3,1.6,4.0*2A
$GNGSA,A,3,,,,,,,,,,,,,4.3,1.6,4.0*28
$QZGSA,A,3,,,,,,,,,,,,,4.3,1.6,4.0*2A
$IMGSA,A,3,,,,,,,,,,,,,4.3,1.6,4.0*25
$GPRMC,110024.40,A,4155.823192,N,01236.686757,E,000.1,,080219,,,A*7C
$GPGGA,110025.41,4155.822091,N,01236.687145,E,1,05,1.2,0.0,M,45.0,M,,*63
$GPGSV,3,1,10,07,26,058,51,15,16,300,50,09,07,111,49,08,06,045,49*75
$GPGSV,3,2,10,21,02,323,,05,59,236,51,30,59,049,52,28,56,130,52*79
$GPGSV,3,3,10,13,49,307,51,04,,,51*47
$GLGSV,2,1,07,75,76,020,,65,73,140,,76,53,228,,66,40,325,*6D
$GLGSV,2,2,07,72,25,142,,74,19,036,,83,03,007,*56
$GPGSA,A,3,07,08,09,15,,,,,,,,,4.3,1.6,4.0*34
$GNGSA,A,3,07,08,09,15,,,,,,,,,4.3,1.6,4.0*2A
$GNGSA,A,3,,,,,,,,,,,,,4.3,1.6,4.0*28
$QZGSA,A,3,,,,,,,,,,,,,4.3,1.6,4.0*2A
$IMGSA,A,3,,,,,,,,,,,,,4.3,1.6,4.0*25
$GPRMC,110025.41,A,4155.822091,N,01236.687145,E,,,080219,,,A*54
$GPGGA,110026.41,4155.822091,N,01236.687145,E,1,05,1.2,0.0,M,45.0,M,,*60
$GPGSV,3,1,10,07,26,058,51,15,16,300,50,09,07,111,49,08,06,045,49*75
$GPGSV,3,2,10,21,02,323,,05,59,236,51,30,59,049,52,28,56,130,51*7A
$GPGSV,3,3,10,13,50,307,51,04,,,51*4F
$GLGSV,2,1,07,75,76,020,,65,73,140,,76,53,228,,66,40,325,*6D
$GLGSV,2,2,07,72,25,142,,74,19,036,,83,03,007,*56
$GPGSA,A,3,07,08,09,15,,,,,,,,,4.3,1.6,4.0*34
$GNGSA,A,3,07,08,09,15,,,,,,,,,4.3,1.6,4.0*2A
$GNGSA,A,3,,,,,,,,,,,,,4.3,1.6,4.0*28
$QZGSA,A,3,,,,,,,,,,,,,4.3,1.6,4.0*2A
$IMGSA,A,3,,,,,,,,,,,,,4.3,1.6,4.0*25
$GPRMC,110026.41,A,4155.822091,N,01236.687145,E,000.0,,080219,,,A*79
$GPGGA,110028.00,4155.822091,N,01236.687145,E,1,05,1.2,0.0,M,45.0,M,,*6B
$GPGSV,3,1,10,07,26,058,51,15,16,300,50,09,07,111,49,08,06,045,49*75
$GPGSV,3,2,10,21,02,323,,05,59,235,51,30,59,049,51,28,56,130,51*7A
$GPGSV,3,3,10,13,50,307,51,04,,,51*4F
$GLGSV,2,1,07,75,76,020,,65,73,140,,76,53,228,,66,40,325,*6D
$GLGSV,2,2,07,72,25,142,,74,19,036,,83,03,007,*56
$GPGSA,A,3,07,08,09,15,,,,,,,,,4.3,1.6,4.0*34
$GNGSA,A,3,07,08,09,15,,,,,,,,,4.3,1.6,4.0*2A
$GNGSA,A,3,,,,,,,,,,,,,4.3,1.6,4.0*28
$QZGSA,A,3,,,,,,,,,,,,,4.3,1.6,4.0*2A
$IMGSA,A,3,,,,,,,,,,,,,4.3,1.6,4.0*25
$GPRMC,110028.00,A,4155.822091,N,01236.687145,E,,,080219,,,A*5C
$GPGGA,110029.00,4155.822091,N,01236.687145,E,1,05,1.2,0.0,M,45.0,M,,*6A
$GPGSV,3,1,10,07,26,058,51,15,16,300,50,09,07,111,49,08,06,045,49*75
$GPGSV,3,2,10,21,02,323,,05,59,235,51,30,59,049,51,28,56,130,51*7A
$GPGSV,3,3,10,13,50,307,51,04,,,51*4F
$GLGSV,2,1,07,75,76,020,,65,73,140,,76,53,228,,66,40,325,*6D
$GLGSV,2,2,07,72,25,142,,74,19,036,,83,03,007,*56
$GPGSA,A,3,07,08,09,15,,,,,,,,,4.3,1.6,4.0*34
$GNGSA,A,3,07,08,09,15,,,,,,,,,4.3,1.6,4.0*2A
$GNGSA,A,3,,,,,,,,,,,,,4.3,1.6,4.0*28
$QZGSA,A,3,,,,,,,,,,,,,4.3,1.6,4.0*2A
$IMGSA,A,3,,,,,,,,,,,,,4.3,1.6,4.0*25
$GPRMC,110029.00,A,4155.822091,N,01236.687145,E,,,080219,,,A*5D
$GPGGA,110030.00,4155.822091,N,01236.687145,E,1,05,1.2,0.0,M,45.0,M,,*62
$GPGSV,3,1,10,07,26,058,51,15,16,300,50,09,07,111,49,08,06,045,49*75
$GPGSV,3,2,10,21,02,323,,05,59,235,51,30,59,049,51,28,56,130,51*7A
$GPGSV,3,3,10,13,50,307,51,04,,,51*4F
$GLGSV,2,1,07,75,76,020,,65,73,140,,76,53,228,,66,40,325,*6D
$GLGSV,2,2,07,72,25,142,,74,19,036,,83,03,007,*56
$GPGSA,A,3,07,08,09,15,,,,,,,,,4.3,1.6,4.0*34
$GNGSA,A,3,07,08,09,15,,,,,,,,,4.3,1.6,4.0*2A
$GNGSA,A,3,,,,,,,,,,,,,4.3,1.6,4.0*28
$QZGSA,A,3,,,,,,,,,,,,,4.3,1.6,4.0*2A
$IMGSA,A,3,,,,,,,,,,,,,4.3,1.6,4.0*25
$GPRMC,110030.00,A,4155.822091,N,01236.687145,E,,,080219,,,A*55
$GPGGA,110031.00,4155.822091,N,01236.687145,E,1,05,1.2,0.0,M,45.0,M,,*63
$GPGSV,3,1,10,07,26,058,51,15,16,300,50,09,07,111,49,08,06,045,49*75
$GPGSV,3,2,10,21,02,323,,05,59,235,51,30,59,049,51,28,56,130,51*7A
$GPGSV,3,3,10,13,50,307,51,04,,,51*4F
$GLGSV,2,1,07,75,76,020,,65,73,140,,76,53,228,,66,40,325,*6D
$GLGSV,2,2,07,72,25,142,,74,19,036,,83,03,007,*56
$GPGSA,A,3,07,08,09,15,,,,,,,,,4.3,1.6,4.0*34
$GNGSA,A,3,07,08,09,15,,,,,,,,,4.3,1.6,4.0*2A
$GNGSA,A,3,,,,,,,,,,,,,4.3,1.6,4.0*28
$QZGSA,A,3,,,,,,,,,,,,,4.3,1.6,4.0*2A
$IMGSA,A,3,,,,,,,,,,,,,4.3,1.6,4.0*25
$GPRMC,110031.00,A,4155.822091,N,01236.687145,E,,,080219,,,A*54
$GPGGA,110032.00,4155.816639,N,01236.688814,E,1,05,1.2,0.0,M,45.0,M,,*61
$GPGSV,3,1,10,07,26,058,51,15,16,300,50,09,07,111,49,08,06,045,49*75
$GPGSV,3,2,10,21,02,323,,05,59,235,51,30,59,049,51,28,56,130,51*7A
$GPGSV,3,3,10,13,50,307,51,04,,,51*4F
$GLGSV,2,1,07,75,76,020,,65,73,140,,76,53,228,,66,40,325,*6D
$GLGSV,2,2,07,72,25,142,,74,19,036,,83,03,007,*56
$GPGSA,A,3,07,08,09,15,,,,,,,,,4.3,1.6,4.0*34
$GNGSA,A,3,07,08,09,15,,,,,,,,,4.3,1.6,4.0*2A
$GNGSA,A,3,,,,,,,,,,,,,4.3,1.6,4.0*28
$QZGSA,A,3,,,,,,,,,,,,,4.3,1.6,4.0*2A
$IMGSA,A,3,,,,,,,,,,,,,4.3,1.6,4.0*25
$GPRMC,110032.00,A,4155.816639,N,01236.688814,E,,,080219,,,A*56
$GPGGA,110033.00,4155.816639,N,01236.688814,E,1,05,1.2,0.0,M,45.0,M,,*60
$GPGSV,3,1,10,07,26,058,51,15,16,300,50,09,07,111,49,08,06,045,49*75
$GPGSV,3,2,10,21,02,323,,05,59,235,51,30,59,049,51,28,56,130,51*7A
$GPGSV,3,3,10,13,50,307,51,04,,,50*4E
$GLGSV,2,1,07,75,76,020,,65,73,140,,76,53,228,,66,40,325,*6D
$GLGSV,2,2,07,72,25,142,,74,19,036,,83,03,007,*56
$GPGSA,A,3,07,08,09,15,,,,,,,,,4.3,1.6,4.0*34
$GNGSA,A,3,07,08,09,15,,,,,,,,,4.3,1.6,4.0*2A
$GNGSA,A,3,,,,,,,,,,,,,4.3,1.6,4.0*28
$QZGSA,A,3,,,,,,,,,,,,,4.3,1.6,4.0*2A
$IMGSA,A,3,,,,,,,,,,,,,4.3,1.6,4.0*25
$GPRMC,110033.00,A,4155.816639,N,01236.688814,E,,,080219,,,A*57
$GPGGA,110034.00,4155.816639,N,01236.688814,E,1,05,1.2,0.0,M,45.0,M,,*67
$GPGSV,3,1,10,07,26,058,51,15,16,300,50,09,07,111,49,08,06,045,49*75
$GPGSV,3,2,10,21,02,323,,05,59,235,51,30,59,049,51,28,56,130,52*79
$GPGSV,3,3,10,13,50,307,51,04,,,50*4E
$GLGSV,2,1,07,75,76,020,,65,73,140,,76,53,228,,66,40,325,*6D
$GLGSV,2,2,07,72,25,142,,74,19,036,,83,03,007,*56
$GPGSA,A,3,07,08,09,15,,,,,,,,,4.3,1.6,4.0*34
$GNGSA,A,3,07,08,09,15,,,,,,,,,4.3,1.6,4.0*2A
$GNGSA,A,3,,,,,,,,,,,,,4.3,1.6,4.0*28
$QZGSA,A,3,,,,,,,,,,,,,4.3,1.6,4.0*2A
$IMGSA,A,3,,,,,,,,,,,,,4.3,1.6,4.0*25
$GPRMC,110034.00,A,4155.816639,N,01236.688814,E,,,080219,,,A*50
$GPGGA,110035.00,4155.816639,N,01236.688814,E,1,05,1.2,0.0,M,45.0,M,,*66
$GPGSV,3,1,10,07,26,058,51,15,16,300,50,09,07,111,49,08,06,045,49*75
$GPGSV,3,2,10,21,02,323,,05,59,235,51,30,59,049,51,28,56,130,52*79
$GPGSV,3,3,10,13,50,307,51,04,,,50*4E
$GLGSV,2,1,07,75,76,020,,65,73,140,,76,53,228,,66,40,325,*6D
$GLGSV,2,2,07,72,25,142,,74,19,036,,83,03,007,*56
$GPGSA,A,3,07,08,09,15,,,,,,,,,4.3,1.6,4.0*34
$GNGSA,A,3,07,08,09,15,,,,,,,,,4.3,1.6,4.0*2A
$GNGSA,A,3,,,,,,,,,,,,,4.3,1.6,4.0*28
$QZGSA,A,3,,,,,,,,,,,,,4.3,1.6,4.0*2A
$IMGSA,A,3,,,,,,,,,,,,,4.3,1.6,4.0*25
$GPRMC,110035.00,A,4155.816639,N,01236.688814,E,,,080219,,,A*51
$GPGGA,110036.00,4155.816639,N,01236.688814,E,1,05,1.2,0.0,M,45.0,M,,*65
$GPGSV,3,1,10,07,26,058,51,15,16,300,51,09,07,111,49,08,06,045,49*74
$GPGSV,3,2,10,21,02,323,,05,59,235,51,30,59,049,51,28,56,130,52*79
$GPGSV,3,3,10,13,50,307,51,04,,,51*4F
$GLGSV,2,1,07,75,76,020,,65,73,140,,76,53,228,,66,40,325,*6D
$GLGSV,2,2,07,72,25,142,,74,19,036,,83,03,007,*56
$GPGSA,A,3,07,08,09,15,,,,,,,,,4.3,1.6,4.0*34
$GNGSA,A,3,07,08,09,15,,,,,,,,,4.3,1.6,4.0*2A
$GNGSA,A,3,,,,,,,,,,,,,4.3,1.6,4.0*28
$QZGSA,A,3,,,,,,,,,,,,,4.3,1.6,4.0*2A
$IMGSA,A,3,,,,,,,,,,,,,4.3,1.6,4.0*25
$GPRMC,110036.00,A,4155.816639,N,01236.688814,E,,,080219,,,A*52
$GPGGA,110037.00,4155.811023,N,01236.689757,E,1,05,1.6,0.0,M,45.0,M,,*63
$GPGSV,3,1,10,07,26,058,51,15,16,300,50,09,07,111,49,08,06,045,49*75
$GPGSV,3,2,10,21,02,323,,05,59,235,51,30,59,049,51,28,56,130,52*79
$GPGSV,3,3,10,13,50,307,51,04,,,51*4F
$GLGSV,2,1,07,75,76,020,,65,73,140,,76,53,228,,66,40,325,*6D
$GLGSV,2,2,07,72,25,142,,74,19,036,,83,03,007,*56
$GPGSA,A,3,07,08,09,15,,,,,,,,,4.3,1.6,4.0*34
$GNGSA,A,3,07,08,09,15,,,,,,,,,4.3,1.6,4.0*2A
$GNGSA,A,3,,,,,,,,,,,,,4.3,1.6,4.0*28
$QZGSA,A,3,,,,,,,,,,,,,4.3,1.6,4.0*2A
$IMGSA,A,3,,,,,,,,,,,,,4.3,1.6,4.0*25
$GPRMC,110037.00,A,4155.811023,N,01236.689757,E,,,080219,,,A*50
$GPGGA,110038.00,4155.811023,N,01236.689757,E,1,05,1.6,0.0,M,45.0,M,,*6C
$GPGSV,3,1,10,07,26,058,51,15,16,300,50,09,07,111,49,08,06,045,49*75
$GPGSV,3,2,10,21,02,323,,05,59,235,51,30,59,049,51,28,56,130,52*79
$GPGSV,3,3,10,13,50,307,51,04,,,51*4F
$GLGSV,2,1,07,75,76,020,,65,73,140,,76,53,229,,66,40,325,*6C
$GLGSV,2,2,07,72,25,142,,74,19,036,,83,03,007,*56
$GPGSA,A,3,07,08,09,15,,,,,,,,,4.3,1.6,4.0*34
$GNGSA,A,3,07,08,09,15,,,,,,,,,4.3,1.6,4.0*2A
$GNGSA,A,3,,,,,,,,,,,,,4.3,1.6,4.0*28
$QZGSA,A,3,,,,,,,,,,,,,4.3,1.6,4.0*2A
$IMGSA,A,3,,,,,,,,,,,,,4.3,1.6,4.0*25
$GPRMC,110038.00,A,4155.811023,N,01236.689757,E,,,080219,,,A*5F
$GPGGA,110039.00,4155.806467,N,01236.685569,E,1,05,1.6,0.0,M,45.0,M,,*6C
$GPGSV,3,1,10,07,26,058,51,15,16,300,50,09,07,111,49,08,06,045,49*75
$GPGSV,3,2,10,21,02,323,,05,59,235,51,30,59,049,51,28,56,130,52*79
$GPGSV,3,3,10,13,50,307,51,04,,,51*4F
$GLGSV,2,1,07,75,76,020,,65,73,140,,76,53,229,,66,40,325,*6C
$GLGSV,2,2,07,72,25,142,,74,19,036,,83,03,007,*56
$GPGSA,A,3,07,08,09,15,,,,,,,,,4.3,1.6,4.0*34
$GNGSA,A,3,07,08,09,15,,,,,,,,,4.3,1.6,4.0*2A
$GNGSA,A,3,,,,,,,,,,,,,4.3,1.6,4.0*28
$QZGSA,A,3,,,,,,,,,,,,,4.3,1.6,4.0*2A
$IMGSA,A,3,,,,,,,,,,,,,4.3,1.6,4.0*25
$GPRMC,110039.00,A,4155.806467,N,01236.685569,E,,,080219,,,A*5F
$GPGGA,110040.00,4155.806467,N,01236.685569,E,1,05,1.6,0.0,M,45.0,M,,*62
$GPGSV,3,1,10,07,26,058,51,15,16,300,50,09,07,112,49,08,06,045,49*76
$GPGSV,3,2,10,21,02,323,,05,59,235,51,30,59,049,52,28,56,130,52*7A
$GPGSV,3,3,10,13,50,307,51,04,,,51*4F
$GLGSV,2,1,07,75,76,020,,65,73,140,,76,53,229,,66,40,325,*6C
$GLGSV,2,2,07,72,25,142,,74,19,036,,83,03,007,*56
$GPGSA,A,3,07,08,09,15,,,,,,,,,4.3,1.6,4.0*34
$GNGSA,A,3,07,08,09,15,,,,,,,,,4.3,1.6,4.0*2A
$GNGSA,A,3,,,,,,,,,,,,,4.3,1.6,4.0*28
$QZGSA,A,3,,,,,,,,,,,,,4.3,1.6,4.0*2A
$IMGSA,A,3,,,,,,,,,,,,,4.3,1.6,4.0*25
$GPRMC,110040.00,A,4155.806467,N,01236.685569,E,,,080219,,,A*51
$GPGGA,110041.00,4155.800247,N,01236.688783,E,1,05,3.2,0.0,M,45.0,M,,*6C
$GPGSV,3,1,10,07,26,058,51,15,16,300,50,09,07,112,49,08,06,045,49*76
$GPGSV,3,2,10,21,02,323,,05,59,235,51,30,59,049,52,28,56,130,52*7A
$GPGSV,3,3,10,13,50,307,51,04,,,51*4F
$GLGSV,2,1,07,75,76,020,,65,73,140,,76,53,229,,66,40,325,*6C
$GLGSV,2,2,07,72,25,142,,74,19,036,,83,03,007,*56
$GPGSA,A,3,07,08,09,15,,,,,,,,,4.3,1.6,4.0*34
$GNGSA,A,3,07,08,09,15,,,,,,,,,4.3,1.6,4.0*2A
$GNGSA,A,3,,,,,,,,,,,,,4.3,1.6,4.0*28
$QZGSA,A,3,,,,,,,,,,,,,4.3,1.6,4.0*2A
$IMGSA,A,3,,,,,,,,,,,,,4.3,1.6,4.0*25
$GPRMC,110041.00,A,4155.800247,N,01236.688783,E,003.1,,080219,,,A*75
$GPGGA,110042.00,4155.797301,N,01236.692249,E,1,05,3.2,0.0,M,45.0,M,,*65
$GPGSV,3,1,10,07,26,058,51,15,16,300,50,09,07,112,49,08,06,045,49*76
$GPGSV,3,2,10,21,02,323,,05,59,235,51,30,59,049,51,28,56,130,52*79
$GPGSV,3,3,10,13,50,307,51,04,,,51*4F
$GLGSV,2,1,07,75,76,020,,65,73,140,,76,53,229,,66,40,325,*6C
$GLGSV,2,2,07,72,25,142,,74,19,036,,83,03,007,*56
$GPGSA,A,3,07,08,09,15,,,,,,,,,4.3,1.6,4.0*34
$GNGSA,A,3,07,08,09,15,,,,,,,,,4.3,1.6,4.0*2A
$GNGSA,A,3,,,,,,,,,,,,,4.3,1.6,4.0*28
$QZGSA,A,3,,,,,,,,,,,,,4.3,1.6,4.0*2A
$IMGSA,A,3,,,,,,,,,,,,,4.3,1.6,4.0*25
$GPRMC,110042.00,A,4155.797301,N,01236.692249,E,,,080219,,,A*50
$GPGGA,110043.00,4155.793152,N,01236.688056,E,1,05,3.2,0.0,M,45.0,M,,*63
$GPGSV,3,1,10,07,26,058,51,15,16,300,50,09,07,112,49,08,06,045,49*76
$GPGSV,3,2,10,21,02,323,,05,59,235,51,30,59,049,51,28,56,130,52*79
$GPGSV,3,3,10,13,50,307,51,04,,,51*4F
$GLGSV,2,1,07,75,76,020,,65,73,140,,76,53,229,,66,40,325,*6C
$GLGSV,2,2,07,72,25,142,,74,19,036,,83,03,007,*56
$GPGSA,A,3,07,08,09,15,,,,,,,,,4.3,1.6,4.0*34
$GNGSA,A,3,07,08,09,15,,,,,,,,,4.3,1.6,4.0*2A
$GNGSA,A,3,,,,,,,,,,,,,4.3,1.6,4.0*28
$QZGSA,A,3,,,,,,,,,,,,,4.3,1.6,4.0*2A
$IMGSA,A,3,,,,,,,,,,,,,4.3,1.6,4.0*25
$GPRMC,110043.00,A,4155.793152,N,01236.688056,E,002.9,,080219,,,A*73
$GPGGA,110044.00,4155.793152,N,01236.688056,E,1,05,3.2,0.0,M,45.0,M,,*64
$GPGSV,3,1,10,07,26,058,51,15,16,300,50,09,07,112,49,08,06,045,49*76
$GPGSV,3,2,10,21,02,323,,05,59,235,51,30,59,049,51,28,56,130,52*79
$GPGSV,3,3,10,13,50,307,51,04,,,51*4F
$GLGSV,2,1,07,75,75,020,,65,73,140,,76,53,229,,66,40,325,*6F
$GLGSV,2,2,07,72,25,142,,74,19,036,,83,03,007,*56
$GPGSA,A,3,07,08,09,15,,,,,,,,,4.3,1.6,4.0*34
$GNGSA,A,3,07,08,09,15,,,,,,,,,4.3,1.6,4.0*2A
$GNGSA,A,3,,,,,,,,,,,,,4.3,1.6,4.0*28
$QZGSA,A,3,,,,,,,,,,,,,4.3,1.6,4.0*2A
$IMGSA,A,3,,,,,,,,,,,,,4.3,1.6,4.0*25
$GPRMC,110044.00,A,4155.793152,N,01236.688056,E,,,080219,,,A*51
$GPGGA,110045.00,4155.787851,N,01236.691816,E,1,05,3.2,0.0,M,45.0,M,,*6E
$GPGSV,3,1,10,07,26,058,51,15,16,300,50,09,07,112,49,08,06,045,49*76
$GPGSV,3,2,10,21,02,323,,05,59,235,51,30,59,049,51,28,56,129,51*72
$GPGSV,3,3,10,13,50,307,51,04,,,51*4F
$GLGSV,2,1,07,75,75,020,,65,73,140,,76,53,229,,66,40,325,*6F
$GLGSV,2,2,07,72,25,142,,74,19,036,,83,03,007,*56
$GPGSA,A,3,07,08,09,15,,,,,,,,,4.3,1.6,4.0*34
$GNGSA,A,3,07,08,09,15,,,,,,,,,4.3,1.6,4.0*2A
$GNGSA,A,3,,,,,,,,,,,,,4.3,1.6,4.0*28
$QZGSA,A,3,,,,,,,,,,,,,4.3,1.6,4.0*2A
$IMGSA,A,3,,,,,,,,,,,,,4.3,1.6,4.0*25
$GPRMC,110045.00,A,4155.787851,N,01236.691816,E,002.6,,080219,,,A*71
$GPGGA,110046.00,4155.787419,N,01236.692908,E,1,05,3.2,0.0,M,45.0,M,,*60
$GPGSV,3,1,10,07,26,058,51,15,16,300,50,09,07,112,49,08,06,045,49*76
$GPGSV,3,2,10,21,02,323,,05,59,235,51,30,59,049,51,28,56,129,51*72
$GPGSV,3,3,10,13,50,307,51,04,,,50*4E
$GLGSV,2,1,07,75,75,020,,65,73,140,,76,53,229,,66,40,325,*6F
$GLGSV,2,2,07,72,25,142,,74,19,036,,83,03,007,*56
$GPGSA,A,3,07,08,09,15,,,,,,,,,4.3,1.6,4.0*34
$GNGSA,A,3,07,08,09,15,,,,,,,,,4.3,1.6,4.0*2A
$GNGSA,A,3,,,,,,,,,,,,,4.3,1.6,4.0*28
$QZGSA,A,3,,,,,,,,,,,,,4.3,1.6,4.0*2A
$IMGSA,A,3,,,,,,,,,,,,,4.3,1.6,4.0*25
$GPRMC,110046.00,A,4155.787419,N,01236.692908,E,002.9,,080219,,,A*70
$GPGGA,110047.00,4155.787419,N,01236.692908,E,1,05,3.2,0.0,M,45.0,M,,*61
$GPGSV,3,1,10,07,26,058,51,15,16,300,50,09,07,112,49,08,06,045,49*76
$GPGSV,3,2,10,21,02,323,,05,59,235,51,30,59,049,51,28,56,129,51*72
$GPGSV,3,3,10,13,50,307,51,04,,,50*4E
$GLGSV,2,1,07,75,75,020,,65,73,140,,76,53,229,,66,40,325,*6F
$GLGSV,2,2,07,72,25,142,,74,19,036,,83,03,007,*56
$GPGSA,A,3,07,08,09,15,,,,,,,,,4.3,1.6,4.0*34
$GNGSA,A,3,07,08,09,15,,,,,,,,,4.3,1.6,4.0*2A
$GNGSA,A,3,,,,,,,,,,,,,4.3,1.6,4.0*28
$QZGSA,A,3,,,,,,,,,,,,,4.3,1.6,4.0*2A
$IMGSA,A,3,,,,,,,,,,,,,4.3,1.6,4.0*25
$GPRMC,110047.00,A,4155.787419,N,01236.692908,E,,,080219,,,A*54
$GPGGA,110048.00,4155.784468,N,01236.693416,E,1,05,3.2,0.0,M,45.0,M,,*68
$GPGSV,3,1,10,07,26,058,51,15,16,300,50,09,07,112,49,08,06,045,49*76
$GPGSV,3,2,10,21,02,323,,05,59,235,51,30,59,049,51,28,56,129,51*72
$GPGSV,3,3,10,13,50,307,51,04,,,50*4E
$GLGSV,2,1,07,75,75,020,,65,73,140,,76,53,229,,66,40,325,*6F
$GLGSV,2,2,07,72,25,142,,74,19,036,,83,03,007,*56
$GPGSA,A,3,07,08,09,15,,,,,,,,,4.3,1.6,4.0*34
$GNGSA,A,3,07,08,09,15,,,,,,,,,4.3,1.6,4.0*2A
$GNGSA,A,3,,,,,,,,,,,,,4.3,1.6,4.0*28
$QZGSA,A,3,,,,,,,,,,,,,4.3,1.6,4.0*2A
$IMGSA,A,3,,,,,,,,,,,,,4.3,1.6,4.0*25
$GPRMC,110048.00,A,4155.784468,N,01236.693416,E,002.3,,080219,,,A*72
$GPGGA,110049.00,4155.784468,N,01236.693416,E,1,05,3.2,0.0,M,45.0,M,,*69
$GPGSV,3,1,10,07,26,058,51,15,16,300,50,09,07,112,49,08,06,045,49*76
$GPGSV,3,2,10,21,02,323,,05,59,235,51,30,59,049,51,28,56,129,51*72
$GPGSV,3,3,10,13,50,307,51,04,,,50*4E
$GLGSV,2,1,07,75,75,020,,65,73,140,,76,53,229,,66,40,325,*6F
$GLGSV,2,2,07,72,25,142,,74,19,036,,83,03,007,*56
$GPGSA,A,3,07,08,09,15,,,,,,,,,4.3,1.6,4.0*34
$GNGSA,A,3,07,08,09,15,,,,,,,,,4.3,1.6,4.0*2A
$GNGSA,A,3,,,,,,,,,,,,,4.3,1.6,4.0*28
$QZGSA,A,3,,,,,,,,,,,,,4.3,1.6,4.0*2A
$IMGSA,A,3,,,,,,,,,,,,,4.3,1.6,4.0*25
$GPRMC,110049.00,A,4155.784468,N,01236.693416,E,,,080219,,,A*5C
$GPGGA,110050.00,4155.781902,N,01236.693976,E,1,05,3.2,0.0,M,45.0,M,,*6E
$GPGSV,3,1,10,07,26,058,51,15,16,300,50,09,07,112,49,08,06,045,49*76
$GPGSV,3,2,10,21,02,323,,05,59,235,51,30,59,049,51,28,56,129,51*72
$GPGSV,3,3,10,13,50,307,51,04,,,50*4E
$GLGSV,2,1,07,75,75,020,,65,73,140,,76,53,229,,66,40,325,*6F
$GLGSV,2,2,07,72,25,142,,74,19,036,,83,03,007,*56
$GPGSA,A,3,07,08,09,15,,,,,,,,,4.3,1.6,4.0*34
$GNGSA,A,3,07,08,09,15,,,,,,,,,4.3,1.6,4.0*2A
$GNGSA,A,3,,,,,,,,,,,,,4.3,1.6,4.0*28
$QZGSA,A,3,,,,,,,,,,,,,4.3,1.6,4.0*2A
$IMGSA,A,3,,,,,,,,,,,,,4.3,1.6,4.0*25
$GPRMC,110050.00,A,4155.781902,N,01236.693976,E,004.0,,080219,,,A*71
$GPGGA,110051.00,4155.780474,N,01236.696143,E,1,05,3.2,0.0,M,45.0,M,,*69
$GPGSV,3,1,10,07,26,058,51,15,16,300,50,09,07,112,49,08,06,045,49*76
$GPGSV,3,2,10,21,02,323,,05,59,235,51,30,59,049,51,28,56,129,51*72
$GPGSV,3,3,10,13,50,307,51,04,,,50*4E
$GLGSV,2,1,07,75,75,020,,65,73,140,,76,53,229,,66,40,325,*6F
$GLGSV,2,2,07,72,25,142,,74,19,036,,83,03,007,*56
$GPGSA,A,3,07,08,09,15,,,,,,,,,4.3,1.6,4.0*34
$GNGSA,A,3,07,08,09,15,,,,,,,,,4.3,1.6,4.0*2A
$GNGSA,A,3,,,,,,,,,,,,,4.3,1.6,4.0*28
$QZGSA,A,3,,,,,,,,,,,,,4.3,1.6,4.0*2A
$IMGSA,A,3,,,,,,,,,,,,,4.3,1.6,4.0*25
$GPRMC,110051.00,A,4155.780474,N,01236.696143,E,003.2,,080219,,,A*73
$GPGGA,110052.00,4155.778226,N,01236.695756,E,1,05,3.2,0.0,M,45.0,M,,*6D
$GPGSV,3,1,10,07,26,058,51,15,16,300,50,09,07,112,49,08,06,045,49*76
$GPGSV,3,2,10,21,02,323,,05,59,235,51,30,59,049,51,28,56,129,51*72
$GPGSV,3,3,10,13,50,307,51,04,,,50*4E
$GLGSV,2,1,07,75,75,020,,65,73,140,,76,53,229,,66,40,325,*6F
$GLGSV,2,2,07,72,25,142,,74,19,036,,83,03,007,*56
$GPGSA,A,3,07,08,09,15,,,,,,,,,4.3,1.6,4.0*34
$GNGSA,A,3,07,08,09,15,,,,,,,,,4.3,1.6,4.0*2A
$GNGSA,A,3,,,,,,,,,,,,,4.3,1.6,4.0*28
$QZGSA,A,3,,,,,,,,,,,,,4.3,1.6,4.0*2A
$IMGSA,A,3,,,,,,,,,,,,,4.3,1.6,4.0*25
$GPRMC,110052.00,A,4155.778226,N,01236.695756,E,003.0,,080219,,,A*75
$GPGGA,110053.00,4155.778735,N,01236.693822,E,1,05,3.2,0.0,M,45.0,M,,*61
$GPGSV,3,1,10,07,26,058,51,15,16,300,50,09,07,112,49,08,06,045,49*76
$GPGSV,3,2,10,21,02,323,,05,59,235,51,30,59,049,51,28,56,129,51*72
$GPGSV,3,3,10,13,50,307,51,04,,,50*4E
$GLGSV,2,1,07,75,75,020,,65,73,140,,76,53,229,,66,40,325,*6F
$GLGSV,2,2,07,72,25,142,,74,19,036,,83,03,007,*56
$GPGSA,A,3,07,08,09,15,,,,,,,,,4.3,1.6,4.0*34
$GNGSA,A,3,07,08,09,15,,,,,,,,,4.3,1.6,4.0*2A
$GNGSA,A,3,,,,,,,,,,,,,4.3,1.6,4.0*28
$QZGSA,A,3,,,,,,,,,,,,,4.3,1.6,4.0*2A
$IMGSA,A,3,,,,,,,,,,,,,4.3,1.6,4.0*25
$GPRMC,110053.00,A,4155.778735,N,01236.693822,E,013.1,,080219,,,A*79
$GPGGA,110054.00,4155.772342,N,01236.695739,E,1,05,3.2,0.0,M,45.0,M,,*6B
$GPGSV,3,1,10,07,26,058,51,15,16,300,50,09,07,112,49,08,06,045,49*76
$GPGSV,3,2,10,21,02,323,,05,59,235,51,30,59,049,51,28,56,129,51*72
$GPGSV,3,3,10,13,50,307,51,04,,,50*4E
$GLGSV,2,1,07,75,75,020,,65,73,140,,76,53,229,,66,40,325,*6F
$GLGSV,2,2,07,72,25,142,,74,19,036,,83,03,007,*56
$GPGSA,A,3,07,08,09,15,,,,,,,,,4.3,1.6,4.0*34
$GNGSA,A,3,07,08,09,15,,,,,,,,,4.3,1.6,4.0*2A
$GNGSA,A,3,,,,,,,,,,,,,4.3,1.6,4.0*28
$QZGSA,A,3,,,,,,,,,,,,,4.3,1.6,4.0*2A
$IMGSA,A,3,,,,,,,,,,,,,4.3,1.6,4.0*25
$GPRMC,110054.00,A,4155.772342,N,01236.695739,E,009.0,,080219,,,A*79
$GPGGA,110055.00,4155.772342,N,01236.695739,E,1,05,3.2,0.0,M,45.0,M,,*6A
$GPGSV,3,1,10,07,26,058,51,15,16,300,50,09,07,112,49,08,06,045,49*76
$GPGSV,3,2,10,21,02,323,,05,59,235,51,30,59,049,51,28,56,129,51*72
$GPGSV,3,3,10,13,50,307,51,04,,,50*4E
$GLGSV,2,1,07,75,75,020,,65,73,140,,76,53,229,,66,40,325,*6F
$GLGSV,2,2,07,72,25,142,,74,19,036,,83,03,007,*56
$GPGSA,A,3,07,08,09,15,,,,,,,,,4.3,1.6,4.0*34
$GNGSA,A,3,07,08,09,15,,,,,,,,,4.3,1.6,4.0*2A
$GNGSA,A,3,,,,,,,,,,,,,4.3,1.6,4.0*28
$QZGSA,A,3,,,,,,,,,,,,,4.3,1.6,4.0*2A
$IMGSA,A,3,,,,,,,,,,,,,4.3,1.6,4.0*25
$GPRMC,110055.00,A,4155.772342,N,01236.695739,E,,,080219,,,A*5F
$GPGGA,110056.00,4155.768486,N,01236.696083,E,1,05,3.2,0.0,M,45.0,M,,*68
$GPGSV,3,1,10,07,26,058,51,15,16,300,50,09,07,112,49,08,06,045,49*76
$GPGSV,3,2,10,21,02,323,,05,59,235,51,30,59,049,51,28,56,129,51*72
$GPGSV,3,3,10,13,50,307,51,04,,,50*4E
$GLGSV,2,1,07,75,75,020,,65,73,140,,76,53,229,,66,40,325,*6F
$GLGSV,2,2,07,72,25,142,,74,19,036,,83,03,007,*56
$GPGSA,A,3,07,08,09,15,,,,,,,,,4.3,1.6,4.0*34
$GNGSA,A,3,07,08,09,15,,,,,,,,,4.3,1.6,4.0*2A
$GNGSA,A,3,,,,,,,,,,,,,4.3,1.6,4.0*28
$QZGSA,A,3,,,,,,,,,,,,,4.3,1.6,4.0*2A
$IMGSA,A,3,,,,,,,,,,,,,4.3,1.6,4.0*25
$GPRMC,110056.00,A,4155.768486,N,01236.696083,E,001.1,,080219,,,A*73
$GPGGA,110057.00,4155.767309,N,01236.696224,E,1,05,3.2,0.0,M,45.0,M,,*69
$GPGSV,3,1,10,07,26,058,51,15,16,300,50,09,07,112,49,08,06,045,49*76
$GPGSV,3,2,10,21,02,323,,05,59,235,51,30,59,049,51,28,56,129,51*72
$GPGSV,3,3,10,13,50,307,51,04,,,50*4E
$GLGSV,2,1,07,75,75,020,,65,73,140,,76,53,229,,66,40,325,*6F
$GLGSV,2,2,07,72,25,142,,74,19,036,,83,03,007,*56
$GPGSA,A,3,07,08,09,15,,,,,,,,,4.3,1.6,4.0*34
$GNGSA,A,3,07,08,09,15,,,,,,,,,4.3,1.6,4.0*2A
$GNGSA,A,3,,,,,,,,,,,,,4.3,1.6,4.0*28
$QZGSA,A,3,,,,,,,,,,,,,4.3,1.6,4.0*2A
$IMGSA,A,3,,,,,,,,,,,,,4.3,1.6,4.0*25
$GPRMC,110057.00,A,4155.767309,N,01236.696224,E,,,080219,,,A*5C
$GPGGA,110058.00,4155.767309,N,01236.696224,E,1,05,3.2,0.0,M,45.0,M,,*66
$GPGSV,3,1,10,07,26,058,51,15,16,300,50,09,07,112,49,08,06,045,49*76
$GPGSV,3,2,10,21,02,323,,05,59,235,51,30,59,049,51,28,56,129,51*72
$GPGSV,3,3,10,13,50,307,51,04,,,50*4E
$GLGSV,2,1,07,75,75,020,,65,73,140,,76,53,229,,66,40,325,*6F
$GLGSV,2,2,07,72,25,142,,74,19,036,,83,03,007,*56
$GPGSA,A,3,07,08,09,15,,,,,,,,,4.3,1.6,4.0*34
$GNGSA,A,3,07,08,09,15,,,,,,,,,4.3,1.6,4.0*2A
$GNGSA,A,3,,,,,,,,,,,,,4.3,1.6,4.0*28
$QZGSA,A,3,,,,,,,,,,,,,4.3,1.6,4.0*2A
$IMGSA,A,3,,,,,,,,,,,,,4.3,1.6,4.0*25
$GPRMC,110058.00,A,4155.767309,N,01236.696224,E,000.0,,080219,,,A*7D
$GPGGA,110059.00,4155.764480,N,01236.694781,E,1,05,3.2,0.0,M,45.0,M,,*6A
$GPGSV,3,1,10,07,26,058,51,15,16,300,50,09,07,112,49,08,06,045,49*76
$GPGSV,3,2,10,21,02,323,,05,59,235,51,30,59,049,51,28,56,129,51*72
$GPGSV,3,3,10,13,50,307,51,04,,,50*4E
$GLGSV,2,1,07,75,75,020,,65,73,140,,76,53,229,,66,40,325,*6F
$GLGSV,2,2,07,72,25,142,,74,19,036,,83,03,007,*56
$GPGSA,A,3,07,08,09,15,,,,,,,,,4.3,1.6,4.0*34
$GNGSA,A,3,07,08,09,15,,,,,,,,,4.3,1.6,4.0*2A
$GNGSA,A,3,,,,,,,,,,,,,4.3,1.6,4.0*28
$QZGSA,A,3,,,,,,,,,,,,,4.3,1.6,4.0*2A
$IMGSA,A,3,,,,,,,,,,,,,4.3,1.6,4.0*25
$GPRMC,110059.00,A,4155.764480,N,01236.694781,E,003.0,,080219,,,A*72
$GPGGA,110100.00,4155.764480,N,01236.694781,E,1,05,3.2,0.0,M,45.0,M,,*67
$GPGSV,3,1,10,07,26,058,51,15,16,300,50,09,07,112,49,08,06,045,49*76
$GPGSV,3,2,10,21,02,323,,05,59,235,51,30,59,049,51,28,56,129,51*72
$GPGSV,3,3,10,13,50,307,51,04,,,50*4E
$GLGSV,2,1,07,75,75,020,,65,73,140,,76,53,229,,66,40,325,*6F
$GLGSV,2,2,07,72,25,142,,74,19,036,,83,03,006,*57
$GPGSA,A,3,07,08,09,15,,,,,,,,,4.3,1.6,4.0*34
$GNGSA,A,3,07,08,09,15,,,,,,,,,4.3,1.6,4.0*2A
$GNGSA,A,3,,,,,,,,,,,,,4.3,1.6,4.0*28
$QZGSA,A,3,,,,,,,,,,,,,4.3,1.6,4.0*2A
$IMGSA,A,3,,,,,,,,,,,,,4.3,1.6,4.0*25
$GPRMC,110100.00,A,4155.764480,N,01236.694781,E,,,080219,,,A*52
$GPGGA,110101.00,4155.764480,N,01236.694781,E,1,05,3.2,0.0,M,45.0,M,,*66
$GPGSV,3,1,10,07,26,058,51,15,16,300,50,09,07,112,49,08,06,045,49*76
$GPGSV,3,2,10,21,02,323,,05,59,235,51,30,59,049,51,28,56,129,51*72
$GPGSV,3,3,10,13,50,307,51,04,,,50*4E
$GLGSV,2,1,07,75,75,020,,65,73,140,,76,53,229,,66,40,325,*6F
$GLGSV,2,2,07,72,25,142,,74,19,036,,83,03,006,*57
$GPGSA,A,3,07,08,09,15,,,,,,,,,4.3,1.6,4.0*34
$GNGSA,A,3,07,08,09,15,,,,,,,,,4.3,1.6,4.0*2A
$GNGSA,A,3,,,,,,,,,,,,,4.3,1.6,4.0*28
$QZGSA,A,3,,,,,,,,,,,,,4.3,1.6,4.0*2A
$IMGSA,A,3,,,,,,,,,,,,,4.3,1.6,4.0*25
$GPRMC,110101.00,A,4155.764480,N,01236.694781,E,,,080219,,,A*53
$GPGGA,110102.00,,,,,0,05,20.0,0.0,M,45.0,M,,*63
$GPGSV,3,1,10,07,26,058,51,15,16,300,50,09,07,112,49,08,06,045,49*76
$GPGSV,3,2,10,21,02,323,,05,59,235,51,30,59,049,51,28,56,129,51*72
$GPGSV,3,3,10,13,50,307,51,04,,,50*4E
$GLGSV,2,1,07,75,75,020,,65,73,140,,76,53,229,,66,40,325,*6F
$GLGSV,2,2,07,72,25,142,,74,19,036,,83,03,006,*57
$GPGSA,A,1,,,,,,,,,,,,,140.0,99.0,99.0*35
$GNGSA,A,1,,,,,,,,,,,,,140.0,99.0,99.0*2B
$GNGSA,A,1,,,,,,,,,,,,,140.0,99.0,99.0*2B
$QZGSA,A,1,,,,,,,,,,,,,140.0,99.0,99.0*29
$IMGSA,A,1,,,,,,,,,,,,,140.0,99.0,99.0*26
$GPRMC,110102.00,V,,,,,,,080219,,,N*7C
$GPGGA,110103.00,,,,,0,05,20.0,0.0,M,45.0,M,,*62
$GPGSV,3,1,10,07,26,058,51,15,16,300,50,09,07,112,49,08,06,045,49*76
$GPGSV,3,2,10,21,02,323,,05,59,235,51,30,59,049,51,28,56,129,51*72
$GPGSV,3,3,10,13,50,307,51,04,,,51*4F
$GLGSV,2,1,07,75,75,020,,65,73,140,,76,53,229,,66,40,325,*6F
$GLGSV,2,2,07,72,25,142,,74,19,036,,83,03,006,*57
$GPGSA,A,1,,,,,,,,,,,,,140.0,99.0,99.0*35
$GNGSA,A,1,,,,,,,,,,,,,140.0,99.0,99.0*2B
$GNGSA,A,1,,,,,,,,,,,,,140.0,99.0,99.0*2B
$QZGSA,A,1,,,,,,,,,,,,,140.0,99.0,99.0*29
$IMGSA,A,1,,,,,,,,,,,,,140.0,99.0,99.0*26
$GPRMC,110103.00,V,,,,,,,080219,,,N*7D
$GPGGA,110104.00,,,,,0,05,20.0,0.0,M,45.0,M,,*65
$GPGSV,3,1,10,07,26,058,51,15,16,300,50,09,07,112,49,08,06,045,49*76
$GPGSV,3,2,10,21,02,323,,05,59,235,51,30,59,049,51,28,56,129,51*72
$GPGSV,3,3,10,13,50,307,51,04,,,50*4E
$GLGSV,2,1,07,75,75,020,,65,73,140,,76,53,229,,66,40,325,*6F
$GLGSV,2,2,07,72,25,142,,74,19,036,,83,03,006,*57
$GPGSA,A,1,,,,,,,,,,,,,140.0,99.0,99.0*35
$GNGSA,A,1,,,,,,,,,,,,,140.0,99.0,99.0*2B
$GNGSA,A,1,,,,,,,,,,,,,140.0,99.0,99.0*2B
$QZGSA,A,1,,,,,,,,,,,,,140.0,99.0,99.0*29
$IMGSA,A,1,,,,,,,,,,,,,140.0,99.0,99.0*26
$GPRMC,110104.00,V,,,,,,,080219,,,N*7A
$GPGGA,110105.00,,,,,0,05,20.0,0.0,M,45.0,M,,*64
$GPGSV,3,1,10,07,26,058,51,15,16,300,50,09,07,112,49,08,06,045,49*76
$GPGSV,3,2,10,21,02,323,,05,59,235,51,30,59,049,51,28,56,129,51*72
$GPGSV,3,3,10,13,50,307,51,04,,,51*4F
$GLGSV,2,1,07,75,75,020,,65,73,140,,76,53,229,,66,40,325,*6F
$GLGSV,2,2,07,72,25,142,,74,19,036,,83,03,006,*57
$GPGSA,A,1,,,,,,,,,,,,,140.0,99.0,99.0*35
$GNGSA,A,1,,,,,,,,,,,,,140.0,99.0,99.0*2B
$GNGSA,A,1,,,,,,,,,,,,,140.0,99.0,99.0*2B
$QZGSA,A,1,,,,,,,,,,,,,140.0,99.0,99.0*29
$IMGSA,A,1,,,,,,,,,,,,,140.0,99.0,99.0*26
$GPRMC,110105.00,V,,,,,,,080219,,,N*7B
$GPGGA,110106.00,,,,,0,05,20.0,0.0,M,45.0,M,,*67
$GPGSV,3,1,10,07,26,058,51,15,16,300,50,09,07,112,49,08,06,045,49*76
$GPGSV,3,2,10,21,02,323,,05,59,235,51,30,59,049,51,28,56,129,51*72
$GPGSV,3,3,10,13,50,307,51,04,,,51*4F
$GLGSV,2,1,07,75,75,020,,65,73,140,,76,53,229,,66,40,325,*6F
$GLGSV,2,2,07,72,25,142,,74,19,036,,83,03,006,*57
$GPGSA,A,1,,,,,,,,,,,,,140.0,99.0,99.0*35
$GNGSA,A,1,,,,,,,,,,,,,140.0,99.0,99.0*2B
$GNGSA,A,1,,,,,,,,,,,,,140.0,99.0,99.0*2B
$QZGSA,A,1,,,,,,,,,,,,,140.0,99.0,99.0*29
$IMGSA,A,1,,,,,,,,,,,,,140.0,99.0,99.0*26
$GPRMC,110106.00,V,,,,,,,080219,,,N*78
$GPGGA,110107.00,,,,,0,05,20.0,0.0,M,45.0,M,,*66
$GPGSV,3,1,10,07,26,058,51,15,16,300,50,09,07,112,49,08,06,045,49*76
$GPGSV,3,2,10,21,02,323,,05,59,235,51,30,59,049,51,28,56,129,51*72
$GPGSV,3,3,10,13,50,307,51,04,,,50*4E
$GLGSV,2,1,07,75,75,020,,65,73,140,,76,53,229,,66,40,325,*6F
$GLGSV,2,2,07,72,25,142,,74,19,036,,83,03,006,*57
$GPGSA,A,1,,,,,,,,,,,,,140.0,99.0,99.0*35
$GNGSA,A,1,,,,,,,,,,,,,140.0,99.0,99.0*2B
$GNGSA,A,1,,,,,,,,,,,,,140.0,99.0,99.0*2B
$QZGSA,A,1,,,,,,,,,,,,,140.0,99.0,99.0*29
$IMGSA,A,1,,,,,,,,,,,,,140.0,99.0,99.0*26
$GPRMC,110107.00,V,,,,,,,080219,,,N*79
$GPGGA,110108.00,,,,,0,05,20.0,0.0,M,45.0,M,,*69
$GPGSV,3,1,10,07,26,059,51,15,16,300,50,09,07,112,49,08,06,045,49*77
$GPGSV,3,2,10,21,02,323,,05,59,235,51,30,59,049,51,28,56,129,51*72
$GPGSV,3,3,10,13,50,307,51,04,,,50*4E
$GLGSV,2,1,07,75,75,020,,65,73,140,,76,53,229,,66,40,325,*6F
$GLGSV,2,2,07,72,25,142,,74,19,036,,83,03,006,*57
$GPGSA,A,1,,,,,,,,,,,,,140.0,99.0,99.0*35
$GNGSA,A,1,,,,,,,,,,,,,140.0,99.0,99.0*2B
$GNGSA,A,1,,,,,,,,,,,,,140.0,99.0,99.0*2B
$QZGSA,A,1,,,,,,,,,,,,,140.0,99.0,99.0*29
$IMGSA,A,1,,,,,,,,,,,,,140.0,99.0,99.0*26
$GPRMC,110108.00,V,,,,,,,080219,,,N*76
$GPGGA,110109.00,,,,,0,05,20.0,0.0,M,45.0,M,,*68
$GPGSV,3,1,10,07,26,059,51,15,16,300,50,09,07,112,49,08,06,045,49*77
$GPGSV,3,2,10,21,02,323,,05,59,235,51,30,59,049,51,28,56,129,51*72
$GPGSV,3,3,10,13,50,307,52,04,,,50*4D
$GLGSV,2,1,07,75,75,020,,65,73,140,,76,53,229,,66,40,325,*6F
$GLGSV,2,2,07,72,25,142,,74,19,036,,83,03,006,*57
$GPGSA,A,1,,,,,,,,,,,,,140.0,99.0,99.0*35
$GNGSA,A,1,,,,,,,,,,,,,140.0,99.0,99.0*2B
$GNGSA,A,1,,,,,,,,,,,,,140.0,99.0,99.0*2B
$QZGSA,A,1,,,,,,,,,,,,,140.0,99.0,99.0*29
$IMGSA,A,1,,,,,,,,,,,,,140.0,99.0,99.0*26
$GPRMC,110109.00,V,,,,,,,080219,,,N*77
$GPGGA,110110.00,,,,,0,05,20.0,0.0,M,45.0,M,,*60
$GPGSV,3,1,10,07,26,059,51,15,16,300,50,09,07,112,49,08,06,045,49*77
$GPGSV,3,2,10,21,02,323,,05,59,235,52,30,59,049,51,28,56,129,51*71
$GPGSV,3,3,10,13,50,307,52,04,,,51*4C
$GLGSV,2,1,07,75,75,020,,65,73,140,,76,53,229,,66,40,325,*6F
$GLGSV,2,2,07,72,25,142,,74,19,036,,83,03,006,*57
$GPGSA,A,1,,,,,,,,,,,,,140.0,99.0,99.0*35
$GNGSA,A,1,,,,,,,,,,,,,140.0,99.0,99.0*2B
$GNGSA,A,1,,,,,,,,,,,,,140.0,99.0,99.0*2B
$QZGSA,A,1,,,,,,,,,,,,,140.0,99.0,99.0*29
$IMGSA,A,1,,,,,,,,,,,,,140.0,99.0,99.0*26
$GPRMC,110110.00,V,,,,,,,080219,,,N*7F
$GPGGA,110111.00,,,,,0,05,20.0,0.0,M,45.0,M,,*61
$GPGSV,3,1,10,07,26,059,51,15,16,300,50,09,07,112,49,08,06,045,49*77
$GPGSV,3,2,10,21,02,323,,05,59,235,52,30,59,049,51,28,56,129,51*71
$GPGSV,3,3,10,13,50,307,52,04,,,51*4C
$GLGSV,2,1,07,75,75,020,,65,73,140,,76,53,229,,66,40,325,*6F
$GLGSV,2,2,07,72,25,142,,74,19,036,,83,03,006,*57
$GPGSA,A,1,,,,,,,,,,,,,140.0,99.0,99.0*35
$GNGSA,A,1,,,,,,,,,,,,,140.0,99.0,99.0*2B
$GNGSA,A,1,,,,,,,,,,,,,140.0,99.0,99.0*2B
$QZGSA,A,1,,,,,,,,,,,,,140.0,99.0,99.0*29
$IMGSA,A,1,,,,,,,,,,,,,140.0,99.0,99.0*26
$GPRMC,110111.00,V,,,,,,,080219,,,N*7E
$GPGGA,110112.00,,,,,0,05,20.0,0.0,M,45.0,M,,*62
$GPGSV,3,1,10,07,26,059,51,15,16,300,50,09,07,112,49,08,06,045,49*77
$GPGSV,3,2,10,21,02,323,,05,59,235,51,30,59,049,51,28,56,129,51*72
$GPGSV,3,3,10,13,50,307,51,04,,,51*4F
$GLGSV,2,1,07,75,75,020,,65,73,140,,76,53,229,,66,40,325,*6F
$GLGSV,2,2,07,72,25,142,,74,19,036,,83,03,006,*57
$GPGSA,A,1,,,,,,,,,,,,,140.0,99.0,99.0*35
$GNGSA,A,1,,,,,,,,,,,,,140.0,99.0,99.0*2B
$GNGSA,A,1,,,,,,,,,,,,,140.0,99.0,99.0*2B
$QZGSA,A,1,,,,,,,,,,,,,140.0,99.0,99.0*29
$IMGSA,A,1,,,,,,,,,,,,,140.0,99.0,99.0*26
$GPRMC,110112.00,V,,,,,,,080219,,,N*7D
$GPGGA,110113.00,,,,,0,05,20.0,0.0,M,45.0,M,,*63
$GPGSV,3,1,10,07,26,059,51,15,16,300,50,09,07,112,49,08,06,045,49*77
$GPGSV,3,2,10,21,02,323,,05,59,235,51,30,59,049,51,28,56,129,51*72
$GPGSV,3,3,10,13,50,307,51,04,,,51*4F
$GLGSV,2,1,07,75,75,020,,65,73,140,,76,53,229,,66,40,325,*6F
$GLGSV,2,2,07,72,25,142,,74,19,036,,83,03,006,*57
$GPGSA,A,1,,,,,,,,,,,,,140.0,99.0,99.0*35
$GNGSA,A,1,,,,,,,,,,,,,140.0,99.0,99.0*2B
$GNGSA,A,1,,,,,,,,,,,,,140.0,99.0,99.0*2B
$QZGSA,A,1,,,,,,,,,,,,,140.0,99.0,99.0*29
$IMGSA,A,1,,,,,,,,,,,,,140.0,99.0,99.0*26
$GPRMC,110113.00,V,,,,,,,080219,,,N*7C
$GPGGA,110114.00,,,,,0,05,20.0,0.0,M,45.0,M,,*64
$GPGSV,3,1,10,07,26,059,51,15,16,300,50,09,07,112,49,08,06,045,49*77
$GPGSV,3,2,10,21,02,323,,05,59,235,51,30,59,049,51,28,56,129,51*72
$GPGSV,3,3,10,13,50,307,51,04,,,51*4F
$GLGSV,2,1,07,75,75,020,,65,73,140,,76,53,229,,66,40,325,*6F
$GLGSV,2,2,07,72,25,142,,74,19,036,,83,03,006,*57
$GPGSA,A,1,,,,,,,,,,,,,140.0,99.0,99.0*35
$GNGSA,A,1,,,,,,,,,,,,,140.0,99.0,99.0*2B
$GNGSA,A,1,,,,,,,,,,,,,140.0,99.0,99.0*2B
$QZGSA,A,1,,,,,,,,,,,,,140.0,99.0,99.0*29
$IMGSA,A,1,,,,,,,,,,,,,140.0,99.0,99.0*26
$GPRMC,110114.00,V,,,,,,,080219,,,N*7B
$GPGGA,110115.00,,,,,0,05,20.0,0.0,M,45.0,M,,*65
$GPGSV,3,1,10,07,26,059,51,15,16,300,50,09,07,112,49,08,06,045,49*77
$GPGSV,3,2,10,21,02,323,,05,59,235,51,30,59,049,51,28,56,129,51*72
$GPGSV,3,3,10,13,50,307,51,04,,,51*4F
$GLGSV,2,1,07,75,75,020,,65,73,140,,76,53,229,,66,40,325,*6F
$GLGSV,2,2,07,72,25,142,,74,19,036,,83,03,006,*57
$GPGSA,A,1,,,,,,,,,,,,,140.0,99.0,99.0*35
$GNGSA,A,1,,,,,,,,,,,,,140.0,99.0,99.0*2B
$GNGSA,A,1,,,,,,,,,,,,,140.0,99.0,99.0*2B
$QZGSA,A,1,,,,,,,,,,,,,140.0,99.0,99.0*29
$IMGSA,A,1,,,,,,,,,,,,,140.0,99.0,99.0*26
$GPRMC,110115.00,V,,,,,,,080219,,,N*7A
$GPGGA,110116.00,,,,,0,05,20.0,0.0,M,45.0,M,,*66
$GPGSV,3,1,10,07,26,059,51,15,16,300,50,09,07,112,49,08,06,045,49*77
$GPGSV,3,2,10,21,02,323,,05,59,235,51,30,59,049,51,28,56,129,51*72
$GPGSV,3,3,10,13,50,307,51,04,,,51*4F
$GLGSV,2,1,07,75,75,020,,65,73,140,,76,53,229,,66,40,325,*6F
$GLGSV,2,2,07,72,25,142,,74,19,036,,83,03,006,*57
$GPGSA,A,1,,,,,,,,,,,,,140.0,99.0,99.0*35
$GNGSA,A,1,,,,,,,,,,,,,140.0,99.0,99.0*2B
$GNGSA,A,1,,,,,,,,,,,,,140.0,99.0,99.0*2B
$QZGSA,A,1,,,,,,,,,,,,,140.0,99.0,99.0*29
$IMGSA,A,1,,,,,,,,,,,,,140.0,99.0,99.0*26
$GPRMC,110116.00,V,,,,,,,080219,,,N*79
$GPGGA,110117.00,,,,,0,05,20.0,0.0,M,45.0,M,,*67
$GPGSV,3,1,10,07,26,059,51,15,16,300,50,09,07,112,49,08,06,045,49*77
$GPGSV,3,2,10,21,02,323,,05,59,235,51,30,59,049,51,28,56,129,51*72
$GPGSV,3,3,10,13,50,307,51,04,,,51*4F
$GLGSV,2,1,07,75,75,020,,65,73,140,,76,53,229,,66,40,325,*6F
$GLGSV,2,2,07,72,25,142,,74,19,036,,83,03,006,*57
$GPGSA,A,1,,,,,,,,,,,,,140.0,99.0,99.0*35
$GNGSA,A,1,,,,,,,,,,,,,140.0,99.0,99.0*2B
$GNGSA,A,1,,,,,,,,,,,,,140.0,99.0,99.0*2B
$QZGSA,A,1,,,,,,,,,,,,,140.0,99.0,99.0*29
$IMGSA,A,1,,,,,,,,,,,,,140.0,99.0,99.0*26
$GPRMC,110117.00,V,,,,,,,080219,,,N*78
$GPGGA,110118.00,,,,,0,05,20.0,0.0,M,45.0,M,,*68
$GPGSV,3,1,10,07,26,059,51,15,16,300,50,09,07,112,49,08,06,045,49*77
$GPGSV,3,2,10,21,02,323,,05,59,235,51,30,59,049,52,28,56,129,51*71
$GPGSV,3,3,10,13,50,307,51,04,,,51*4F
$GLGSV,2,1,07,75,75,020,,65,73,140,,76,53,229,,66,40,325,*6F
$GLGSV,2,2,07,72,25,142,,74,19,036,,83,03,006,*57
$GPGSA,A,1,,,,,,,,,,,,,140.0,99.0,99.0*35
$GNGSA,A,1,,,,,,,,,,,,,140.0,99.0,99.0*2B
$GNGSA,A,1,,,,,,,,,,,,,140.0,99.0,99.0*2B
$QZGSA,A,1,,,,,,,,,,,,,140.0,99.0,99.0*29
$IMGSA,A,1,,,,,,,,,,,,,140.0,99.0,99.0*26
$GPRMC,110118.00,V,,,,,,,080219,,,N*77
$GPGGA,110119.00,4155.739966,N,01236.692774,E,1,06,3.2,0.0,M,45.0,M,,*6D
$GPGSV,3,1,10,07,26,059,51,15,16,300,50,09,07,112,49,08,06,045,49*77
$GPGSV,3,2,10,21,02,323,,05,59,235,51,30,59,049,51,28,56,129,51*72
$GPGSV,3,3,10,13,50,307,51,04,,,50*4E
$GLGSV,2,1,07,75,75,020,,65,73,140,,76,53,229,,66,40,325,*6F
$GLGSV,2,2,07,72,25,142,,74,19,036,,83,03,006,*57
$GPGSA,A,3,07,08,09,15,28,,,,,,,,9.7,5.4,8.1*3C
$GNGSA,A,3,07,08,09,15,28,,,,,,,,9.7,5.4,8.1*22
$GNGSA,A,3,,,,,,,,,,,,,9.7,5.4,8.1*2A
$QZGSA,A,3,,,,,,,,,,,,,9.7,5.4,8.1*28
$IMGSA,A,3,,,,,,,,,,,,,9.7,5.4,8.1*27
$GPRMC,110119.00,A,4155.739966,N,01236.692774,E,000.0,189.2,080219,,,A*59
$GPGGA,110120.00,4155.739966,N,01236.692774,E,1,06,3.2,0.0,M,45.0,M,,*67
$GPGSV,3,1,10,28,56,129,51,07,26,059,51,15,16,300,50,09,07,112,49*72
$GPGSV,3,2,10,08,06,045,49,21,02,323,,05,59,235,51,30,59,049,51*77
$GPGSV,3,3,10,13,50,307,51,04,,,50*4E
$GLGSV,2,1,07,75,75,020,,65,73,141,,76,53,229,,66,40,325,*6E
$GLGSV,2,2,07,72,25,142,,74,19,036,,83,03,006,*57
$GPGSA,A,3,07,08,09,15,28,,,,,,,,9.8,5.4,8.1*33
$GNGSA,A,3,07,08,09,15,28,,,,,,,,9.8,5.4,8.1*2D
$GNGSA,A,3,,,,,,,,,,,,,9.8,5.4,8.1*25
$QZGSA,A,3,,,,,,,,,,,,,9.8,5.4,8.1*27
$IMGSA,A,3,,,,,,,,,,,,,9.8,5.4,8.1*28
$GPRMC,110120.00,A,4155.739966,N,01236.692774,E,000.0,189.2,080219,,,A*53
$GPGGA,110121.00,4155.739966,N,01236.692774,E,1,06,3.2,0.0,M,45.0,M,,*66
$GPGSV,3,1,10,28,56,129,51,07,26,059,51,15,16,300,50,09,07,112,49*72
$GPGSV,3,2,10,08,06,045,49,21,02,323,,05,59,235,51,30,59,049,51*77
$GPGSV,3,3,10,13,50,307,51,04,,,50*4E
$GLGSV,2,1,07,75,75,020,,65,73,141,,76,53,229,,66,40,325,*6E
$GLGSV,2,2,07,72,25,142,,74,19,036,,83,03,006,*57
$GPGSA,A,3,07,08,09,15,28,,,,,,,,9.8,5.4,8.1*33
$GNGSA,A,3,07,08,09,15,28,,,,,,,,9.8,5.4,8.1*2D
$GNGSA,A,3,,,,,,,,,,,,,9.8,5.4,8.1*25
$QZGSA,A,3,,,,,,,,,,,,,9.8,5.4,8.1*27
$IMGSA,A,3,,,,,,,,,,,,,9.8,5.4,8.1*28
$GPRMC,110121.00,A,4155.739966,N,01236.692774,E,000.0,189.2,080219,,,A*52
$GPGGA,110122.00,4155.739966,N,01236.692774,E,1,06,3.2,0.0,M,45.0,M,,*65
$GPGSV,3,1,10,28,56,129,51,07,26,059,51,15,16,300,50,09,07,112,49*72
$GPGSV,3,2,10,08,06,045,49,21,02,323,,05,59,235,51,30,59,049,51*77
$GPGSV,3,3,10,13,50,307,51,04,,,50*4E
$GLGSV,2,1,07,75,75,020,,65,73,141,,76,53,229,,66,40,325,*6E
$GLGSV,2,2,07,72,25,142,,74,19,036,,83,03,006,*57
$GPGSA,A,3,07,08,09,15,28,,,,,,,,9.8,5.4,8.2*30
$GNGSA,A,3,07,08,09,15,28,,,,,,,,9.8,5.4,8.2*2E
$GNGSA,A,3,,,,,,,,,,,,,9.8,5.4,8.2*26
$QZGSA,A,3,,,,,,,,,,,,,9.8,5.4,8.2*24
$IMGSA,A,3,,,,,,,,,,,,,9.8,5.4,8.2*2B
$GPRMC,110122.00,A,4155.739966,N,01236.692774,E,000.0,189.2,080219,,,A*51
$GPGGA,110123.00,4155.739966,N,01236.692774,E,1,06,3.2,0.0,M,45.0,M,,*64
$GPGSV,3,1,10,28,56,129,51,07,26,059,51,15,16,300,50,09,07,112,49*72
$GPGSV,3,2,10,08,06,045,49,21,02,323,,05,59,235,51,30,59,049,51*77
$GPGSV,3,3,10,13,50,307,51,04,,,50*4E
$GLGSV,2,1,07,75,75,020,,65,73,141,,76,53,229,,66,40,325,*6E
$GLGSV,2,2,07,72,25,142,,74,19,036,,83,03,006,*57
$GPGSA,A,3,07,08,09,15,28,,,,,,,,9.8,5.4,8.2*30
$GNGSA,A,3,07,08,09,15,28,,,,,,,,9.8,5.4,8.2*2E
$GNGSA,A,3,,,,,,,,,,,,,9.8,5.4,8.2*26
$QZGSA,A,3,,,,,,,,,,,,,9.8,5.4,8.2*24
$IMGSA,A,3,,,,,,,,,,,,,9.8,5.4,8.2*2B
$GPRMC,110123.00,A,4155.739966,N,01236.692774,E,000.0,189.2,080219,,,A*50
$GPGGA,110124.00,4155.739966,N,01236.692774,E,1,06,3.2,0.0,M,45.0,M,,*63
$GPGSV,3,1,10,28,56,129,51,07,26,059,51,15,16,300,50,09,07,112,49*72
$GPGSV,3,2,10,08,06,045,49,21,02,323,,05,59,235,51,30,59,049,52*74
$GPGSV,3,3,10,13,50,307,51,04,,,50*4E
$GLGSV,2,1,07,75,75,020,,65,73,141,,76,53,229,,66,40,325,*6E
$GLGSV,2,2,07,72,25,142,,74,19,036,,83,03,006,*57
$GPGSA,A,3,07,08,09,15,28,,,,,,,,9.8,5.4,8.2*30
$GNGSA,A,3,07,08,09,15,28,,,,,,,,9.8,5.4,8.2*2E
$GNGSA,A,3,,,,,,,,,,,,,9.8,5.4,8.2*26
$QZGSA,A,3,,,,,,,,,,,,,9.8,5.4,8.2*24
$IMGSA,A,3,,,,,,,,,,,,,9.8,5.4,8.2*2B
$GPRMC,110124.00,A,4155.739966,N,01236.692774,E,000.0,189.2,080219,,,A*57
$GPGGA,110125.00,4155.736416,N,01236.692916,E,1,06,4.8,0.0,M,45.0,M,,*60
$GPGSV,3,1,10,28,56,129,51,07,26,059,51,15,16,300,50,09,07,112,49*72
$GPGSV,3,2,10,08,06,045,49,21,02,323,,05,59,235,51,30,59,049,52*74
$GPGSV,3,3,10,13,50,307,51,04,,,50*4E
$GLGSV,2,1,07,75,75,020,,65,73,141,,76,53,229,,66,40,325,*6E
$GLGSV,2,2,07,72,25,142,,74,19,036,,83,03,006,*57
$GPGSA,A,3,07,08,09,15,28,,,,,,,,140.0,99.0,99.0*3F
$GNGSA,A,3,07,08,09,15,28,,,,,,,,140.0,99.0,99.0*21
$GNGSA,A,3,,,,,,,,,,,,,140.0,99.0,99.0*29
$QZGSA,A,3,,,,,,,,,,,,,140.0,99.0,99.0*2B
$IMGSA,A,3,,,,,,,,,,,,,140.0,99.0,99.0*24
$GPRMC,110125.00,A,4155.736416,N,01236.692916,E,,,080219,,,A*5B
$GPGGA,110126.00,4155.736419,N,01236.692918,E,1,06,4.8,0.0,M,45.0,M,,*62
$GPGSV,3,1,10,28,56,129,51,07,26,059,51,15,16,300,50,09,07,112,49*72
$GPGSV,3,2,10,08,06,045,49,21,02,323,,05,59,235,51,30,59,049,52*74
$GPGSV,3,3,10,13,50,307,51,04,,,50*4E
$GLGSV,2,1,07,75,75,020,,65,73,141,,76,53,229,,66,40,325,*6E
$GLGSV,2,2,07,72,25,142,,74,19,036,,83,03,006,*57
$GPGSA,A,3,07,08,09,15,28,,,,,,,,9.8,5.4,8.2*30
$GNGSA,A,3,07,08,09,15,28,,,,,,,,9.8,5.4,8.2*2E
$GNGSA,A,3,,,,,,,,,,,,,9.8,5.4,8.2*26
$QZGSA,A,3,,,,,,,,,,,,,9.8,5.4,8.2*24
$IMGSA,A,3,,,,,,,,,,,,,9.8,5.4,8.2*2B
$GPRMC,110126.00,A,4155.736419,N,01236.692918,E,,,080219,,,A*59
$GPGGA,110127.00,4155.736427,N,01236.692919,E,1,06,4.8,0.0,M,45.0,M,,*6F
$GPGSV,3,1,10,28,56,129,51,07,26,059,51,15,16,300,50,09,07,112,49*72
$GPGSV,3,2,10,08,06,045,49,21,02,323,,05,59,235,51,30,59,049,51*77
$GPGSV,3,3,10,13,50,307,51,04,,,50*4E
$GLGSV,2,1,07,75,75,020,,65,73,141,,76,53,229,,66,40,325,*6E
$GLGSV,2,2,07,72,25,142,,74,19,036,,83,03,006,*57
$GPGSA,A,3,07,08,09,15,28,,,,,,,,9.8,5.4,8.2*30
$GNGSA,A,3,07,08,09,15,28,,,,,,,,9.8,5.4,8.2*2E
$GNGSA,A,3,,,,,,,,,,,,,9.8,5.4,8.2*26
$QZGSA,A,3,,,,,,,,,,,,,9.8,5.4,8.2*24
$IMGSA,A,3,,,,,,,,,,,,,9.8,5.4,8.2*2B
$GPRMC,110127.00,A,4155.736427,N,01236.692919,E,,,080219,,,A*54
$GPGGA,110128.00,4155.736425,N,01236.692921,E,1,06,4.8,0.0,M,45.0,M,,*69
$GPGSV,3,1,10,28,56,129,51,07,26,059,51,15,16,300,50,09,07,112,49*72
$GPGSV,3,2,10,08,06,045,49,21,02,323,,05,59,235,52,30,59,049,52*77
$GPGSV,3,3,10,13,50,307,51,04,,,51*4F
$GLGSV,2,1,07,75,75,020,,65,73,141,,76,54,229,,66,40,325,*69
$GLGSV,2,2,07,72,25,142,,74,19,036,,83,03,006,*57
$GPGSA,A,3,07,08,09,15,28,,,,,,,,140.0,99.0,99.0*3F
$GNGSA,A,3,07,08,09,15,28,,,,,,,,140.0,99.0,99.0*21
$GNGSA,A,3,,,,,,,,,,,,,140.0,99.0,99.0*29
$QZGSA,A,3,,,,,,,,,,,,,140.0,99.0,99.0*2B
$IMGSA,A,3,,,,,,,,,,,,,140.0,99.0,99.0*24
$GPRMC,110128.00,A,4155.736425,N,01236.692921,E,,,080219,,,A*52
$GPGGA,110129.00,4155.736432,N,01236.692922,E,1,06,3.2,0.0,M,45.0,M,,*60
$GPGSV,3,1,10,28,56,129,51,07,26,059,51,15,16,300,50,09,07,112,49*72
$GPGSV,3,2,10,08,06,045,49,21,02,323,,05,59,235,52,30,59,049,52*77
$GPGSV,3,3,10,13,50,307,51,04,,,51*4F
$GLGSV,2,1,07,75,75,020,,65,72,141,,76,54,229,,66,40,325,*68
$GLGSV,2,2,07,72,25,142,,74,19,036,,83,03,006,*57
$GPGSA,A,3,07,08,09,15,28,,,,,,,,9.9,5.5,8.2*30
$GNGSA,A,3,07,08,09,15,28,,,,,,,,9.9,5.5,8.2*2E
$GNGSA,A,3,,,,,,,,,,,,,9.9,5.5,8.2*26
$QZGSA,A,3,,,,,,,,,,,,,9.9,5.5,8.2*24
$IMGSA,A,3,,,,,,,,,,,,,9.9,5.5,8.2*2B
$GPRMC,110129.00,A,4155.736432,N,01236.692922,E,,,080219,,,A*56
$GPGGA,110130.00,4155.736430,N,01236.692923,E,1,06,4.8,0.0,M,45.0,M,,*66
$GPGSV,3,1,10,28,56,129,51,07,26,059,51,15,16,300,50,09,07,112,49*72
$GPGSV,3,2,10,08,06,045,49,21,02,323,,05,59,235,51,30,59,049,52*74
$GPGSV,3,3,10,13,50,307,51,04,,,51*4F
$GLGSV,2,1,07,75,75,020,,65,72,141,,76,54,229,,66,40,325,*68
$GLGSV,2,2,07,72,25,142,,74,19,036,,83,03,006,*57
$GPGSA,A,3,07,08,09,15,28,,,,,,,,140.0,99.0,99.0*3F
$GNGSA,A,3,07,08,09,15,28,,,,,,,,140.0,99.0,99.0*21
$GNGSA,A,3,,,,,,,,,,,,,140.0,99.0,99.0*29
$QZGSA,A,3,,,,,,,,,,,,,140.0,99.0,99.0*2B
$IMGSA,A,3,,,,,,,,,,,,,140.0,99.0,99.0*24
$GPRMC,110130.00,A,4155.736430,N,01236.692923,E,,,080219,,,A*5D
$GPGGA,110131.00,4155.736441,N,01236.692926,E,1,06,4.8,0.0,M,45.0,M,,*64
$GPGSV,3,1,10,28,56,129,51,07,26,059,51,15,16,300,50,09,07,112,49*72
$GPGSV,3,2,10,08,06,045,49,21,02,323,,05,59,235,51,30,59,049,52*74
$GPGSV,3,3,10,13,50,307,51,04,,,51*4F
$GLGSV,2,1,07,75,75,020,,65,72,141,,76,54,229,,66,40,325,*68
$GLGSV,2,2,07,72,25,142,,74,19,036,,83,03,006,*57
$GPGSA,A,3,07,08,09,15,28,,,,,,,,9.9,5.5,8.2*30
$GNGSA,A,3,07,08,09,15,28,,,,,,,,9.9,5.5,8.2*2E
$GNGSA,A,3,,,,,,,,,,,,,9.9,5.5,8.2*26
$QZGSA,A,3,,,,,,,,,,,,,9.9,5.5,8.2*24
$IMGSA,A,3,,,,,,,,,,,,,9.9,5.5,8.2*2B
$GPRMC,110131.00,A,4155.736441,N,01236.692926,E,,,080219,,,A*5F
$GPGGA,110132.00,4155.736443,N,01236.692933,E,1,06,4.8,0.0,M,45.0,M,,*61
$GPGSV,3,1,10,28,56,129,51,07,26,059,51,15,16,300,50,09,07,112,49*72
$GPGSV,3,2,10,08,06,045,49,21,02,323,,05,59,235,51,30,59,049,51*77
$GPGSV,3,3,10,13,50,307,51,04,,,51*4F
$GLGSV,2,1,07,75,75,020,,65,72,141,,76,54,229,,66,40,325,*68
