$GPGGA,110637.68,,,,,0,00,999.9,,M,,M,,*6A
$GPGSV,3,1,09,28,60,119,,05,55,225,,13,55,312,,30,53,052,*77
$GPGSV,3,2,09,15,22,303,,07,21,061,,08,06,040,,09,02,115,*72
$GPGSV,3,3,09,21,02,318,*4B
$GLGSV,2,1,08,67,74,148,,77,67,021,,78,53,233,,68,46,324,*61
$GLGSV,2,2,08,66,19,146,,76,08,040,,79,04,224,,85,03,006,*6D
$GPGSA,A,1,,,,,,,,,,,,,140.0,99.0,99.0*35
$GNGSA,A,1,,,,,,,,,,,,,140.0,99.0,99.0*2B
$GNGSA,A,1,,,,,,,,,,,,,140.0,99.0,99.0*2B
$QZGSA,A,1,,,,,,,,,,,,,140.0,99.0,99.0*29
$IMGSA,A,1,,,,,,,,,,,,,140.0,99.0,99.0*26
$GPRMC,110637.68,V,,,,,,,100219,,,N*7A
$GPGGA,110638.68,,,,,0,00,999.9,,M,,M,,*65
$GPGSV,3,1,09,28,60,119,,05,55,225,,13,55,312,,30,53,052,*77
$GPGSV,3,2,09,15,22,303,,07,21,061,,08,06,040,,09,02,115,*72
$GPGSV,3,3,09,21,02,318,*4B
$GLGSV,2,1,08,67,74,148,,77,67,021,,78,53,233,,68,46,324,*61
$GLGSV,2,2,08,66,19,146,,76,08,040,,79,04,224,,85,03,006,*6D
$GPGSA,A,1,,,,,,,,,,,,,140.0,99.0,99.0*35
$GNGSA,A,1,,,,,,,,,,,,,140.0,99.0,99.0*2B
$GNGSA,A,1,,,,,,,,,,,,,140.0,99.0,99.0*2B
$QZGSA,A,1,,,,,,,,,,,,,140.0,99.0,99.0*29
$IMGSA,A,1,,,,,,,,,,,,,140.0,99.0,99.0*26
$GPRMC,110638.68,V,,,,,,,100219,,,N*75
$GPGGA,110639.68,,,,,0,00,999.9,,M,,M,,*64
$GPGSV,3,1,09,28,60,119,34,13,55,312,30,15,22,303,42,07,21,061,42*76
$GPGSV,3,2,09,09,02,115,,05,55,225,,30,53,052,,08,06,040,*77
$GPGSV,3,3,09,21,02,318,*4B
$GLGSV,2,1,08,67,74,148,,77,67,021,,78,53,233,,68,46,324,*61
$GLGSV,2,2,08,66,19,146,,76,08,040,,79,04,224,,85,03,006,*6D
$GPGSA,A,1,,,,,,,,,,,,,140.0,99.0,99.0*35
$GNGSA,A,1,,,,,,,,,,,,,140.0,99.0,99.0*2B
$GNGSA,A,1,,,,,,,,,,,,,140.0,99.0,99.0*2B
$QZGSA,A,1,,,,,,,,,,,,,140.0,99.0,99.0*29
$IMGSA,A,1,,,,,,,,,,,,,140.0,99.0,99.0*26
$GPRMC,110639.68,V,,,,,,,100219,,,N*74
$GPGGA,110640.68,,,,,0,00,999.9,,M,,M,,*6A
$GPGSV,3,1,09,28,60,119,39,05,55,225,39,13,55,312,34,30,53,052,45*71
$GPGSV,3,2,09,15,22,303,50,07,21,061,50,09,02,115,,08,06,040,*72
$GPGSV,3,3,09,21,02,318,*4B
$GLGSV,2,1,08,67,74,148,,77,67,021,,78,54,233,,68,46,324,*66
$GLGSV,2,2,08,66,19,146,,76,08,040,,79,04,224,,85,03,006,*6D
$GPGSA,A,1,,,,,,,,,,,,,140.0,99.0,99.0*35
$GNGSA,A,1,,,,,,,,,,,,,140.0,99.0,99.0*2B
$GNGSA,A,1,,,,,,,,,,,,,140.0,99.0,99.0*2B
$QZGSA,A,1,,,,,,,,,,,,,140.0,99.0,99.0*29
$IMGSA,A,1,,,,,,,,,,,,,140.0,99.0,99.0*26
$GPRMC,110640.68,V,,,,,,,100219,,,N*7A
$GPGGA,110641.68,,,,,0,00,999.9,,M,,M,,*6B
$GPGSV,3,1,09,28,60,119,39,05,55,225,39,13,55,312,33,30,53,052,45*76
$GPGSV,3,2,09,15,22,303,50,07,21,061,50,08,06,040,33,09,02,115,*72
$GPGSV,3,3,09,21,02,318,*4B
$GLGSV,2,1,08,67,74,148,,77,67,021,,78,54,233,,68,46,324,*66
$GLGSV,2,2,08,66,19,146,,76,08,040,,79,04,224,,85,03,006,*6D
$GPGSA,A,1,,,,,,,,,,,,,140.0,99.0,99.0*35
$GNGSA,A,1,,,,,,,,,,,,,140.0,99.0,99.0*2B
$GNGSA,A,1,,,,,,,,,,,,,140.0,99.0,99.0*2B
$QZGSA,A,1,,,,,,,,,,,,,140.0,99.0,99.0*29
$IMGSA,A,1,,,,,,,,,,,,,140.0,99.0,99.0*26
$GPRMC,110641.68,V,,,,,,,100219,,,N*7B
$GPGGA,110642.68,,,,,0,00,999.9,,M,,M,,*68
$GPGSV,3,1,09,28,60,119,38,05,55,225,39,13,55,312,32,30,53,052,45*76
$GPGSV,3,2,09,15,22,303,50,07,21,061,50,08,06,040,33,09,02,115,*72
$GPGSV,3,3,09,21,02,318,*4B
$GLGSV,2,1,08,67,74,148,,77,67,021,,78,54,233,,68,46,324,*66
$GLGSV,2,2,08,66,19,146,,76,07,040,,79,04,224,,85,03,006,*62
$GPGSA,A,1,,,,,,,,,,,,,140.0,99.0,99.0*35
$GNGSA,A,1,,,,,,,,,,,,,140.0,99.0,99.0*2B
$GNGSA,A,1,,,,,,,,,,,,,140.0,99.0,99.0*2B
$QZGSA,A,1,,,,,,,,,,,,,140.0,99.0,99.0*29
$IMGSA,A,1,,,,,,,,,,,,,140.0,99.0,99.0*26
$GPRMC,110642.68,V,,,,,,,100219,,,N*78
$GPGGA,110643.68,,,,,0,00,999.9,,M,,M,,*69
$GPGSV,3,1,09,28,60,119,37,05,55,225,39,13,55,312,32,30,53,052,46*7A
$GPGSV,3,2,09,15,22,303,50,07,21,061,51,08,06,040,33,09,02,115,*73
$GPGSV,3,3,09,21,02,318,*4B
$GLGSV,2,1,08,67,74,148,,77,67,021,,78,54,234,,68,46,324,*61
$GLGSV,2,2,08,66,19,146,,76,07,040,,79,04,224,,85,03,006,*62
$GPGSA,A,1,,,,,,,,,,,,,140.0,99.0,99.0*35
$GNGSA,A,1,,,,,,,,,,,,,140.0,99.0,99.0*2B
$GNGSA,A,1,,,,,,,,,,,,,140.0,99.0,99.0*2B
$QZGSA,A,1,,,,,,,,,,,,,140.0,99.0,99.0*29
$IMGSA,A,1,,,,,,,,,,,,,140.0,99.0,99.0*26
$GPRMC,110643.68,V,,,,,,,100219,,,N*79
$GPGGA,110644.68,,,,,0,00,999.9,,M,,M,,*6E
$GPGSV,3,1,09,28,60,119,36,05,55,225,39,13,55,312,31,30,53,052,46*78
$GPGSV,3,2,09,15,22,303,50,07,21,061,50,08,06,040,33,09,02,115,*72
$GPGSV,3,3,09,21,02,318,*4B
$GLGSV,2,1,08,67,74,148,,77,67,021,,78,54,234,,68,46,324,*61
$GLGSV,2,2,08,66,19,146,,76,07,040,,79,04,224,,85,03,006,*62
$GPGSA,A,1,,,,,,,,,,,,,140.0,99.0,99.0*35
$GNGSA,A,1,,,,,,,,,,,,,140.0,99.0,99.0*2B
$GNGSA,A,1,,,,,,,,,,,,,140.0,99.0,99.0*2B
$QZGSA,A,1,,,,,,,,,,,,,140.0,99.0,99.0*29
$IMGSA,A,1,,,,,,,,,,,,,140.0,99.0,99.0*26
$GPRMC,110644.68,V,,,,,,,100219,,,N*7E
$GPGGA,110645.68,,,,,0,00,999.9,,M,,M,,*6F
$GPGSV,3,1,09,28,60,119,35,05,55,225,39,13,55,312,30,30,53,052,46*7A
$GPGSV,3,2,09,15,22,303,50,07,21,061,50,08,06,040,32,09,02,115,*73
$GPGSV,3,3,09,21,02,318,*4B
$GLGSV,2,1,08,67,74,148,,77,67,021,,78,54,234,,68,46,324,*61
$GLGSV,2,2,08,66,19,146,,76,07,040,,79,04,224,,85,03,006,*62
$GPGSA,A,1,,,,,,,,,,,,,140.0,99.0,99.0*35
$GNGSA,A,1,,,,,,,,,,,,,140.0,99.0,99.0*2B
$GNGSA,A,1,,,,,,,,,,,,,140.0,99.0,99.0*2B
$QZGSA,A,1,,,,,,,,,,,,,140.0,99.0,99.0*29
$IMGSA,A,1,,,,,,,,,,,,,140.0,99.0,99.0*26
$GPRMC,110645.68,V,,,,,,,100219,,,N*7F
$GPGGA,110646.68,,,,,0,00,999.9,,M,,M,,*6C
$GPGSV,3,1,09,28,60,119,33,05,55,225,39,13,55,312,30,30,53,052,46*7C
$GPGSV,3,2,09,15,22,303,50,07,21,061,50,08,06,040,31,09,02,115,*70
$GPGSV,3,3,09,21,02,318,*4B
$GLGSV,2,1,08,67,74,148,,77,67,021,,78,54,234,,68,46,324,*61
$GLGSV,2,2,08,66,19,146,,76,07,040,,79,04,224,,85,03,006,*62
$GPGSA,A,1,,,,,,,,,,,,,140.0,99.0,99.0*35
$GNGSA,A,1,,,,,,,,,,,,,140.0,99.0,99.0*2B
$GNGSA,A,1,,,,,,,,,,,,,140.0,99.0,99.0*2B
$QZGSA,A,1,,,,,,,,,,,,,140.0,99.0,99.0*29
$IMGSA,A,1,,,,,,,,,,,,,140.0,99.0,99.0*26
$GPRMC,110646.68,V,,,,,,,100219,,,N*7C
$GPGGA,110647.68,,,,,0,00,999.9,,M,,M,,*6D
$GPGSV,3,1,09,28,60,119,33,05,55,225,38,13,55,312,32,30,53,052,45*7C
$GPGSV,3,2,09,15,22,303,50,07,21,061,50,08,06,040,31,09,02,115,*70
$GPGSV,3,3,09,21,02,318,*4B
$GLGSV,2,1,08,67,74,148,,77,67,021,,78,54,234,,68,46,324,*61
$GLGSV,2,2,08,66,19,146,,76,07,040,,79,04,224,,85,03,006,*62
$GPGSA,A,1,,,,,,,,,,,,,140.0,99.0,99.0*35
$GNGSA,A,1,,,,,,,,,,,,,140.0,99.0,99.0*2B
$GNGSA,A,1,,,,,,,,,,,,,140.0,99.0,99.0*2B
$QZGSA,A,1,,,,,,,,,,,,,140.0,99.0,99.0*29
$IMGSA,A,1,,,,,,,,,,,,,140.0,99.0,99.0*26
$GPRMC,110647.68,V,,,,,,,100219,,,N*7D
$GPGGA,110648.68,,,,,0,00,999.9,,M,,M,,*62
$GPGSV,3,1,09,28,60,119,39,05,55,225,39,13,55,312,37,30,53,052,50*76
$GPGSV,3,2,09,15,22,303,50,07,21,061,50,08,06,040,31,09,02,115,*70
$GPGSV,3,3,09,21,02,318,*4B
$GLGSV,2,1,08,67,74,148,,77,67,021,,78,54,234,,68,46,324,*61
$GLGSV,2,2,08,66,19,146,,76,07,040,,79,04,224,,85,03,006,*62
$GPGSA,A,1,,,,,,,,,,,,,140.0,99.0,99.0*35
$GNGSA,A,1,,,,,,,,,,,,,140.0,99.0,99.0*2B
$GNGSA,A,1,,,,,,,,,,,,,140.0,99.0,99.0*2B
$QZGSA,A,1,,,,,,,,,,,,,140.0,99.0,99.0*29
$IMGSA,A,1,,,,,,,,,,,,,140.0,99.0,99.0*26
$GPRMC,110648.68,V,,,,,,,100219,,,N*72
$GPGGA,110649.68,,,,,0,00,999.9,,M,,M,,*63
$GPGSV,3,1,09,28,60,119,39,05,55,225,39,13,55,312,37,30,53,052,50*76
$GPGSV,3,2,09,15,22,303,50,07,21,061,50,08,06,040,31,09,02,115,*70
$GPGSV,3,3,09,21,02,318,*4B
$GLGSV,2,1,08,67,74,148,,77,67,021,,78,54,234,,68,46,324,*61
$GLGSV,2,2,08,66,19,146,,76,07,040,,79,04,224,,85,03,006,*62
$GPGSA,A,1,,,,,,,,,,,,,140.0,99.0,99.0*35
$GNGSA,A,1,,,,,,,,,,,,,140.0,99.0,99.0*2B
$GNGSA,A,1,,,,,,,,,,,,,140.0,99.0,99.0*2B
$QZGSA,A,1,,,,,,,,,,,,,140.0,99.0,99.0*29
$IMGSA,A,1,,,,,,,,,,,,,140.0,99.0,99.0*26
$GPRMC,110649.68,V,,,,,,,100219,,,N*73
$GPGGA,110650.68,,,,,0,00,999.9,,M,,M,,*6B
$GPGSV,3,1,09,28,60,118,39,05,55,225,39,13,55,312,37,30,53,052,50*77
$GPGSV,3,2,09,15,22,303,50,07,21,061,50,08,06,040,30,09,02,115,*71
$GPGSV,3,3,09,21,02,318,*4B
$GLGSV,2,1,08,67,74,148,,77,67,021,,78,54,234,,68,46,324,*61
$GLGSV,2,2,08,66,19,146,,76,07,040,,79,04,224,,85,03,006,*62
$GPGSA,A,1,,,,,,,,,,,,,140.0,99.0,99.0*35
$GNGSA,A,1,,,,,,,,,,,,,140.0,99.0,99.0*2B
$GNGSA,A,1,,,,,,,,,,,,,140.0,99.0,99.0*2B
$QZGSA,A,1,,,,,,,,,,,,,140.0,99.0,99.0*29
$IMGSA,A,1,,,,,,,,,,,,,140.0,99.0,99.0*26
$GPRMC,110650.68,V,,,,,,,100219,,,N*7B
$GPGGA,110651.68,,,,,0,00,999.9,,M,,M,,*6A
$GPGSV,3,1,09,28,60,118,38,05,55,225,39,13,55,312,36,30,53,052,51*76
$GPGSV,3,2,09,15,22,303,50,07,21,061,50,08,06,040,29,09,02,115,*79
$GPGSV,3,3,09,21,02,318,*4B
$GLGSV,2,1,08,67,74,148,,77,67,021,,78,54,234,,68,46,324,*61
$GLGSV,2,2,08,66,19,146,,76,07,040,,79,04,224,,85,03,006,*62
$GPGSA,A,1,,,,,,,,,,,,,140.0,99.0,99.0*35
$GNGSA,A,1,,,,,,,,,,,,,140.0,99.0,99.0*2B
$GNGSA,A,1,,,,,,,,,,,,,140.0,99.0,99.0*2B
$QZGSA,A,1,,,,,,,,,,,,,140.0,99.0,99.0*29
$IMGSA,A,1,,,,,,,,,,,,,140.0,99.0,99.0*26
$GPRMC,110651.68,V,,,,,,,100219,,,N*7A
$GPGGA,110652.68,,,,,0,00,999.9,,M,,M,,*69
$GPGSV,3,1,09,28,60,118,37,05,55,225,39,13,55,312,43,30,53,052,51*7B
$GPGSV,3,2,09,15,22,303,50,07,21,061,50,08,06,040,27,09,02,115,*77
$GPGSV,3,3,09,21,02,318,*4B
$GLGSV,2,1,08,67,74,148,,77,67,021,,78,54,234,,68,46,324,*61
$GLGSV,2,2,08,66,19,146,,76,07,040,,79,04,224,,85,03,006,*62
$GPGSA,A,1,,,,,,,,,,,,,140.0,99.0,99.0*35
$GNGSA,A,1,,,,,,,,,,,,,140.0,99.0,99.0*2B
$GNGSA,A,1,,,,,,,,,,,,,140.0,99.0,99.0*2B
$QZGSA,A,1,,,,,,,,,,,,,140.0,99.0,99.0*29
$IMGSA,A,1,,,,,,,,,,,,,140.0,99.0,99.0*26
$GPRMC,110652.68,V,,,,,,,100219,,,N*79
$GPGGA,110653.68,,,,,0,00,999.9,,M,,M,,*68
$GPGSV,3,1,09,28,60,118,36,05,55,225,40,13,55,312,50,30,53,052,51*76
$GPGSV,3,2,09,15,22,303,50,07,21,061,50,08,06,040,25,09,02,115,*75
$GPGSV,3,3,09,21,02,318,*4B
$GLGSV,2,1,08,67,74,148,,77,67,021,,78,54,234,,68,46,324,*61
$GLGSV,2,2,08,66,19,146,,76,07,040,,79,04,224,,85,03,006,*62
$GPGSA,A,1,,,,,,,,,,,,,140.0,99.0,99.0*35
$GNGSA,A,1,,,,,,,,,,,,,140.0,99.0,99.0*2B
$GNGSA,A,1,,,,,,,,,,,,,140.0,99.0,99.0*2B
$QZGSA,A,1,,,,,,,,,,,,,140.0,99.0,99.0*29
$IMGSA,A,1,,,,,,,,,,,,,140.0,99.0,99.0*26
$GPRMC,110653.68,V,,,,,,,100219,,,N*78
$GPGGA,110654.68,,,,,0,00,999.9,,M,,M,,*6F
$GPGSV,3,1,09,28,60,118,36,05,55,225,39,13,55,312,51,30,53,052,51*79
$GPGSV,3,2,09,15,22,303,50,07,21,061,50,08,06,040,24,09,02,115,*74
$GPGSV,3,3,09,21,02,318,*4B
$GLGSV,2,1,08,67,74,148,,77,67,021,,78,54,234,,68,46,324,*61
$GLGSV,2,2,08,66,19,146,,76,07,040,,79,04,224,,85,03,006,*62
$GPGSA,A,1,,,,,,,,,,,,,140.0,99.0,99.0*35
$GNGSA,A,1,,,,,,,,,,,,,140.0,99.0,99.0*2B
$GNGSA,A,1,,,,,,,,,,,,,140.0,99.0,99.0*2B
$QZGSA,A,1,,,,,,,,,,,,,140.0,99.0,99.0*29
$IMGSA,A,1,,,,,,,,,,,,,140.0,99.0,99.0*26
$GPRMC,110654.68,V,,,,,,,100219,,,N*7F
$GPGGA,110655.68,,,,,0,00,999.9,,M,,M,,*6E
$GPGSV,3,1,09,28,60,118,35,05,55,225,39,13,55,312,51,30,53,052,51*7A
$GPGSV,3,2,09,15,22,303,50,07,21,061,50,08,06,040,22,09,02,115,*72
$GPGSV,3,3,09,21,02,318,*4B
$GLGSV,2,1,08,67,74,148,,77,67,021,,78,54,234,,68,46,324,*61
$GLGSV,2,2,08,66,19,146,,76,07,040,,79,04,224,,85,03,006,*62
$GPGSA,A,1,,,,,,,,,,,,,140.0,99.0,99.0*35
$GNGSA,A,1,,,,,,,,,,,,,140.0,99.0,99.0*2B
$GNGSA,A,1,,,,,,,,,,,,,140.0,99.0,99.0*2B
$QZGSA,A,1,,,,,,,,,,,,,140.0,99.0,99.0*29
$IMGSA,A,1,,,,,,,,,,,,,140.0,99.0,99.0*26
$GPRMC,110655.68,V,,,,,,,100219,,,N*7E
$GPGGA,110656.68,,,,,0,00,999.9,,M,,M,,*6D
$GPGSV,3,1,09,28,60,118,34,05,55,225,39,13,55,312,51,30,53,052,51*7B
$GPGSV,3,2,09,15,22,303,50,07,21,061,50,08,06,040,,09,02,115,*72
$GPGSV,3,3,09,21,02,318,*4B
$GLGSV,2,1,08,67,74,148,,77,67,021,,78,54,234,,68,46,324,*61
$GLGSV,2,2,08,66,19,146,,76,07,040,,79,04,224,,85,03,006,*62
$GPGSA,A,1,,,,,,,,,,,,,140.0,99.0,99.0*35
$GNGSA,A,1,,,,,,,,,,,,,140.0,99.0,99.0*2B
$GNGSA,A,1,,,,,,,,,,,,,140.0,99.0,99.0*2B
$QZGSA,A,1,,,,,,,,,,,,,140.0,99.0,99.0*29
$IMGSA,A,1,,,,,,,,,,,,,140.0,99.0,99.0*26
$GPRMC,110656.68,V,,,,,,,100219,,,N*7D
$GPGGA,110657.68,,,,,0,00,999.9,,M,,M,,*6C
$GPGSV,3,1,09,28,60,118,33,05,55,225,38,13,55,312,51,30,53,052,51*7D
$GPGSV,3,2,09,15,22,303,50,07,21,061,50,08,06,040,,09,02,115,*72
$GPGSV,3,3,09,21,02,318,*4B
$GLGSV,2,1,08,67,74,148,,77,67,021,,78,54,234,,68,46,324,*61
$GLGSV,2,2,08,66,19,146,,76,07,040,,79,04,224,,85,03,006,*62
$GPGSA,A,1,,,,,,,,,,,,,140.0,99.0,99.0*35
$GNGSA,A,1,,,,,,,,,,,,,140.0,99.0,99.0*2B
$GNGSA,A,1,,,,,,,,,,,,,140.0,99.0,99.0*2B
$QZGSA,A,1,,,,,,,,,,,,,140.0,99.0,99.0*29
$IMGSA,A,1,,,,,,,,,,,,,140.0,99.0,99.0*26
$GPRMC,110657.68,V,,,,,,,100219,,,N*7C
$GPGGA,110658.68,,,,,0,00,999.9,,M,,M,,*63
$GPGSV,3,1,09,28,60,118,32,05,55,225,38,13,55,312,51,30,53,052,51*7C
$GPGSV,3,2,09,15,22,303,50,07,21,061,50,08,06,040,27,09,02,115,*77
$GPGSV,3,3,09,21,02,318,*4B
$GLGSV,2,1,08,67,74,148,,77,67,021,,78,54,234,,68,46,324,*61
$GLGSV,2,2,08,66,19,146,,76,07,040,,79,04,224,,85,03,006,*62
$GPGSA,A,1,,,,,,,,,,,,,140.0,99.0,99.0*35
$GNGSA,A,1,,,,,,,,,,,,,140.0,99.0,99.0*2B
$GNGSA,A,1,,,,,,,,,,,,,140.0,99.0,99.0*2B
$QZGSA,A,1,,,,,,,,,,,,,140.0,99.0,99.0*29
$IMGSA,A,1,,,,,,,,,,,,,140.0,99.0,99.0*26
$GPRMC,110658.68,V,,,,,,,100219,,,N*73
$GPGGA,110659.68,,,,,0,00,999.9,,M,,M,,*62
$GPGSV,3,1,09,28,60,118,31,05,55,225,48,13,55,312,51,30,53,052,51*78
$GPGSV,3,2,09,15,22,303,50,07,21,061,51,08,06,040,27,09,02,115,*76
$GPGSV,3,3,09,21,02,318,*4B
$GLGSV,2,1,08,67,74,148,,77,67,021,,78,54,234,,68,46,324,*61
$GLGSV,2,2,08,66,19,146,,76,07,040,,79,04,224,,85,03,006,*62
$GPGSA,A,1,,,,,,,,,,,,,140.0,99.0,99.0*35
$GNGSA,A,1,,,,,,,,,,,,,140.0,99.0,99.0*2B
$GNGSA,A,1,,,,,,,,,,,,,140.0,99.0,99.0*2B
$QZGSA,A,1,,,,,,,,,,,,,140.0,99.0,99.0*29
$IMGSA,A,1,,,,,,,,,,,,,140.0,99.0,99.0*26
$GPRMC,110659.68,V,,,,,,,100219,,,N*72
$GPGGA,110700.68,,,,,0,00,999.9,,M,,M,,*6F
$GPGSV,3,1,09,28,60,118,30,05,55,225,51,13,55,312,51,30,53,052,51*71
$GPGSV,3,2,09,15,22,303,50,07,21,061,51,08,06,040,27,09,02,115,*76
$GPGSV,3,3,09,21,02,318,*4B
$GLGSV,2,1,08,67,74,148,,77,67,021,,78,54,234,,68,46,324,*61
$GLGSV,2,2,08,66,19,146,,76,07,040,,79,04,224,,85,03,006,*62
$GPGSA,A,1,,,,,,,,,,,,,140.0,99.0,99.0*35
$GNGSA,A,1,,,,,,,,,,,,,140.0,99.0,99.0*2B
$GNGSA,A,1,,,,,,,,,,,,,140.0,99.0,99.0*2B
$QZGSA,A,1,,,,,,,,,,,,,140.0,99.0,99.0*29
$IMGSA,A,1,,,,,,,,,,,,,140.0,99.0,99.0*26
$GPRMC,110700.68,V,,,,,,,100219,,,N*7F
$GPGGA,110701.68,,,,,0,00,999.9,,M,,M,,*6E
$GPGSV,3,1,09,28,60,118,48,05,55,225,51,13,55,312,51,30,53,052,51*7E
$GPGSV,3,2,09,15,22,303,50,07,21,061,51,08,06,040,26,09,02,115,*77
$GPGSV,3,3,09,21,02,318,*4B
$GLGSV,2,1,08,67,74,148,,77,67,021,,78,54,234,,68,46,324,*61
$GLGSV,2,2,08,66,19,146,,76,07,040,,79,04,224,,85,03,006,*62
$GPGSA,A,1,,,,,,,,,,,,,140.0,99.0,99.0*35
$GNGSA,A,1,,,,,,,,,,,,,140.0,99.0,99.0*2B
$GNGSA,A,1,,,,,,,,,,,,,140.0,99.0,99.0*2B
$QZGSA,A,1,,,,,,,,,,,,,140.0,99.0,99.0*29
$IMGSA,A,1,,,,,,,,,,,,,140.0,99.0,99.0*26
$GPRMC,110701.68,V,,,,,,,100219,,,N*7E
$GPGGA,110006.08,,,,,0,00,999.9,,M,,M,,*68
$GPGSV,3,1,09,28,60,118,51,05,55,225,51,13,55,312,51,30,53,052,51*76
$GPGSV,3,2,09,15,22,303,50,07,20,061,51,08,06,040,25,09,02,115,*75
$GPGSV,3,3,09,21,02,318,*4B
$GLGSV,2,1,08,67,74,148,,77,67,021,,78,54,234,,68,46,324,*61
$GLGSV,2,2,08,66,19,146,,76,07,040,,79,04,224,,85,03,006,*62
$GPGSA,A,1,,,,,,,,,,,,,140.0,99.0,99.0*35
$GNGSA,A,1,,,,,,,,,,,,,140.0,99.0,99.0*2B
$GNGSA,A,1,,,,,,,,,,,,,140.0,99.0,99.0*2B
$QZGSA,A,1,,,,,,,,,,,,,140.0,99.0,99.0*29
$IMGSA,A,1,,,,,,,,,,,,,140.0,99.0,99.0*26
$GPRMC,110006.08,V,,,,,,,090219,,,N*70
$GPGGA,000000.00,,,,,0,00,999.9,,M,,M,,*66
$GPGSA,A,1,,,,,,,,,,,,,140.0,99.0,99.0*35
$GNGSA,A,1,,,,,,,,,,,,,140.0,99.0,99.0*2B
$GNGSA,A,1,,,,,,,,,,,,,140.0,99.0,99.0*2B
$QZGSA,A,1,,,,,,,,,,,,,140.0,99.0,99.0*29
$IMGSA,A,1,,,,,,,,,,,,,140.0,99.0,99.0*26
$GPRMC,000000.00,V,,,,,,,,,,N*7D
$GPGGA,000001.00,,,,,0,00,999.9,,M,,M,,*67
$GPGSA,A,1,,,,,,,,,,,,,140.0,99.0,99.0*35
$GNGSA,A,1,,,,,,,,,,,,,140.0,99.0,99.0*2B
$GNGSA,A,1,,,,,,,,,,,,,140.0,99.0,99.0*2B
$QZGSA,A,1,,,,,,,,,,,,,140.0,99.0,99.0*29
$IMGSA,A,1,,,,,,,,,,,,,140.0,99.0,99.0*26
$GPRMC,000001.00,V,,,,,,,,,,N*7C
$GPGGA,000001.00,,,,,0,00,999.9,,M,,M,,*67
$GPGSV,1,1,01,05,,,44*7D
$GPGSA,A,1,,,,,,,,,,,,,140.0,99.0,99.0*35
$GNGSA,A,1,,,,,,,,,,,,,140.0,99.0,99.0*2B
$GNGSA,A,1,,,,,,,,,,,,,140.0,99.0,99.0*2B
$QZGSA,A,1,,,,,,,,,,,,,140.0,99.0,99.0*29
$IMGSA,A,1,,,,,,,,,,,,,140.0,99.0,99.0*26
$GPRMC,000001.00,V,,,,,,,,,,N*7C
$GPGGA,000002.00,,,,,0,00,999.9,,M,,M,,*64
$GPGSV,1,1,01,05,,,46*7F
$GPGSA,A,1,,,,,,,,,,,,,140.0,99.0,99.0*35
$GNGSA,A,1,,,,,,,,,,,,,140.0,99.0,99.0*2B
$GNGSA,A,1,,,,,,,,,,,,,140.0,99.0,99.0*2B
$QZGSA,A,1,,,,,,,,,,,,,140.0,99.0,99.0*29
$IMGSA,A,1,,,,,,,,,,,,,140.0,99.0,99.0*26
$GPRMC,000002.00,V,,,,,,,,,,N*7F
$GPGGA,000003.00,,,,,0,00,999.9,,M,,M,,*65
$GPGSV,1,1,02,30,,,49,05,,,49*7D
$GPGSA,A,1,,,,,,,,,,,,,140.0,99.0,99.0*35
$GNGSA,A,1,,,,,,,,,,,,,140.0,99.0,99.0*2B
$GNGSA,A,1,,,,,,,,,,,,,140.0,99.0,99.0*2B
$QZGSA,A,1,,,,,,,,,,,,,140.0,99.0,99.0*29
$IMGSA,A,1,,,,,,,,,,,,,140.0,99.0,99.0*26
$GPRMC,000003.00,V,,,,,,,,,,N*7E
$GPGGA,000004.00,,,,,0,00,999.9,,M,,M,,*62
$GPGSV,1,1,02,30,,,51,05,,,51*7D
$GPGSA,A,1,,,,,,,,,,,,,140.0,99.0,99.0*35
$GNGSA,A,1,,,,,,,,,,,,,140.0,99.0,99.0*2B
$GNGSA,A,1,,,,,,,,,,,,,140.0,99.0,99.0*2B
$QZGSA,A,1,,,,,,,,,,,,,140.0,99.0,99.0*29
$IMGSA,A,1,,,,,,,,,,,,,140.0,99.0,99.0*26
$GPRMC,000004.00,V,,,,,,,,,,N*79
$GPGGA,000005.00,,,,,0,00,999.9,,M,,M,,*63
$GPGSV,1,1,04,07,,,40,05,,,51,30,,,51,15,,,48*70
$GPGSA,A,1,,,,,,,,,,,,,140.0,99.0,99.0*35
$GNGSA,A,1,,,,,,,,,,,,,140.0,99.0,99.0*2B
$GNGSA,A,1,,,,,,,,,,,,,140.0,99.0,99.0*2B
$QZGSA,A,1,,,,,,,,,,,,,140.0,99.0,99.0*29
$IMGSA,A,1,,,,,,,,,,,,,140.0,99.0,99.0*26
$GPRMC,000005.00,V,,,,,,,,,,N*78
$GPGGA,000006.00,,,,,0,00,999.9,,M,,M,,*60
$GPGSV,2,1,05,07,,,48,05,,,51,28,,,43,15,,,50*79
$GPGSV,2,2,05,30,,,51*7B
$GPGSA,A,1,,,,,,,,,,,,,140.0,99.0,99.0*35
$GNGSA,A,1,,,,,,,,,,,,,140.0,99.0,99.0*2B
$GNGSA,A,1,,,,,,,,,,,,,140.0,99.0,99.0*2B
$QZGSA,A,1,,,,,,,,,,,,,140.0,99.0,99.0*29
$IMGSA,A,1,,,,,,,,,,,,,140.0,99.0,99.0*26
$GPRMC,000006.00,V,,,,,,,,,,N*7B
$GPGGA,000007.00,,,,,0,00,999.9,,M,,M,,*61
$GPGSV,2,1,06,07,,,50,05,,,51,15,,,50,13,,,42*7A
$GPGSV,2,2,06,30,,,51,28,,,49*7F
$GPGSA,A,1,,,,,,,,,,,,,140.0,99.0,99.0*35
$GNGSA,A,1,,,,,,,,,,,,,140.0,99.0,99.0*2B
$GNGSA,A,1,,,,,,,,,,,,,140.0,99.0,99.0*2B
$QZGSA,A,1,,,,,,,,,,,,,140.0,99.0,99.0*29
$IMGSA,A,1,,,,,,,,,,,,,140.0,99.0,99.0*26
$GPRMC,000007.00,V,,,,,,,,,,N*7A
$GPGGA,000008.00,,,,,0,00,999.9,,M,,M,,*6E
$GPGSV,2,1,07,07,,,50,05,,,51,15,,,50,13,,,49*70
$GPGSV,2,2,07,28,,,50,21,,,42,30,,,51*73
$GPGSA,A,1,,,,,,,,,,,,,140.0,99.0,99.0*35
$GNGSA,A,1,,,,,,,,,,,,,140.0,99.0,99.0*2B
$GNGSA,A,1,,,,,,,,,,,,,140.0,99.0,99.0*2B
$QZGSA,A,1,,,,,,,,,,,,,140.0,99.0,99.0*29
$IMGSA,A,1,,,,,,,,,,,,,140.0,99.0,99.0*26
$GPRMC,000008.00,V,,,,,,,,,,N*75
$GPGGA,000009.00,,,,,0,00,999.9,,M,,M,,*6F
$GPGSV,2,1,08,07,,,50,05,,,51,13,,,51,08,,,47*7C
$GPGSV,2,2,08,21,,,47,15,,,50,30,,,51,28,,,51*79
$GPGSA,A,1,,,,,,,,,,,,,140.0,99.0,99.0*35
$GNGSA,A,1,,,,,,,,,,,,,140.0,99.0,99.0*2B
$GNGSA,A,1,,,,,,,,,,,,,140.0,99.0,99.0*2B
$QZGSA,A,1,,,,,,,,,,,,,140.0,99.0,99.0*29
$IMGSA,A,1,,,,,,,,,,,,,140.0,99.0,99.0*26
$GPRMC,000009.00,V,,,,,,,,,,N*74
$GPGGA,000010.00,,,,,0,00,999.9,,M,,M,,*67
$GPGSV,3,1,10,05,,,51,04,,,48,08,,,48,07,,,50*75
$GPGSV,3,2,10,13,,,51,09,,,47,21,,,47,15,,,50*74
$GPGSV,3,3,10,30,,,51,28,,,51*71
$GPGSA,A,1,,,,,,,,,,,,,140.0,99.0,99.0*35
$GNGSA,A,1,,,,,,,,,,,,,140.0,99.0,99.0*2B
$GNGSA,A,1,,,,,,,,,,,,,140.0,99.0,99.0*2B
$QZGSA,A,1,,,,,,,,,,,,,140.0,99.0,99.0*29
$IMGSA,A,1,,,,,,,,,,,,,140.0,99.0,99.0*26
$GPRMC,000010.00,V,,,,,,,,,,N*7C
$GPGGA,000011.00,,,,,0,00,999.9,,M,,M,,*66
$GPGSV,3,1,10,05,,,51,04,,,49,08,,,48,07,,,51*75
$GPGSV,3,2,10,13,,,51,09,,,48,21,,,47,15,,,50*7B
$GPGSV,3,3,10,30,,,51,28,,,51*71
$GPGSA,A,1,,,,,,,,,,,,,140.0,99.0,99.0*35
$GNGSA,A,1,,,,,,,,,,,,,140.0,99.0,99.0*2B
$GNGSA,A,1,,,,,,,,,,,,,140.0,99.0,99.0*2B
$QZGSA,A,1,,,,,,,,,,,,,140.0,99.0,99.0*29
$IMGSA,A,1,,,,,,,,,,,,,140.0,99.0,99.0*26
$GPRMC,000011.00,V,,,,,,,,,,N*7D
$GPGGA,000012.00,,,,,0,00,999.9,,M,,M,,*65
$GPGSV,3,1,10,05,,,51,04,,,50,08,,,49,07,,,51*7C
$GPGSV,3,2,10,13,,,51,09,,,49,21,,,48,15,,,50*75
$GPGSV,3,3,10,30,,,51,28,,,51*71
$GPGSA,A,1,,,,,,,,,,,,,140.0,99.0,99.0*35
$GNGSA,A,1,,,,,,,,,,,,,140.0,99.0,99.0*2B
$GNGSA,A,1,,,,,,,,,,,,,140.0,99.0,99.0*2B
$QZGSA,A,1,,,,,,,,,,,,,140.0,99.0,99.0*29
$IMGSA,A,1,,,,,,,,,,,,,140.0,99.0,99.0*26
$GPRMC,000012.00,V,,,,,,,,,,N*7E
$GPGGA,000013.00,,,,,0,00,999.9,,M,,M,,*64
$GPGSV,3,1,10,05,,,51,04,,,50,08,,,49,07,,,50*7D
$GPGSV,3,2,10,13,,,51,09,,,49,21,,,47,15,,,50*7A
$GPGSV,3,3,10,30,,,51,28,,,51*71
$GPGSA,A,1,,,,,,,,,,,,,140.0,99.0,99.0*35
$GNGSA,A,1,,,,,,,,,,,,,140.0,99.0,99.0*2B
$GNGSA,A,1,,,,,,,,,,,,,140.0,99.0,99.0*2B
$QZGSA,A,1,,,,,,,,,,,,,140.0,99.0,99.0*29
$IMGSA,A,1,,,,,,,,,,,,,140.0,99.0,99.0*26
$GPRMC,000013.00,V,,,,,,,,,,N*7F
$GPGGA,000014.00,,,,,0,00,999.9,,M,,M,,*63
$GPGSV,3,1,10,05,,,51,04,,,50,08,,,49,07,,,50*7D
$GPGSV,3,2,10,13,,,51,09,,,49,21,,,48,15,,,50*75
$GPGSV,3,3,10,30,,,51,28,,,51*71
$GPGSA,A,1,,,,,,,,,,,,,140.0,99.0,99.0*35
$GNGSA,A,1,,,,,,,,,,,,,140.0,99.0,99.0*2B
$GNGSA,A,1,,,,,,,,,,,,,140.0,99.0,99.0*2B
$QZGSA,A,1,,,,,,,,,,,,,140.0,99.0,99.0*29
$IMGSA,A,1,,,,,,,,,,,,,140.0,99.0,99.0*26
$GPRMC,000014.00,V,,,,,,,,,,N*78
$GPGGA,000015.00,,,,,0,00,999.9,,M,,M,,*62
$GPGSV,3,1,10,05,,,51,04,,,50,08,,,49,07,,,50*7D
$GPGSV,3,2,10,13,,,51,09,,,49,21,,,48,15,,,50*75
$GPGSV,3,3,10,30,,,51,28,,,51*71
$GPGSA,A,1,,,,,,,,,,,,,140.0,99.0,99.0*35
$GNGSA,A,1,,,,,,,,,,,,,140.0,99.0,99.0*2B
$GNGSA,A,1,,,,,,,,,,,,,140.0,99.0,99.0*2B
$QZGSA,A,1,,,,,,,,,,,,,140.0,99.0,99.0*29
$IMGSA,A,1,,,,,,,,,,,,,140.0,99.0,99.0*26
$GPRMC,000015.00,V,,,,,,,,,,N*79
$GPGGA,000016.00,,,,,0,00,999.9,,M,,M,,*61
$GPGSV,3,1,10,05,,,51,04,,,50,08,,,49,07,,,50*7D
$GPGSV,3,2,10,13,,,51,09,,,49,21,,,48,15,,,50*75
$GPGSV,3,3,10,30,,,52,28,,,51*72
$GPGSA,A,1,,,,,,,,,,,,,140.0,99.0,99.0*35
$GNGSA,A,1,,,,,,,,,,,,,140.0,99.0,99.0*2B
$GNGSA,A,1,,,,,,,,,,,,,140.0,99.0,99.0*2B
$QZGSA,A,1,,,,,,,,,,,,,140.0,99.0,99.0*29
$IMGSA,A,1,,,,,,,,,,,,,140.0,99.0,99.0*26
$GPRMC,000016.00,V,,,,,,,,,,N*7A
$GPGGA,000017.00,,,,,0,00,999.9,,M,,M,,*60
$GPGSV,3,1,10,05,,,52,04,,,50,08,,,49,07,,,50*7E
$GPGSV,3,2,10,13,,,51,09,,,49,21,,,48,15,,,50*75
$GPGSV,3,3,10,30,,,51,28,,,51*71
$GPGSA,A,1,,,,,,,,,,,,,140.0,99.0,99.0*35
$GNGSA,A,1,,,,,,,,,,,,,140.0,99.0,99.0*2B
$GNGSA,A,1,,,,,,,,,,,,,140.0,99.0,99.0*2B
$QZGSA,A,1,,,,,,,,,,,,,140.0,99.0,99.0*29
$IMGSA,A,1,,,,,,,,,,,,,140.0,99.0,99.0*26
$GPRMC,000017.00,V,,,,,,,,,,N*7B
$GPGGA,000018.00,,,,,0,00,999.9,,M,,M,,*6F
$GPGSV,3,1,10,05,,,52,04,,,50,08,,,49,07,,,50*7E
$GPGSV,3,2,10,13,,,51,09,,,49,21,,,48,15,,,50*75
$GPGSV,3,3,10,30,,,51,28,,,51*71
$GPGSA,A,1,,,,,,,,,,,,,140.0,99.0,99.0*35
$GNGSA,A,1,,,,,,,,,,,,,140.0,99.0,99.0*2B
$GNGSA,A,1,,,,,,,,,,,,,140.0,99.0,99.0*2B
$QZGSA,A,1,,,,,,,,,,,,,140.0,99.0,99.0*29
$IMGSA,A,1,,,,,,,,,,,,,140.0,99.0,99.0*26
$GPRMC,000018.00,V,,,,,,,,,,N*74
$GPGGA,000019.00,,,,,0,00,999.9,,M,,M,,*6E
$GPGSV,3,1,10,05,,,52,04,,,50,08,,,49,07,,,51*7F
$GPGSV,3,2,10,13,,,51,09,,,49,21,,,48,15,,,50*75
$GPGSV,3,3,10,30,,,51,28,,,52*72
$GPGSA,A,1,,,,,,,,,,,,,140.0,99.0,99.0*35
$GNGSA,A,1,,,,,,,,,,,,,140.0,99.0,99.0*2B
$GNGSA,A,1,,,,,,,,,,,,,140.0,99.0,99.0*2B
$QZGSA,A,1,,,,,,,,,,,,,140.0,99.0,99.0*29
$IMGSA,A,1,,,,,,,,,,,,,140.0,99.0,99.0*26
$GPRMC,000019.00,V,,,,,,,,,,N*75
$GPGGA,000020.00,,,,,0,00,999.9,,M,,M,,*64
$GPGSV,3,1,10,05,,,52,04,,,50,08,,,49,07,,,51*7F
$GPGSV,3,2,10,13,,,51,09,,,49,21,,,48,15,,,50*75
$GPGSV,3,3,10,30,,,51,28,,,51*71
$GPGSA,A,1,,,,,,,,,,,,,140.0,99.0,99.0*35
$GNGSA,A,1,,,,,,,,,,,,,140.0,99.0,99.0*2B
$GNGSA,A,1,,,,,,,,,,,,,140.0,99.0,99.0*2B
$QZGSA,A,1,,,,,,,,,,,,,140.0,99.0,99.0*29
$IMGSA,A,1,,,,,,,,,,,,,140.0,99.0,99.0*26
$GPRMC,000020.00,V,,,,,,,,,,N*7F
$GPGGA,000021.00,,,,,0,00,999.9,,M,,M,,*65
$GPGSV,3,1,10,05,,,51,04,,,50,08,,,49,07,,,51*7C
$GPGSV,3,2,10,13,,,51,09,,,49,21,,,48,15,,,50*75
$GPGSV,3,3,10,30,,,51,28,,,51*71
$GPGSA,A,1,,,,,,,,,,,,,140.0,99.0,99.0*35
$GNGSA,A,1,,,,,,,,,,,,,140.0,99.0,99.0*2B
$GNGSA,A,1,,,,,,,,,,,,,140.0,99.0,99.0*2B
$QZGSA,A,1,,,,,,,,,,,,,140.0,99.0,99.0*29
$IMGSA,A,1,,,,,,,,,,,,,140.0,99.0,99.0*26
$GPRMC,000021.00,V,,,,,,,,,,N*7E
$GPGGA,000022.00,,,,,0,00,999.9,,M,,M,,*66
$GPGSV,3,1,10,05,,,51,04,,,50,08,,,49,07,,,51*7C
$GPGSV,3,2,10,13,,,51,09,,,49,21,,,48,15,,,50*75
$GPGSV,3,3,10,30,,,51,28,,,51*71
$GPGSA,A,1,,,,,,,,,,,,,140.0,99.0,99.0*35
$GNGSA,A,1,,,,,,,,,,,,,140.0,99.0,99.0*2B
$GNGSA,A,1,,,,,,,,,,,,,140.0,99.0,99.0*2B
$QZGSA,A,1,,,,,,,,,,,,,140.0,99.0,99.0*29
$IMGSA,A,1,,,,,,,,,,,,,140.0,99.0,99.0*26
$GPRMC,000022.00,V,,,,,,,,,,N*7D
$GPGGA,000023.00,,,,,0,00,999.9,,M,,M,,*67
$GPGSV,3,1,10,05,,,52,04,,,50,08,,,49,07,,,51*7F
$GPGSV,3,2,10,13,,,51,09,,,49,21,,,48,15,,,50*75
$GPGSV,3,3,10,30,,,51,28,,,51*71
$GPGSA,A,1,,,,,,,,,,,,,140.0,99.0,99.0*35
$GNGSA,A,1,,,,,,,,,,,,,140.0,99.0,99.0*2B
$GNGSA,A,1,,,,,,,,,,,,,140.0,99.0,99.0*2B
$QZGSA,A,1,,,,,,,,,,,,,140.0,99.0,99.0*29
$IMGSA,A,1,,,,,,,,,,,,,140.0,99.0,99.0*26
$GPRMC,000023.00,V,,,,,,,,,,N*7C
$GPGGA,000024.00,,,,,0,00,999.9,,M,,M,,*60
$GPGSV,3,1,10,05,,,52,04,,,50,08,,,49,07,,,51*7F
$GPGSV,3,2,10,13,,,51,09,,,49,21,,,48,15,,,50*75
$GPGSV,3,3,10,30,,,51,28,,,51*71
$GPGSA,A,1,,,,,,,,,,,,,140.0,99.0,99.0*35
$GNGSA,A,1,,,,,,,,,,,,,140.0,99.0,99.0*2B
$GNGSA,A,1,,,,,,,,,,,,,140.0,99.0,99.0*2B
$QZGSA,A,1,,,,,,,,,,,,,140.0,99.0,99.0*29
$IMGSA,A,1,,,,,,,,,,,,,140.0,99.0,99.0*26
$GPRMC,000024.00,V,,,,,,,,,,N*7B
$GPGGA,000025.00,,,,,0,00,999.9,,M,,M,,*61
$GPGSV,3,1,10,05,,,51,04,,,50,08,,,49,07,,,50*7D
$GPGSV,3,2,10,13,,,51,09,,,49,21,,,48,15,,,50*75
$GPGSV,3,3,10,30,,,51,28,,,51*71
$GPGSA,A,1,,,,,,,,,,,,,140.0,99.0,99.0*35
$GNGSA,A,1,,,,,,,,,,,,,140.0,99.0,99.0*2B
$GNGSA,A,1,,,,,,,,,,,,,140.0,99.0,99.0*2B
$QZGSA,A,1,,,,,,,,,,,,,140.0,99.0,99.0*29
$IMGSA,A,1,,,,,,,,,,,,,140.0,99.0,99.0*26
$GPRMC,000025.00,V,,,,,,,,,,N*7A
$GPGGA,000026.00,,,,,0,00,999.9,,M,,M,,*62
$GPGSV,3,1,10,05,,,51,04,,,50,08,,,49,07,,,50*7D
$GPGSV,3,2,10,13,,,51,09,,,49,21,,,48,15,,,50*75
$GPGSV,3,3,10,30,,,51,28,,,51*71
$GPGSA,A,1,,,,,,,,,,,,,140.0,99.0,99.0*35
$GNGSA,A,1,,,,,,,,,,,,,140.0,99.0,99.0*2B
$GNGSA,A,1,,,,,,,,,,,,,140.0,99.0,99.0*2B
$QZGSA,A,1,,,,,,,,,,,,,140.0,99.0,99.0*29
$IMGSA,A,1,,,,,,,,,,,,,140.0,99.0,99.0*26
$GPRMC,000026.00,V,,,,,,,,,,N*79
$GPGGA,000027.00,,,,,0,00,999.9,,M,,M,,*63
$GPGSV,3,1,10,05,,,51,04,,,50,08,,,49,07,,,50*7D
$GPGSV,3,2,10,13,,,51,09,,,49,21,,,48,15,,,50*75
$GPGSV,3,3,10,30,,,51,28,,,51*71
$GPGSA,A,1,,,,,,,,,,,,,140.0,99.0,99.0*35
$GNGSA,A,1,,,,,,,,,,,,,140.0,99.0,99.0*2B
$GNGSA,A,1,,,,,,,,,,,,,140.0,99.0,99.0*2B
$QZGSA,A,1,,,,,,,,,,,,,140.0,99.0,99.0*29
$IMGSA,A,1,,,,,,,,,,,,,140.0,99.0,99.0*26
$GPRMC,000027.00,V,,,,,,,,,,N*78
$GPGGA,000028.00,,,,,0,00,999.9,,M,,M,,*6C
$GPGSV,3,1,10,05,,,52,04,,,50,08,,,49,07,,,50*7E
$GPGSV,3,2,10,13,,,52,09,,,49,21,,,48,15,,,50*76
$GPGSV,3,3,10,30,,,51,28,,,51*71
$GPGSA,A,1,,,,,,,,,,,,,140.0,99.0,99.0*35
$GNGSA,A,1,,,,,,,,,,,,,140.0,99.0,99.0*2B
$GNGSA,A,1,,,,,,,,,,,,,140.0,99.0,99.0*2B
$QZGSA,A,1,,,,,,,,,,,,,140.0,99.0,99.0*29
$IMGSA,A,1,,,,,,,,,,,,,140.0,99.0,99.0*26
$GPRMC,000028.00,V,,,,,,,,,,N*77
$GPGGA,000029.00,,,,,0,00,999.9,,M,,M,,*6D
$GPGSV,3,1,10,05,,,52,04,,,50,08,,,49,07,,,50*7E
$GPGSV,3,2,10,13,,,51,09,,,49,21,,,48,15,,,50*75
$GPGSV,3,3,10,30,,,51,28,,,51*71
$GPGSA,A,1,,,,,,,,,,,,,140.0,99.0,99.0*35
$GNGSA,A,1,,,,,,,,,,,,,140.0,99.0,99.0*2B
$GNGSA,A,1,,,,,,,,,,,,,140.0,99.0,99.0*2B
$QZGSA,A,1,,,,,,,,,,,,,140.0,99.0,99.0*29
$IMGSA,A,1,,,,,,,,,,,,,140.0,99.0,99.0*26
$GPRMC,000029.00,V,,,,,,,,,,N*76
$GPGGA,000030.00,,,,,0,00,999.9,,M,,M,,*65
$GPGSV,3,1,10,05,,,52,04,,,50,08,,,49,07,,,50*7E
$GPGSV,3,2,10,13,,,51,09,,,49,21,,,48,15,,,50*75
$GPGSV,3,3,10,30,,,51,28,,,51*71
$GPGSA,A,1,,,,,,,,,,,,,140.0,99.0,99.0*35
$GNGSA,A,1,,,,,,,,,,,,,140.0,99.0,99.0*2B
$GNGSA,A,1,,,,,,,,,,,,,140.0,99.0,99.0*2B
$QZGSA,A,1,,,,,,,,,,,,,140.0,99.0,99.0*29
$IMGSA,A,1,,,,,,,,,,,,,140.0,99.0,99.0*26
$GPRMC,000030.00,V,,,,,,,,,,N*7E
$GPGGA,000031.00,,,,,0,00,999.9,,M,,M,,*64
$GPGSV,3,1,10,05,,,51,04,,,50,08,,,49,07,,,50*7D
$GPGSV,3,2,10,13,,,51,09,,,49,21,,,48,15,,,50*75
$GPGSV,3,3,10,30,,,51,28,,,51*71
$GPGSA,A,1,,,,,,,,,,,,,140.0,99.0,99.0*35
$GNGSA,A,1,,,,,,,,,,,,,140.0,99.0,99.0*2B
$GNGSA,A,1,,,,,,,,,,,,,140.0,99.0,99.0*2B
$QZGSA,A,1,,,,,,,,,,,,,140.0,99.0,99.0*29
$IMGSA,A,1,,,,,,,,,,,,,140.0,99.0,99.0*26
$GPRMC,000031.00,V,,,,,,,,,,N*7F
$GPGGA,000032.00,,,,,0,00,999.9,,M,,M,,*67
$GPGSV,3,1,10,05,,,51,04,,,50,08,,,49,07,,,50*7D
$GPGSV,3,2,10,13,,,51,09,,,49,21,,,48,15,,,50*75
$GPGSV,3,3,10,30,,,51,28,,,51*71
$GPGSA,A,1,,,,,,,,,,,,,140.0,99.0,99.0*35
$GNGSA,A,1,,,,,,,,,,,,,140.0,99.0,99.0*2B
$GNGSA,A,1,,,,,,,,,,,,,140.0,99.0,99.0*2B
$QZGSA,A,1,,,,,,,,,,,,,140.0,99.0,99.0*29
$IMGSA,A,1,,,,,,,,,,,,,140.0,99.0,99.0*26
$GPRMC,000032.00,V,,,,,,,,,,N*7C
$GPGGA,000033.00,,,,,0,00,999.9,,M,,M,,*66
$GPGSV,3,1,10,05,,,51,04,,,50,08,,,49,07,,,50*7D
$GPGSV,3,2,10,13,,,51,09,,,49,21,,,48,15,,,50*75
$GPGSV,3,3,10,30,,,51,28,,,51*71
$GPGSA,A,1,,,,,,,,,,,,,140.0,99.0,99.0*35
$GNGSA,A,1,,,,,,,,,,,,,140.0,99.0,99.0*2B
$GNGSA,A,1,,,,,,,,,,,,,140.0,99.0,99.0*2B
$QZGSA,A,1,,,,,,,,,,,,,140.0,99.0,99.0*29
$IMGSA,A,1,,,,,,,,,,,,,140.0,99.0,99.0*26
$GPRMC,000033.00,V,,,,,,,,,,N*7D
$GPGGA,000034.00,,,,,0,00,999.9,,M,,M,,*61
$GPGSV,3,1,10,05,,,51,04,,,50,08,,,49,07,,,50*7D
$GPGSV,3,2,10,13,,,51,09,,,49,21,,,48,15,,,50*75
$GPGSV,3,3,10,30,,,51,28,,,51*71
$GPGSA,A,1,,,,,,,,,,,,,140.0,99.0,99.0*35
$GNGSA,A,1,,,,,,,,,,,,,140.0,99.0,99.0*2B
$GNGSA,A,1,,,,,,,,,,,,,140.0,99.0,99.0*2B
$QZGSA,A,1,,,,,,,,,,,,,140.0,99.0,99.0*29
$IMGSA,A,1,,,,,,,,,,,,,140.0,99.0,99.0*26
$GPRMC,000034.00,V,,,,,,,,,,N*7A
$GPGGA,000035.00,,,,,0,00,999.9,,M,,M,,*60
$GPGSV,3,1,10,05,,,51,04,,,50,08,,,49,07,,,50*7D
$GPGSV,3,2,10,13,,,51,09,,,49,21,,,48,15,,,50*75
$GPGSV,3,3,10,30,,,51,28,,,51*71
$GPGSA,A,1,,,,,,,,,,,,,140.0,99.0,99.0*35
$GNGSA,A,1,,,,,,,,,,,,,140.0,99.0,99.0*2B
$GNGSA,A,1,,,,,,,,,,,,,140.0,99.0,99.0*2B
$QZGSA,A,1,,,,,,,,,,,,,140.0,99.0,99.0*29
$IMGSA,A,1,,,,,,,,,,,,,140.0,99.0,99.0*26
$GPRMC,000035.00,V,,,,,,,,,,N*7B
$GPGGA,000036.00,,,,,0,00,999.9,,M,,M,,*63
$GPGSV,3,1,10,05,,,51,04,,,50,08,,,49,07,,,50*7D
$GPGSV,3,2,10,13,,,51,09,,,49,21,,,48,15,,,50*75
$GPGSV,3,3,10,30,,,51,28,,,51*71
$GPGSA,A,1,,,,,,,,,,,,,140.0,99.0,99.0*35
$GNGSA,A,1,,,,,,,,,,,,,140.0,99.0,99.0*2B
$GNGSA,A,1,,,,,,,,,,,,,140.0,99.0,99.0*2B
$QZGSA,A,1,,,,,,,,,,,,,140.0,99.0,99.0*29
$IMGSA,A,1,,,,,,,,,,,,,140.0,99.0,99.0*26
$GPRMC,000036.00,V,,,,,,,,,,N*78
$GPGGA,000037.00,,,,,0,00,999.9,,M,,M,,*62
$GPGSV,3,1,10,05,,,51,04,,,50,08,,,49,07,,,50*7D
$GPGSV,3,2,10,13,,,51,09,,,49,21,,,48,15,,,50*75
$GPGSV,3,3,10,30,,,51,28,,,51*71
$GPGSA,A,1,,,,,,,,,,,,,140.0,99.0,99.0*35
$GNGSA,A,1,,,,,,,,,,,,,140.0,99.0,99.0*2B
$GNGSA,A,1,,,,,,,,,,,,,140.0,99.0,99.0*2B
$QZGSA,A,1,,,,,,,,,,,,,140.0,99.0,99.0*29
$IMGSA,A,1,,,,,,,,,,,,,140.0,99.0,99.0*26
$GPRMC,000037.00,V,,,,,,,,,,N*79
$GPGGA,000038.00,,,,,0,00,999.9,,M,,M,,*6D
$GPGSV,3,1,10,05,,,51,04,,,50,08,,,49,07,,,50*7D
$GPGSV,3,2,10,13,,,51,09,,,49,21,,,48,15,,,50*75
$GPGSV,3,3,10,30,,,51,28,,,51*71
$GPGSA,A,1,,,,,,,,,,,,,140.0,99.0,99.0*35
$GNGSA,A,1,,,,,,,,,,,,,140.0,99.0,99.0*2B
$GNGSA,A,1,,,,,,,,,,,,,140.0,99.0,99.0*2B
$QZGSA,A,1,,,,,,,,,,,,,140.0,99.0,99.0*29
$IMGSA,A,1,,,,,,,,,,,,,140.0,99.0,99.0*26
$GPRMC,000038.00,V,,,,,,,,,,N*76
$GPGGA,000039.00,,,,,0,00,999.9,,M,,M,,*6C
$GPGSV,3,1,10,05,,,51,04,,,50,08,,,49,07,,,50*7D
$GPGSV,3,2,10,13,,,51,09,,,49,21,,,48,15,,,50*75
$GPGSV,3,3,10,30,,,51,28,,,51*71
$GPGSA,A,1,,,,,,,,,,,,,140.0,99.0,99.0*35
$GNGSA,A,1,,,,,,,,,,,,,140.0,99.0,99.0*2B
$GNGSA,A,1,,,,,,,,,,,,,140.0,99.0,99.0*2B
$QZGSA,A,1,,,,,,,,,,,,,140.0,99.0,99.0*29
$IMGSA,A,1,,,,,,,,,,,,,140.0,99.0,99.0*26
$GPRMC,000039.00,V,,,,,,,,,,N*77
$GPGGA,000040.00,,,,,0,00,999.9,,M,,M,,*62
$GPGSV,3,1,10,05,,,51,04,,,50,08,,,49,07,,,50*7D
$GPGSV,3,2,10,13,,,51,09,,,49,21,,,48,15,,,50*75
$GPGSV,3,3,10,30,,,51,28,,,51*71
$GPGSA,A,1,,,,,,,,,,,,,140.0,99.0,99.0*35
$GNGSA,A,1,,,,,,,,,,,,,140.0,99.0,99.0*2B
$GNGSA,A,1,,,,,,,,,,,,,140.0,99.0,99.0*2B
$QZGSA,A,1,,,,,,,,,,,,,140.0,99.0,99.0*29
$IMGSA,A,1,,,,,,,,,,,,,140.0,99.0,99.0*26
$GPRMC,000040.00,V,,,,,,,,,,N*79
$GPGGA,110048.28,,,,,0,00,999.9,,M,,M,,*60
$GPGSV,3,1,10,05,,,51,04,,,50,08,,,49,07,,,50*7D
$GPGSV,3,2,10,13,,,51,09,,,49,21,,,48,15,,,50*75
$GPGSV,3,3,10,30,,,51,28,,,51*71
$GPGSA,A,1,,,,,,,,,,,,,140.0,99.0,99.0*35
$GNGSA,A,1,,,,,,,,,,,,,140.0,99.0,99.0*2B
$GNGSA,A,1,,,,,,,,,,,,,140.0,99.0,99.0*2B
$QZGSA,A,1,,,,,,,,,,,,,140.0,99.0,99.0*29
$IMGSA,A,1,,,,,,,,,,,,,140.0,99.0,99.0*26
$GPRMC,110048.28,V,,,,,,,090219,,,N*78
$GPGGA,110049.28,,,,,0,00,999.9,,M,,M,,*61
$GPGSV,3,1,10,05,,,51,04,,,50,08,,,49,07,,,50*7D
$GPGSV,3,2,10,13,,,51,09,,,49,21,,,48,15,,,50*75
$GPGSV,3,3,10,30,,,51,28,,,51*71
$GPGSA,A,1,,,,,,,,,,,,,140.0,99.0,99.0*35
$GNGSA,A,1,,,,,,,,,,,,,140.0,99.0,99.0*2B
$GNGSA,A,1,,,,,,,,,,,,,140.0,99.0,99.0*2B
$QZGSA,A,1,,,,,,,,,,,,,140.0,99.0,99.0*29
$IMGSA,A,1,,,,,,,,,,,,,140.0,99.0,99.0*26
$GPRMC,110049.28,V,,,,,,,090219,,,N*79
$GPGGA,110050.28,,,,,0,00,999.9,,M,,M,,*69
$GPGSV,3,1,10,05,,,51,04,,,50,08,,,49,07,,,50*7D
$GPGSV,3,2,10,13,,,51,09,,,49,21,,,48,15,,,50*75
$GPGSV,3,3,10,30,,,51,28,,,51*71
$GPGSA,A,1,,,,,,,,,,,,,140.0,99.0,99.0*35
$GNGSA,A,1,,,,,,,,,,,,,140.0,99.0,99.0*2B
$GNGSA,A,1,,,,,,,,,,,,,140.0,99.0,99.0*2B
$QZGSA,A,1,,,,,,,,,,,,,140.0,99.0,99.0*29
$IMGSA,A,1,,,,,,,,,,,,,140.0,99.0,99.0*26
$GPRMC,110050.28,V,,,,,,,090219,,,N*71
$GPGGA,110051.28,,,,,0,00,999.9,,M,,M,,*68
$GPGSV,3,1,10,05,,,51,04,,,50,08,,,49,07,,,51*7C
$GPGSV,3,2,10,13,,,51,09,,,49,21,,,48,15,,,50*75
$GPGSV,3,3,10,30,,,51,28,,,51*71
$GPGSA,A,1,,,,,,,,,,,,,140.0,99.0,99.0*35
$GNGSA,A,1,,,,,,,,,,,,,140.0,99.0,99.0*2B
$GNGSA,A,1,,,,,,,,,,,,,140.0,99.0,99.0*2B
$QZGSA,A,1,,,,,,,,,,,,,140.0,99.0,99.0*29
$IMGSA,A,1,,,,,,,,,,,,,140.0,99.0,99.0*26
$GPRMC,110051.28,V,,,,,,,090219,,,N*70
$GPGGA,110052.28,,,,,0,00,999.9,,M,,M,,*6B
$GPGSV,3,1,10,05,,,51,04,,,50,08,,,49,07,,,51*7C
$GPGSV,3,2,10,13,,,51,09,,,49,21,,,48,15,,,50*75
$GPGSV,3,3,10,30,,,51,28,,,51*71
$GPGSA,A,1,,,,,,,,,,,,,140.0,99.0,99.0*35
$GNGSA,A,1,,,,,,,,,,,,,140.0,99.0,99.0*2B
$GNGSA,A,1,,,,,,,,,,,,,140.0,99.0,99.0*2B
$QZGSA,A,1,,,,,,,,,,,,,140.0,99.0,99.0*29
$IMGSA,A,1,,,,,,,,,,,,,140.0,99.0,99.0*26
$GPRMC,110052.28,V,,,,,,,090219,,,N*73
$GPGGA,110053.28,,,,,0,00,999.9,,M,,M,,*6A
$GPGSV,3,1,10,05,,,51,04,,,50,08,,,49,07,,,50*7D
$GPGSV,3,2,10,13,,,51,09,,,49,21,,,48,15,,,50*75
$GPGSV,3,3,10,30,,,51,28,,,51*71
$GPGSA,A,1,,,,,,,,,,,,,140.0,99.0,99.0*35
$GNGSA,A,1,,,,,,,,,,,,,140.0,99.0,99.0*2B
$GNGSA,A,1,,,,,,,,,,,,,140.0,99.0,99.0*2B
$QZGSA,A,1,,,,,,,,,,,,,140.0,99.0,99.0*29
$IMGSA,A,1,,,,,,,,,,,,,140.0,99.0,99.0*26
$GPRMC,110053.28,V,,,,,,,090219,,,N*72
$GPGGA,110054.29,4155.821344,N,01236.686560,E,1,04,0.8,0.0,M,45.0,M,,*6B
$GPGSV,3,1,10,05,58,232,51,04,,,50,08,06,044,49,07,24,059,50*4F
$GPGSV,3,2,10,13,51,308,51,09,06,113,49,21,02,321,48,15,18,301,50*76
$GPGSV,3,3,10,30,57,050,51,28,57,127,51*70
$GPGSA,A,3,07,08,09,15,,,,,,,,,4.5,1.5,4.2*33
$GNGSA,A,3,07,08,09,15,,,,,,,,,4.5,1.5,4.2*2D
$GNGSA,A,3,,,,,,,,,,,,,4.5,1.5,4.2*2F
$QZGSA,A,3,,,,,,,,,,,,,4.5,1.5,4.2*2D
$IMGSA,A,3,,,,,,,,,,,,,4.5,1.5,4.2*22
$GPRMC,110054.29,A,4155.821344,N,01236.686560,E,000.2,,090219,,,A*7B
$GPGGA,110055.29,4155.821090,N,01236.686762,E,1,05,1.2,0.0,M,45.0,M,,*6A
$GPGSV,3,1,10,07,24,059,50,15,18,301,50,09,06,113,49,08,06,044,49*7A
$GPGSV,3,2,10,21,02,321,,05,58,232,51,30,57,050,51,28,57,127,51*7F
$GPGSV,3,3,10,13,51,308,51,04,,,50*40
$GLGSV,2,1,07,66,79,136,,76,64,026,,77,47,229,,67,42,325,*65
$GLGSV,2,2,07,75,19,038,,65,16,144,,84,03,008,*51
$GPGSA,A,3,07,08,09,15,,,,,,,,,4.5,1.5,4.2*33
$GNGSA,A,3,07,08,09,15,,,,,,,,,4.5,1.5,4.2*2D
$GNGSA,A,3,,,,,,,,,,,,,4.5,1.5,4.2*2F
$QZGSA,A,3,,,,,,,,,,,,,4.5,1.5,4.2*2D
$IMGSA,A,3,,,,,,,,,,,,,4.5,1.5,4.2*22
$GPRMC,110055.29,A,4155.821090,N,01236.686762,E,,,090219,,,A*5C
$GPGGA,110056.29,4155.821090,N,01236.686762,E,1,05,1.2,0.0,M,45.0,M,,*69
$GPGSV,3,1,10,07,24,059,50,15,18,301,50,09,06,113,49,08,06,044,49*7A
$GPGSV,3,2,10,21,02,321,,05,58,232,51,30,57,050,51,28,57,127,51*7F
$GPGSV,3,3,10,13,51,308,51,04,,,50*40
$GLGSV,2,1,07,66,79,136,,76,64,026,,77,47,229,,67,42,325,*65
$GLGSV,2,2,07,75,19,038,,65,16,144,,84,03,008,*51
$GPGSA,A,3,07,08,09,15,,,,,,,,,4.5,1.5,4.2*33
$GNGSA,A,3,07,08,09,15,,,,,,,,,4.5,1.5,4.2*2D
$GNGSA,A,3,,,,,,,,,,,,,4.5,1.5,4.2*2F
$QZGSA,A,3,,,,,,,,,,,,,4.5,1.5,4.2*2D
$IMGSA,A,3,,,,,,,,,,,,,4.5,1.5,4.2*22
$GPRMC,110056.29,A,4155.821090,N,01236.686762,E,,,090219,,,A*5F
$GPGGA,110057.00,4155.821090,N,01236.686762,E,1,05,1.2,0.0,M,45.0,M,,*63
$GPGSV,3,1,10,07,24,059,50,15,18,301,50,09,06,113,49,08,06,044,49*7A
$GPGSV,3,2,10,21,02,321,,05,58,232,51,30,57,050,51,28,57,127,51*7F
$GPGSV,3,3,10,13,51,308,51,04,,,50*40
$GLGSV,2,1,07,66,79,136,,76,64,026,,77,47,229,,67,42,325,*65
$GLGSV,2,2,07,75,19,038,,65,16,144,,84,03,008,*51
$GPGSA,A,3,07,08,09,15,,,,,,,,,4.5,1.5,4.2*33
$GNGSA,A,3,07,08,09,15,,,,,,,,,4.5,1.5,4.2*2D
$GNGSA,A,3,,,,,,,,,,,,,4.5,1.5,4.2*2F
$QZGSA,A,3,,,,,,,,,,,,,4.5,1.5,4.2*2D
$IMGSA,A,3,,,,,,,,,,,,,4.5,1.5,4.2*22
$GPRMC,110057.00,A,4155.821090,N,01236.686762,E,,,090219,,,A*55
$GPGGA,110058.00,4155.821090,N,01236.686762,E,1,05,1.2,0.0,M,45.0,M,,*6C
$GPGSV,3,1,10,07,24,059,50,15,18,301,50,09,06,113,49,08,06,044,49*7A
$GPGSV,3,2,10,21,02,321,,05,58,232,51,30,57,050,51,28,57,127,51*7F
$GPGSV,3,3,10,13,51,308,51,04,,,50*40
$GLGSV,2,1,07,66,79,136,,76,64,026,,77,47,229,,67,42,325,*65
$GLGSV,2,2,07,75,19,038,,65,16,144,,84,03,008,*51
$GPGSA,A,3,07,08,09,15,,,,,,,,,4.5,1.5,4.2*33
$GNGSA,A,3,07,08,09,15,,,,,,,,,4.5,1.5,4.2*2D
$GNGSA,A,3,,,,,,,,,,,,,4.5,1.5,4.2*2F
$QZGSA,A,3,,,,,,,,,,,,,4.5,1.5,4.2*2D
$IMGSA,A,3,,,,,,,,,,,,,4.5,1.5,4.2*22
$GPRMC,110058.00,A,4155.821090,N,01236.686762,E,,,090219,,,A*5A
$GPGGA,110059.00,4155.821090,N,01236.686762,E,1,05,1.2,0.0,M,45.0,M,,*6D
$GPGSV,3,1,10,07,24,059,50,15,18,301,50,09,06,113,49,08,06,044,49*7A
$GPGSV,3,2,10,21,02,321,,05,58,232,51,30,57,050,51,28,57,126,51*7E
$GPGSV,3,3,10,13,51,308,51,04,,,50*40
$GLGSV,2,1,07,66,79,136,,76,64,026,,77,47,229,,67,42,325,*65
$GLGSV,2,2,07,75,19,038,,65,16,144,,84,03,008,*51
$GPGSA,A,3,07,08,09,15,,,,,,,,,4.5,1.5,4.2*33
$GNGSA,A,3,07,08,09,15,,,,,,,,,4.5,1.5,4.2*2D
$GNGSA,A,3,,,,,,,,,,,,,4.5,1.5,4.2*2F
$QZGSA,A,3,,,,,,,,,,,,,4.5,1.5,4.2*2D
$IMGSA,A,3,,,,,,,,,,,,,4.5,1.5,4.2*22
$GPRMC,110059.00,A,4155.821090,N,01236.686762,E,,,090219,,,A*5B
$GPGGA,110100.00,4155.821090,N,01236.686762,E,1,05,1.2,0.0,M,45.0,M,,*60
$GPGSV,3,1,10,07,24,059,50,15,18,301,50,09,06,113,49,08,06,044,49*7A
$GPGSV,3,2,10,21,02,321,,05,58,232,51,30,57,050,51,28,57,126,52*7D
$GPGSV,3,3,10,13,51,308,51,04,,,50*40
$GLGSV,2,1,07,66,79,136,,76,64,026,,77,47,229,,67,42,325,*65
$GLGSV,2,2,07,75,19,038,,65,16,144,,84,03,008,*51
$GPGSA,A,3,07,08,09,15,,,,,,,,,4.5,1.5,4.2*33
$GNGSA,A,3,07,08,09,15,,,,,,,,,4.5,1.5,4.2*2D
$GNGSA,A,3,,,,,,,,,,,,,4.5,1.5,4.2*2F
$QZGSA,A,3,,,,,,,,,,,,,4.5,1.5,4.2*2D
$IMGSA,A,3,,,,,,,,,,,,,4.5,1.5,4.2*22
$GPRMC,110100.00,A,4155.821090,N,01236.686762,E,,,090219,,,A*56
$GPGGA,110101.00,4155.821090,N,01236.686762,E,1,05,1.2,0.0,M,45.0,M,,*61
$GPGSV,3,1,10,07,24,059,50,15,18,301,50,09,06,113,49,08,06,044,49*7A
$GPGSV,3,2,10,21,02,321,,05,58,232,51,30,57,050,51,28,57,126,52*7D
$GPGSV,3,3,10,13,51,308,51,04,,,50*40
$GLGSV,2,1,07,66,79,136,,76,64,026,,77,47,229,,67,42,325,*65
$GLGSV,2,2,07,75,19,038,,65,16,144,,84,03,008,*51
$GPGSA,A,3,07,08,09,15,,,,,,,,,4.5,1.5,4.2*33
$GNGSA,A,3,07,08,09,15,,,,,,,,,4.5,1.5,4.2*2D
$GNGSA,A,3,,,,,,,,,,,,,4.5,1.5,4.2*2F
$QZGSA,A,3,,,,,,,,,,,,,4.5,1.5,4.2*2D
$IMGSA,A,3,,,,,,,,,,,,,4.5,1.5,4.2*22
$GPRMC,110101.00,A,4155.821090,N,01236.686762,E,,,090219,,,A*57
$GPGGA,110102.00,4155.815379,N,01236.687028,E,1,05,1.2,0.0,M,45.0,M,,*69
$GPGSV,3,1,10,07,24,059,50,15,18,301,50,09,06,113,49,08,06,044,49*7A
$GPGSV,3,2,10,21,02,321,,05,58,232,51,30,57,050,51,28,57,126,52*7D
$GPGSV,3,3,10,13,51,308,51,04,,,50*40
$GLGSV,2,1,07,66,79,136,,76,64,026,,77,47,229,,67,42,325,*65
$GLGSV,2,2,07,75,19,038,,65,16,144,,84,03,008,*51
$GPGSA,A,3,07,08,09,15,,,,,,,,,4.5,1.5,4.2*33
$GNGSA,A,3,07,08,09,15,,,,,,,,,4.5,1.5,4.2*2D
$GNGSA,A,3,,,,,,,,,,,,,4.5,1.5,4.2*2F
$QZGSA,A,3,,,,,,,,,,,,,4.5,1.5,4.2*2D
$IMGSA,A,3,,,,,,,,,,,,,4.5,1.5,4.2*22
$GPRMC,110102.00,A,4155.815379,N,01236.687028,E,,,090219,,,A*5F
$GPGGA,110103.00,4155.815379,N,01236.687028,E,1,05,1.2,0.0,M,45.0,M,,*68
$GPGSV,3,1,10,07,24,059,51,15,18,301,50,09,06,113,49,08,06,044,49*7B
$GPGSV,3,2,10,21,02,321,,05,58,232,51,30,57,050,51,28,57,126,52*7D
$GPGSV,3,3,10,13,51,309,51,04,,,50*41
$GLGSV,2,1,07,66,79,136,,76,64,026,,77,47,229,,67,42,325,*65
$GLGSV,2,2,07,75,19,038,,65,16,144,,84,03,008,*51
$GPGSA,A,3,07,08,09,15,,,,,,,,,4.5,1.5,4.2*33
$GNGSA,A,3,07,08,09,15,,,,,,,,,4.5,1.5,4.2*2D
$GNGSA,A,3,,,,,,,,,,,,,4.5,1.5,4.2*2F
$QZGSA,A,3,,,,,,,,,,,,,4.5,1.5,4.2*2D
$IMGSA,A,3,,,,,,,,,,,,,4.5,1.5,4.2*22
$GPRMC,110103.00,A,4155.815379,N,01236.687028,E,,,090219,,,A*5E
$GPGGA,110104.00,4155.815379,N,01236.687028,E,1,05,1.2,0.0,M,45.0,M,,*6F
$GPGSV,3,1,10,07,24,059,51,15,18,301,50,08,06,044,49,09,05,113,49*78
$GPGSV,3,2,10,21,02,321,,05,58,232,51,30,57,050,52,28,57,126,52*7E
$GPGSV,3,3,10,13,51,309,52,04,,,50*42
$GLGSV,2,1,07,66,79,136,,76,64,026,,77,47,229,,67,42,325,*65
$GLGSV,2,2,07,75,19,038,,65,16,144,,84,03,008,*51
$GPGSA,A,3,07,08,09,15,,,,,,,,,4.5,1.5,4.2*33
$GNGSA,A,3,07,08,09,15,,,,,,,,,4.5,1.5,4.2*2D
$GNGSA,A,3,,,,,,,,,,,,,4.5,1.5,4.2*2F
$QZGSA,A,3,,,,,,,,,,,,,4.5,1.5,4.2*2D
$IMGSA,A,3,,,,,,,,,,,,,4.5,1.5,4.2*22
$GPRMC,110104.00,A,4155.815379,N,01236.687028,E,,,090219,,,A*59
$GPGGA,110105.00,4155.815379,N,01236.687028,E,1,05,1.2,0.0,M,45.0,M,,*6E
$GPGSV,3,1,10,07,24,059,51,15,18,301,50,08,06,043,49,09,05,113,49*7F
$GPGSV,3,2,10,21,02,321,,05,58,232,52,30,57,050,52,28,57,126,52*7D
$GPGSV,3,3,10,13,51,309,52,04,,,50*42
$GLGSV,2,1,07,66,79,136,,76,64,026,,77,47,229,,67,42,325,*65
$GLGSV,2,2,07,75,19,038,,65,16,144,,84,03,008,*51
$GPGSA,A,3,07,08,09,15,,,,,,,,,4.5,1.5,4.2*33
$GNGSA,A,3,07,08,09,15,,,,,,,,,4.5,1.5,4.2*2D
$GNGSA,A,3,,,,,,,,,,,,,4.5,1.5,4.2*2F
$QZGSA,A,3,,,,,,,,,,,,,4.5,1.5,4.2*2D
$IMGSA,A,3,,,,,,,,,,,,,4.5,1.5,4.2*22
$GPRMC,110105.00,A,4155.815379,N,01236.687028,E,,,090219,,,A*58
$GPGGA,110106.00,4155.815379,N,01236.687028,E,1,05,1.2,0.0,M,45.0,M,,*6D
$GPGSV,3,1,10,07,24,059,51,15,18,301,50,08,06,043,49,09,05,113,49*7F
$GPGSV,3,2,10,21,02,321,,05,58,232,52,30,57,050,51,28,57,126,52*7E
$GPGSV,3,3,10,13,51,309,52,04,,,50*42
$GLGSV,2,1,07,66,79,136,,76,64,026,,77,47,229,,67,43,325,*64
$GLGSV,2,2,07,75,19,038,,65,16,144,,84,03,008,*51
$GPGSA,A,3,07,08,09,15,,,,,,,,,4.5,1.5,4.2*33
$GNGSA,A,3,07,08,09,15,,,,,,,,,4.5,1.5,4.2*2D
$GNGSA,A,3,,,,,,,,,,,,,4.5,1.5,4.2*2F
$QZGSA,A,3,,,,,,,,,,,,,4.5,1.5,4.2*2D
$IMGSA,A,3,,,,,,,,,,,,,4.5,1.5,4.2*22
$GPRMC,110106.00,A,4155.815379,N,01236.687028,E,,,090219,,,A*5B
$GPGGA,110107.00,4155.815379,N,01236.687028,E,1,05,1.6,0.0,M,45.0,M,,*68
$GPGSV,3,1,10,07,24,059,51,15,18,301,50,08,06,043,49,09,05,113,49*7F
$GPGSV,3,2,10,21,02,321,,05,58,232,52,30,57,050,51,28,57,126,52*7E
$GPGSV,3,3,10,13,51,309,52,04,,,50*42
$GLGSV,2,1,07,66,79,136,,76,64,026,,77,47,229,,67,43,325,*64
$GLGSV,2,2,07,75,19,038,,65,16,144,,84,03,008,*51
$GPGSA,A,3,07,08,09,15,,,,,,,,,4.5,1.5,4.2*33
$GNGSA,A,3,07,08,09,15,,,,,,,,,4.5,1.5,4.2*2D
$GNGSA,A,3,,,,,,,,,,,,,4.5,1.5,4.2*2F
$QZGSA,A,3,,,,,,,,,,,,,4.5,1.5,4.2*2D
$IMGSA,A,3,,,,,,,,,,,,,4.5,1.5,4.2*22
$GPRMC,110107.00,A,4155.815379,N,01236.687028,E,,,090219,,,A*5A
$GPGGA,110108.00,4155.815379,N,01236.687028,E,1,05,1.6,0.0,M,45.0,M,,*67
$GPGSV,3,1,10,07,24,059,51,15,18,301,50,08,06,043,49,09,05,113,49*7F
$GPGSV,3,2,10,21,02,321,,05,58,232,52,30,57,050,51,28,57,126,52*7E
$GPGSV,3,3,10,13,51,309,52,04,,,50*42
$GLGSV,2,1,07,66,79,136,,76,64,026,,77,47,229,,67,43,325,*64
$GLGSV,2,2,07,75,19,038,,65,16,144,,84,03,008,*51
$GPGSA,A,3,07,08,09,15,,,,,,,,,4.5,1.5,4.2*33
$GNGSA,A,3,07,08,09,15,,,,,,,,,4.5,1.5,4.2*2D
$GNGSA,A,3,,,,,,,,,,,,,4.5,1.5,4.2*2F
$QZGSA,A,3,,,,,,,,,,,,,4.5,1.5,4.2*2D
$IMGSA,A,3,,,,,,,,,,,,,4.5,1.5,4.2*22
$GPRMC,110108.00,A,4155.815379,N,01236.687028,E,,,090219,,,A*55
$GPGGA,110109.00,4155.809324,N,01236.687566,E,1,05,1.6,0.0,M,45.0,M,,*6C
$GPGSV,3,1,10,07,24,059,51,15,18,301,50,08,06,043,49,09,05,113,49*7F
$GPGSV,3,2,10,21,02,321,,05,58,232,52,30,57,050,52,28,57,126,52*7D
$GPGSV,3,3,10,13,51,309,51,04,,,51*40
$GLGSV,2,1,07,66,79,136,,76,64,026,,77,47,229,,67,43,325,*64
$GLGSV,2,2,07,75,19,038,,65,16,144,,84,03,008,*51
$GPGSA,A,3,07,08,09,15,,,,,,,,,4.5,1.5,4.2*33
$GNGSA,A,3,07,08,09,15,,,,,,,,,4.5,1.5,4.2*2D
$GNGSA,A,3,,,,,,,,,,,,,4.5,1.5,4.2*2F
$QZGSA,A,3,,,,,,,,,,,,,4.5,1.5,4.2*2D
$IMGSA,A,3,,,,,,,,,,,,,4.5,1.5,4.2*22
$GPRMC,110109.00,A,4155.809324,N,01236.687566,E,,,090219,,,A*5E
$GPGGA,110110.00,4155.809324,N,01236.687566,E,1,05,1.6,0.0,M,45.0,M,,*64
$GPGSV,3,1,10,07,24,059,51,15,18,301,50,08,06,043,49,09,05,113,49*7F
$GPGSV,3,2,10,21,02,321,,05,58,232,52,30,57,050,52,28,57,126,52*7D
$GPGSV,3,3,10,13,51,309,52,04,,,51*43
$GLGSV,2,1,07,66,79,136,,76,64,026,,77,47,229,,67,43,325,*64
$GLGSV,2,2,07,75,19,038,,65,16,144,,84,03,008,*51
$GPGSA,A,3,07,08,09,15,,,,,,,,,4.5,1.5,4.2*33
$GNGSA,A,3,07,08,09,15,,,,,,,,,4.5,1.5,4.2*2D
$GNGSA,A,3,,,,,,,,,,,,,4.5,1.5,4.2*2F
$QZGSA,A,3,,,,,,,,,,,,,4.5,1.5,4.2*2D
$IMGSA,A,3,,,,,,,,,,,,,4.5,1.5,4.2*22
$GPRMC,110110.00,A,4155.809324,N,01236.687566,E,,,090219,,,A*56
$GPGGA,110111.00,4155.803986,N,01236.688537,E,1,05,3.2,0.0,M,45.0,M,,*60
$GPGSV,3,1,10,07,24,059,51,15,18,301,50,08,06,043,49,09,05,113,49*7F
$GPGSV,3,2,10,21,02,321,,05,58,232,52,30,57,050,51,28,57,126,52*7E
$GPGSV,3,3,10,13,51,309,52,04,,,51*43
$GLGSV,2,1,07,66,79,136,,76,64,026,,77,47,229,,67,43,325,*64
$GLGSV,2,2,07,75,19,038,,65,16,144,,84,03,008,*51
$GPGSA,A,3,07,08,09,15,,,,,,,,,4.5,1.5,4.2*33
$GNGSA,A,3,07,08,09,15,,,,,,,,,4.5,1.5,4.2*2D
$GNGSA,A,3,,,,,,,,,,,,,4.5,1.5,4.2*2F
$QZGSA,A,3,,,,,,,,,,,,,4.5,1.5,4.2*2D
$IMGSA,A,3,,,,,,,,,,,,,4.5,1.5,4.2*22
$GPRMC,110111.00,A,4155.803986,N,01236.688537,E,002.0,,090219,,,A*78
$GPGGA,110112.00,4155.803986,N,01236.688537,E,1,05,3.2,0.0,M,45.0,M,,*63
$GPGSV,3,1,10,07,24,059,51,15,18,301,50,08,06,043,49,09,05,113,49*7F
$GPGSV,3,2,10,21,02,321,,05,58,232,52,30,57,050,51,28,57,126,52*7E
$GPGSV,3,3,10,13,51,309,52,04,,,51*43
$GLGSV,2,1,07,66,79,136,,76,64,026,,77,47,229,,67,43,325,*64
$GLGSV,2,2,07,75,19,038,,65,16,144,,84,03,008,*51
$GPGSA,A,3,07,08,09,15,,,,,,,,,4.5,1.5,4.2*33
$GNGSA,A,3,07,08,09,15,,,,,,,,,4.5,1.5,4.2*2D
$GNGSA,A,3,,,,,,,,,,,,,4.5,1.5,4.2*2F
$QZGSA,A,3,,,,,,,,,,,,,4.5,1.5,4.2*2D
$IMGSA,A,3,,,,,,,,,,,,,4.5,1.5,4.2*22
$GPRMC,110112.00,A,4155.803986,N,01236.688537,E,000.0,,090219,,,A*79
$GPGGA,110113.00,4155.796955,N,01236.689190,E,1,05,3.2,0.0,M,45.0,M,,*67
$GPGSV,3,1,10,07,24,059,50,15,18,301,50,08,06,043,49,09,05,113,49*7E
$GPGSV,3,2,10,21,02,321,,05,58,232,51,30,57,050,51,28,57,126,51*7E
$GPGSV,3,3,10,13,51,309,52,04,,,51*43
$GLGSV,2,1,07,66,79,136,,76,64,026,,77,47,229,,67,43,325,*64
$GLGSV,2,2,07,75,19,038,,65,16,144,,84,03,008,*51
$GPGSA,A,3,07,08,09,15,,,,,,,,,4.5,1.5,4.2*33
$GNGSA,A,3,07,08,09,15,,,,,,,,,4.5,1.5,4.2*2D
$GNGSA,A,3,,,,,,,,,,,,,4.5,1.5,4.2*2F
$QZGSA,A,3,,,,,,,,,,,,,4.5,1.5,4.2*2D
$IMGSA,A,3,,,,,,,,,,,,,4.5,1.5,4.2*22
$GPRMC,110113.00,A,4155.796955,N,01236.689190,E,004.1,,090219,,,A*78
$GPGGA,110114.00,4155.796955,N,01236.689190,E,1,05,3.2,0.0,M,45.0,M,,*60
$GPGSV,3,1,10,07,24,059,50,15,18,301,50,08,06,043,49,09,05,113,49*7E
$GPGSV,3,2,10,21,02,321,,05,58,232,51,30,57,050,51,28,57,126,51*7E
$GPGSV,3,3,10,13,51,309,52,04,,,50*42
$GLGSV,2,1,07,66,79,136,,76,64,026,,77,47,229,,67,43,325,*64
$GLGSV,2,2,07,75,19,038,,65,16,144,,84,03,008,*51
$GPGSA,A,3,07,08,09,15,,,,,,,,,4.5,1.5,4.2*33
$GNGSA,A,3,07,08,09,15,,,,,,,,,4.5,1.5,4.2*2D
$GNGSA,A,3,,,,,,,,,,,,,4.5,1.5,4.2*2F
$QZGSA,A,3,,,,,,,,,,,,,4.5,1.5,4.2*2D
$IMGSA,A,3,,,,,,,,,,,,,4.5,1.5,4.2*22
$GPRMC,110114.00,A,4155.796955,N,01236.689190,E,,,090219,,,A*54
$GPGGA,110115.00,4155.788470,N,01236.688587,E,1,05,3.2,0.0,M,45.0,M,,*67
$GPGSV,3,1,10,07,24,059,50,15,18,301,50,08,06,043,49,09,05,113,49*7E
$GPGSV,3,2,10,21,02,321,,05,58,232,51,30,57,050,51,28,57,126,51*7E
$GPGSV,3,3,10,13,51,309,52,04,,,50*42
$GLGSV,2,1,07,66,79,136,,76,64,026,,77,47,229,,67,43,325,*64
$GLGSV,2,2,07,75,19,038,,65,16,144,,84,03,008,*51
$GPGSA,A,3,07,08,09,15,,,,,,,,,4.5,1.5,4.2*33
$GNGSA,A,3,07,08,09,15,,,,,,,,,4.5,1.5,4.2*2D
$GNGSA,A,3,,,,,,,,,,,,,4.5,1.5,4.2*2F
$QZGSA,A,3,,,,,,,,,,,,,4.5,1.5,4.2*2D
$IMGSA,A,3,,,,,,,,,,,,,4.5,1.5,4.2*22
$GPRMC,110115.00,A,4155.788470,N,01236.688587,E,001.0,,090219,,,A*7C
$GPGGA,110116.00,4155.788470,N,01236.688587,E,1,05,3.2,0.0,M,45.0,M,,*64
$GPGSV,3,1,10,07,24,059,50,15,18,301,50,08,06,043,49,09,05,113,49*7E
$GPGSV,3,2,10,21,02,321,,05,58,232,51,30,57,050,51,28,57,126,51*7E
$GPGSV,3,3,10,13,51,309,52,04,,,50*42
$GLGSV,2,1,07,66,79,136,,76,64,026,,77,47,229,,67,43,325,*64
$GLGSV,2,2,07,75,19,038,,65,16,144,,84,03,008,*51
$GPGSA,A,3,07,08,09,15,,,,,,,,,4.5,1.5,4.2*33
$GNGSA,A,3,07,08,09,15,,,,,,,,,4.5,1.5,4.2*2D
$GNGSA,A,3,,,,,,,,,,,,,4.5,1.5,4.2*2F
$QZGSA,A,3,,,,,,,,,,,,,4.5,1.5,4.2*2D
$IMGSA,A,3,,,,,,,,,,,,,4.5,1.5,4.2*22
$GPRMC,110116.00,A,4155.788470,N,01236.688587,E,,,090219,,,A*50
$GPGGA,110117.00,4155.783555,N,01236.689332,E,1,05,3.2,0.0,M,45.0,M,,*61
$GPGSV,3,1,10,07,24,059,50,15,18,301,50,08,06,043,49,09,05,113,49*7E
$GPGSV,3,2,10,21,02,321,,05,58,232,51,30,57,050,51,28,57,126,51*7E
$GPGSV,3,3,10,13,51,309,51,04,,,50*41
$GLGSV,2,1,07,66,79,136,,76,64,026,,77,47,229,,67,43,325,*64
$GLGSV,2,2,07,75,19,038,,65,16,144,,84,03,008,*51
$GPGSA,A,3,07,08,09,15,,,,,,,,,4.5,1.5,4.2*33
$GNGSA,A,3,07,08,09,15,,,,,,,,,4.5,1.5,4.2*2D
$GNGSA,A,3,,,,,,,,,,,,,4.5,1.5,4.2*2F
$QZGSA,A,3,,,,,,,,,,,,,4.5,1.5,4.2*2D
$IMGSA,A,3,,,,,,,,,,,,,4.5,1.5,4.2*22
$GPRMC,110117.00,A,4155.783555,N,01236.689332,E,002.0,,090219,,,A*79
$GPGGA,110118.00,4155.783555,N,01236.689332,E,1,05,3.2,0.0,M,45.0,M,,*6E
$GPGSV,3,1,10,07,24,059,50,15,18,301,50,08,06,043,49,09,05,113,49*7E
$GPGSV,3,2,10,21,02,321,,05,58,232,51,30,57,050,51,28,57,126,51*7E
$GPGSV,3,3,10,13,51,309,51,04,,,50*41
$GLGSV,2,1,07,66,79,136,,76,64,026,,77,47,229,,67,43,325,*64
$GLGSV,2,2,07,75,19,038,,65,16,144,,84,03,008,*51
$GPGSA,A,3,07,08,09,15,,,,,,,,,4.5,1.5,4.2*33
$GNGSA,A,3,07,08,09,15,,,,,,,,,4.5,1.5,4.2*2D
$GNGSA,A,3,,,,,,,,,,,,,4.5,1.5,4.2*2F
$QZGSA,A,3,,,,,,,,,,,,,4.5,1.5,4.2*2D
$IMGSA,A,3,,,,,,,,,,,,,4.5,1.5,4.2*22
$GPRMC,110118.00,A,4155.783555,N,01236.689332,E,,,090219,,,A*5A
$GPGGA,110119.00,4155.783555,N,01236.689332,E,1,05,3.2,0.0,M,45.0,M,,*6F
$GPGSV,3,1,10,07,24,059,50,15,18,301,50,08,06,043,49,09,05,113,49*7E
$GPGSV,3,2,10,21,02,321,,05,58,232,51,30,57,050,51,28,57,126,51*7E
$GPGSV,3,3,10,13,51,309,51,04,,,50*41
$GLGSV,2,1,07,66,79,136,,76,64,026,,77,47,229,,67,43,325,*64
$GLGSV,2,2,07,75,19,038,,65,16,144,,84,03,008,*51
$GPGSA,A,3,07,08,09,15,,,,,,,,,4.5,1.5,4.2*33
$GNGSA,A,3,07,08,09,15,,,,,,,,,4.5,1.5,4.2*2D
$GNGSA,A,3,,,,,,,,,,,,,4.5,1.5,4.2*2F
$QZGSA,A,3,,,,,,,,,,,,,4.5,1.5,4.2*2D
$IMGSA,A,3,,,,,,,,,,,,,4.5,1.5,4.2*22
$GPRMC,110119.00,A,4155.783555,N,01236.689332,E,,,090219,,,A*5B
$GPGGA,110120.00,4155.777378,N,01236.690234,E,1,05,3.2,0.0,M,45.0,M,,*68
$GPGSV,3,1,10,07,24,059,50,15,18,301,50,08,06,043,49,09,05,113,49*7E
$GPGSV,3,2,10,21,02,321,,05,58,232,51,30,57,050,51,28,57,126,51*7E
$GPGSV,3,3,10,13,51,309,51,04,,,50*41
$GLGSV,2,1,07,66,79,136,,76,64,026,,77,47,229,,67,43,325,*64
$GLGSV,2,2,07,75,19,038,,65,16,144,,84,03,008,*51
$GPGSA,A,3,07,08,09,15,,,,,,,,,4.5,1.5,4.2*33
$GNGSA,A,3,07,08,09,15,,,,,,,,,4.5,1.5,4.2*2D
$GNGSA,A,3,,,,,,,,,,,,,4.5,1.5,4.2*2F
$QZGSA,A,3,,,,,,,,,,,,,4.5,1.5,4.2*2D
$IMGSA,A,3,,,,,,,,,,,,,4.5,1.5,4.2*22
$GPRMC,110120.00,A,4155.777378,N,01236.690234,E,001.0,,090219,,,A*73
$GPGGA,110121.00,4155.774467,N,01236.690651,E,1,05,3.2,0.0,M,45.0,M,,*64
$GPGSV,3,1,10,07,24,059,50,15,18,301,50,08,06,043,49,09,05,113,49*7E
$GPGSV,3,2,10,21,02,321,,05,58,232,51,30,57,050,51,28,57,126,51*7E
$GPGSV,3,3,10,13,51,309,51,04,,,50*41
$GLGSV,2,1,07,66,79,136,,76,64,026,,77,47,229,,67,43,325,*64
$GLGSV,2,2,07,75,19,038,,65,16,144,,84,03,008,*51
$GPGSA,A,3,07,08,09,15,,,,,,,,,4.5,1.5,4.2*33
$GNGSA,A,3,07,08,09,15,,,,,,,,,4.5,1.5,4.2*2D
$GNGSA,A,3,,,,,,,,,,,,,4.5,1.5,4.2*2F
$QZGSA,A,3,,,,,,,,,,,,,4.5,1.5,4.2*2D
$IMGSA,A,3,,,,,,,,,,,,,4.5,1.5,4.2*22
$GPRMC,110121.00,A,4155.774467,N,01236.690651,E,001.8,,090219,,,A*77
$GPGGA,110122.00,4155.771592,N,01236.690897,E,1,05,3.2,0.0,M,45.0,M,,*6D
$GPGSV,3,1,10,07,24,059,50,15,18,301,50,08,06,043,49,09,05,113,49*7E
$GPGSV,3,2,10,21,02,321,,05,58,231,51,30,57,050,51,28,57,126,51*7D
$GPGSV,3,3,10,13,51,309,51,04,,,50*41
$GLGSV,2,1,07,66,79,136,,76,64,026,,77,47,229,,67,43,325,*64
$GLGSV,2,2,07,75,19,038,,65,16,144,,84,03,008,*51
$GPGSA,A,3,07,08,09,15,,,,,,,,,4.5,1.5,4.2*33
$GNGSA,A,3,07,08,09,15,,,,,,,,,4.5,1.5,4.2*2D
$GNGSA,A,3,,,,,,,,,,,,,4.5,1.5,4.2*2F
$QZGSA,A,3,,,,,,,,,,,,,4.5,1.5,4.2*2D
$IMGSA,A,3,,,,,,,,,,,,,4.5,1.5,4.2*22
$GPRMC,110122.00,A,4155.771592,N,01236.690897,E,,,090219,,,A*59
$GPGGA,110123.00,4155.768690,N,01236.691504,E,1,05,3.2,0.0,M,45.0,M,,*63
$GPGSV,3,1,10,07,24,059,50,15,18,301,50,08,06,043,49,09,05,113,49*7E
$GPGSV,3,2,10,21,02,321,,05,58,231,51,30,57,050,51,28,57,126,51*7D
$GPGSV,3,3,10,13,52,309,51,04,,,50*42
$GLGSV,2,1,07,66,79,136,,76,64,026,,77,47,229,,67,43,325,*64
$GLGSV,2,2,07,75,19,038,,65,16,144,,84,03,008,*51
$GPGSA,A,3,07,08,09,15,,,,,,,,,4.5,1.5,4.2*33
$GNGSA,A,3,07,08,09,15,,,,,,,,,4.5,1.5,4.2*2D
$GNGSA,A,3,,,,,,,,,,,,,4.5,1.5,4.2*2F
$QZGSA,A,3,,,,,,,,,,,,,4.5,1.5,4.2*2D
$IMGSA,A,3,,,,,,,,,,,,,4.5,1.5,4.2*22
$GPRMC,110123.00,A,4155.768690,N,01236.691504,E,006.3,,090219,,,A*7C
$GPGGA,110124.00,4155.768189,N,01236.688964,E,1,05,3.2,0.0,M,45.0,M,,*69
$GPGSV,3,1,10,07,24,059,50,15,18,301,50,08,06,043,49,09,05,113,49*7E
$GPGSV,3,2,10,21,02,321,,05,58,231,51,30,57,050,51,28,57,126,51*7D
$GPGSV,3,3,10,13,52,309,51,04,,,50*42
$GLGSV,2,1,07,66,79,136,,76,64,026,,77,47,229,,67,43,325,*64
$GLGSV,2,2,07,75,19,038,,65,16,144,,84,03,008,*51
$GPGSA,A,3,07,08,09,15,,,,,,,,,4.5,1.5,4.2*33
$GNGSA,A,3,07,08,09,15,,,,,,,,,4.5,1.5,4.2*2D
$GNGSA,A,3,,,,,,,,,,,,,4.5,1.5,4.2*2F
$QZGSA,A,3,,,,,,,,,,,,,4.5,1.5,4.2*2D
$IMGSA,A,3,,,,,,,,,,,,,4.5,1.5,4.2*22
$GPRMC,110124.00,A,4155.768189,N,01236.688964,E,004.1,,090219,,,A*76
$GPGGA,110125.00,4155.765808,N,01236.690499,E,1,05,3.2,0.0,M,45.0,M,,*63
$GPGSV,3,1,10,07,24,059,50,15,18,301,50,08,06,043,49,09,05,113,49*7E
$GPGSV,3,2,10,21,02,321,,05,58,231,51,30,57,050,51,28,57,126,51*7D
$GPGSV,3,3,10,13,52,309,51,04,,,50*42
$GLGSV,2,1,07,66,79,136,,76,64,026,,77,47,229,,67,43,325,*64
$GLGSV,2,2,07,75,19,038,,65,16,144,,84,03,008,*51
$GPGSA,A,3,07,08,09,15,,,,,,,,,4.5,1.5,4.2*33
$GNGSA,A,3,07,08,09,15,,,,,,,,,4.5,1.5,4.2*2D
$GNGSA,A,3,,,,,,,,,,,,,4.5,1.5,4.2*2F
$QZGSA,A,3,,,,,,,,,,,,,4.5,1.5,4.2*2D
$IMGSA,A,3,,,,,,,,,,,,,4.5,1.5,4.2*22
$GPRMC,110125.00,A,4155.765808,N,01236.690499,E,004.3,,090219,,,A*7E
$GPGGA,110126.00,4155.764475,N,01236.689517,E,1,05,1.2,0.0,M,45.0,M,,*6A
$GPGSV,3,1,10,07,24,059,50,15,18,301,50,08,06,043,49,09,05,113,49*7E
$GPGSV,3,2,10,21,02,321,,05,58,231,51,30,57,050,51,28,57,126,51*7D
$GPGSV,3,3,10,13,52,309,51,04,,,50*42
$GLGSV,2,1,07,66,79,136,,76,64,026,,77,47,229,,67,43,325,*64
$GLGSV,2,2,07,75,19,038,,65,16,144,,84,03,008,*51
$GPGSA,A,3,07,08,09,15,,,,,,,,,4.5,1.5,4.2*33
$GNGSA,A,3,07,08,09,15,,,,,,,,,4.5,1.5,4.2*2D
$GNGSA,A,3,,,,,,,,,,,,,4.5,1.5,4.2*2F
$QZGSA,A,3,,,,,,,,,,,,,4.5,1.5,4.2*2D
$IMGSA,A,3,,,,,,,,,,,,,4.5,1.5,4.2*22
$GPRMC,110126.00,A,4155.764475,N,01236.689517,E,004.6,,090219,,,A*70
$GPGGA,110127.00,4155.765234,N,01236.688689,E,1,05,1.2,0.0,M,45.0,M,,*6C
$GPGSV,3,1,10,07,24,059,50,15,18,301,50,08,06,043,49,09,05,113,49*7E
$GPGSV,3,2,10,21,02,321,,28,58,126,51,05,58,231,51,30,57,050,51*72
$GPGSV,3,3,10,13,52,309,51,04,,,50*42
$GLGSV,2,1,07,66,79,137,,76,64,026,,77,47,229,,67,43,325,*65
$GLGSV,2,2,07,75,19,038,,65,16,144,,84,03,008,*51
$GPGSA,A,3,07,08,09,15,,,,,,,,,4.5,1.5,4.2*33
$GNGSA,A,3,07,08,09,15,,,,,,,,,4.5,1.5,4.2*2D
$GNGSA,A,3,,,,,,,,,,,,,4.5,1.5,4.2*2F
$QZGSA,A,3,,,,,,,,,,,,,4.5,1.5,4.2*2D
$IMGSA,A,3,,,,,,,,,,,,,4.5,1.5,4.2*22
$GPRMC,110127.00,A,4155.765234,N,01236.688689,E,004.7,164.1,090219,,,A*5B
$GPGGA,110128.00,4155.764222,N,01236.690029,E,1,05,3.2,0.0,M,45.0,M,,*62
$GPGSV,3,1,10,07,24,059,50,15,18,301,50,08,06,043,49,09,05,113,49*7E
$GPGSV,3,2,10,21,02,321,,28,58,126,51,05,58,231,51,30,57,050,51*72
$GPGSV,3,3,10,13,52,309,51,04,,,50*42
$GLGSV,2,1,07,66,79,137,,76,64,026,,77,47,229,,67,43,325,*65
$GLGSV,2,2,07,75,19,038,,65,16,144,,84,03,008,*51
$GPGSA,A,3,07,08,09,15,,,,,,,,,4.5,1.5,4.2*33
$GNGSA,A,3,07,08,09,15,,,,,,,,,4.5,1.5,4.2*2D
$GNGSA,A,3,,,,,,,,,,,,,4.5,1.5,4.2*2F
$QZGSA,A,3,,,,,,,,,,,,,4.5,1.5,4.2*2D
$IMGSA,A,3,,,,,,,,,,,,,4.5,1.5,4.2*22
$GPRMC,110128.00,A,4155.764222,N,01236.690029,E,004.5,090.7,090219,,,A*59
$GPGGA,110129.00,4155.764311,N,01236.690839,E,1,05,3.2,0.0,M,45.0,M,,*6B
$GPGSV,3,1,10,07,24,059,50,15,18,301,50,08,06,043,49,09,05,113,49*7E
$GPGSV,3,2,10,21,02,321,,28,58,126,51,05,58,231,51,30,57,050,51*72
$GPGSV,3,3,10,13,52,309,51,04,,,50*42
$GLGSV,2,1,07,66,79,137,,76,64,026,,77,47,229,,67,43,325,*65
$GLGSV,2,2,07,75,19,038,,65,16,144,,84,03,008,*51
$GPGSA,A,3,07,08,09,15,,,,,,,,,4.5,1.5,4.2*33
$GNGSA,A,3,07,08,09,15,,,,,,,,,4.5,1.5,4.2*2D
$GNGSA,A,3,,,,,,,,,,,,,4.5,1.5,4.2*2F
$QZGSA,A,3,,,,,,,,,,,,,4.5,1.5,4.2*2D
$IMGSA,A,3,,,,,,,,,,,,,4.5,1.5,4.2*22
$GPRMC,110129.00,A,4155.764311,N,01236.690839,E,004.5,226.8,090219,,,A*50
$GPGGA,110130.00,4155.763658,N,01236.689124,E,1,05,3.2,0.0,M,45.0,M,,*61
$GPGSV,3,1,10,07,24,059,50,15,18,301,50,08,06,043,49,09,05,113,49*7E
$GPGSV,3,2,10,21,02,321,,28,58,126,51,05,58,231,51,30,57,050,51*72
$GPGSV,3,3,10,13,52,309,51,04,,,50*42
$GLGSV,2,1,07,66,79,137,,76,64,026,,77,47,229,,67,43,325,*65
$GLGSV,2,2,07,75,19,038,,65,16,144,,84,03,008,*51
$GPGSA,A,3,07,08,09,15,,,,,,,,,4.5,1.5,4.2*33
$GNGSA,A,3,07,08,09,15,,,,,,,,,4.5,1.5,4.2*2D
$GNGSA,A,3,,,,,,,,,,,,,4.5,1.5,4.2*2F
$QZGSA,A,3,,,,,,,,,,,,,4.5,1.5,4.2*2D
$IMGSA,A,3,,,,,,,,,,,,,4.5,1.5,4.2*22
$GPRMC,110130.00,A,4155.763658,N,01236.689124,E,004.5,264.0,090219,,,A*54
$GPGGA,110131.00,4155.770270,N,01236.688233,E,1,06,3.2,0.0,M,45.0,M,,*6B
$GPGSV,3,1,10,07,24,059,50,15,18,301,50,08,06,043,49,09,05,113,49*7E
$GPGSV,3,2,10,21,02,321,,28,58,126,51,05,58,231,51,30,57,050,51*72
$GPGSV,3,3,10,13,52,309,51,04,,,50*42
$GLGSV,2,1,07,66,79,137,,76,64,026,,77,47,229,,67,43,325,*65
$GLGSV,2,2,07,75,19,038,,65,16,144,,84,03,008,*51
$GPGSA,A,3,07,08,09,15,28,,,,,,,,13.8,7.8,11.4*3B
$GNGSA,A,3,07,08,09,15,28,,,,,,,,13.8,7.8,11.4*25
$GNGSA,A,3,,,,,,,,,,,,,13.8,7.8,11.4*2D
$QZGSA,A,3,,,,,,,,,,,,,13.8,7.8,11.4*2F
$IMGSA,A,3,,,,,,,,,,,,,13.8,7.8,11.4*20
$GPRMC,110131.00,A,4155.770270,N,01236.688233,E,,,090219,,,A*5C
$GPGGA,110132.00,4155.771408,N,01236.688508,E,1,06,3.2,0.0,M,45.0,M,,*6F
$GPGSV,3,1,10,28,58,126,51,07,24,059,50,15,18,301,50,08,06,043,49*7A
$GPGSV,3,2,10,09,05,113,49,21,02,321,,05,58,231,52,30,57,050,52*76
$GPGSV,3,3,10,13,52,309,51,04,,,50*42
$GLGSV,2,1,07,66,79,137,,76,64,026,,77,47,229,,67,43,325,*65
$GLGSV,2,2,07,75,19,038,,65,16,144,,84,03,008,*51
$GPGSA,A,3,07,08,09,15,28,,,,,,,,13.9,7.8,11.4*3A
$GNGSA,A,3,07,08,09,15,28,,,,,,,,13.9,7.8,11.4*24
$GNGSA,A,3,,,,,,,,,,,,,13.9,7.8,11.4*2C
$QZGSA,A,3,,,,,,,,,,,,,13.9,7.8,11.4*2E
$IMGSA,A,3,,,,,,,,,,,,,13.9,7.8,11.4*21
$GPRMC,110132.00,A,4155.771408,N,01236.688508,E,,,090219,,,A*58
$GPGGA,110133.00,4155.771345,N,01236.688179,E,1,06,3.2,0.0,M,45.0,M,,*62
