$GPGGA,120638.53,,,,,0,00,999.9,,M,,M,,*6E
$GPGSV,3,1,10,28,57,063,,15,47,306,,30,30,068,,05,30,203,*7C
$GPGSV,3,2,10,17,19,124,,24,19,270,,19,06,149,,20,05,327,*78
$GPGSV,3,3,10,07,00,076,,13,81,348,*7A
$GLGSV,2,1,08,68,73,281,,78,72,308,,67,39,168,,77,37,038,*65
$GLGSV,2,2,08,79,28,246,,69,26,327,,86,09,029,,87,06,082,*6B
$GPGSA,A,1,,,,,,,,,,,,,140.0,99.0,99.0*35
$GNGSA,A,1,,,,,,,,,,,,,140.0,99.0,99.0*2B
$GNGSA,A,1,,,,,,,,,,,,,140.0,99.0,99.0*2B
$QZGSA,A,1,,,,,,,,,,,,,140.0,99.0,99.0*29
$IMGSA,A,1,,,,,,,,,,,,,140.0,99.0,99.0*26
$GPRMC,120638.53,V,,,,,,,100219,,,N*7E
$GPGGA,120639.53,,,,,0,00,999.9,,M,,M,,*6F
$GPGSV,3,1,10,28,57,063,,15,47,306,,30,30,068,,05,30,203,*7C
$GPGSV,3,2,10,17,19,124,,24,19,270,,19,06,149,,20,05,327,*78
$GPGSV,3,3,10,07,00,076,,13,81,348,*7A
$GLGSV,2,1,08,68,73,281,,78,72,308,,67,39,168,,77,37,038,*65
$GLGSV,2,2,08,79,28,246,,69,26,327,,86,09,029,,87,06,082,*6B
$GPGSA,A,1,,,,,,,,,,,,,140.0,99.0,99.0*35
$GNGSA,A,1,,,,,,,,,,,,,140.0,99.0,99.0*2B
$GNGSA,A,1,,,,,,,,,,,,,140.0,99.0,99.0*2B
$QZGSA,A,1,,,,,,,,,,,,,140.0,99.0,99.0*29
$IMGSA,A,1,,,,,,,,,,,,,140.0,99.0,99.0*26
$GPRMC,120639.53,V,,,,,,,100219,,,N*7F
$GPGGA,120640.53,,,,,0,00,999.9,,M,,M,,*61
$GPGSV,3,1,10,15,47,306,30,19,06,149,33,07,00,076,,28,57,063,*72
$GPGSV,3,2,10,05,30,203,,30,30,068,,17,19,124,,24,19,270,*72
$GPGSV,3,3,10,20,05,327,,13,81,348,*7D
$GLGSV,2,1,08,68,73,281,,78,72,308,,67,39,168,,77,37,038,*65
$GLGSV,2,2,08,79,28,246,,69,26,327,,86,09,029,,87,06,082,*6B
$GPGSA,A,1,,,,,,,,,,,,,140.0,99.0,99.0*35
$GNGSA,A,1,,,,,,,,,,,,,140.0,99.0,99.0*2B
$GNGSA,A,1,,,,,,,,,,,,,140.0,99.0,99.0*2B
$QZGSA,A,1,,,,,,,,,,,,,140.0,99.0,99.0*29
$IMGSA,A,1,,,,,,,,,,,,,140.0,99.0,99.0*26
$GPRMC,120640.53,V,,,,,,,100219,,,N*71
$GPGGA,120641.53,,,,,0,00,999.9,,M,,M,,*60
$GPGSV,3,1,10,28,57,063,30,15,47,306,32,30,30,068,48,05,30,203,34*75
$GPGSV,3,2,10,17,19,124,48,24,19,270,48,19,06,149,46,07,00,076,*7D
$GPGSV,3,3,10,13,81,348,24,20,05,327,*7B
$GLGSV,2,1,08,68,73,281,,78,72,308,,67,39,168,,77,37,038,*65
$GLGSV,2,2,08,79,28,246,,69,26,327,,86,09,029,,87,06,082,*6B
$GPGSA,A,1,,,,,,,,,,,,,140.0,99.0,99.0*35
$GNGSA,A,1,,,,,,,,,,,,,140.0,99.0,99.0*2B
$GNGSA,A,1,,,,,,,,,,,,,140.0,99.0,99.0*2B
$QZGSA,A,1,,,,,,,,,,,,,140.0,99.0,99.0*29
$IMGSA,A,1,,,,,,,,,,,,,140.0,99.0,99.0*26
$GPRMC,120641.53,V,,,,,,,100219,,,N*70
$GPGGA,120642.53,,,,,0,00,999.9,,M,,M,,*63
$GPGSV,3,1,10,28,57,063,30,15,47,306,32,30,30,068,51,05,30,203,33*7A
$GPGSV,3,2,10,17,19,124,50,24,19,270,50,19,06,149,46,07,00,076,*7D
$GPGSV,3,3,10,13,81,348,24,20,05,327,*7B
$GLGSV,2,1,08,68,73,281,,78,72,308,,67,39,168,,77,37,038,*65
$GLGSV,2,2,08,79,28,246,,69,26,327,,86,09,029,,87,06,082,*6B
$GPGSA,A,1,,,,,,,,,,,,,140.0,99.0,99.0*35
$GNGSA,A,1,,,,,,,,,,,,,140.0,99.0,99.0*2B
$GNGSA,A,1,,,,,,,,,,,,,140.0,99.0,99.0*2B
$QZGSA,A,1,,,,,,,,,,,,,140.0,99.0,99.0*29
$IMGSA,A,1,,,,,,,,,,,,,140.0,99.0,99.0*26
$GPRMC,120642.53,V,,,,,,,100219,,,N*73
$GPGGA,120643.53,,,,,0,00,999.9,,M,,M,,*62
$GPGSV,3,1,10,28,57,063,29,15,47,306,35,30,30,068,51,05,30,203,32*74
$GPGSV,3,2,10,17,19,124,50,24,19,270,50,19,06,149,46,07,00,076,*7D
$GPGSV,3,3,10,13,81,348,23,20,05,327,*7C
$GLGSV,2,1,08,68,73,281,,78,72,308,,67,39,168,,77,37,038,*65
$GLGSV,2,2,08,79,28,246,,69,26,327,,86,09,029,,87,06,082,*6B
$GPGSA,A,1,,,,,,,,,,,,,140.0,99.0,99.0*35
$GNGSA,A,1,,,,,,,,,,,,,140.0,99.0,99.0*2B
$GNGSA,A,1,,,,,,,,,,,,,140.0,99.0,99.0*2B
$QZGSA,A,1,,,,,,,,,,,,,140.0,99.0,99.0*29
$IMGSA,A,1,,,,,,,,,,,,,140.0,99.0,99.0*26
$GPRMC,120643.53,V,,,,,,,100219,,,N*72
$GPGGA,120644.53,,,,,0,00,999.9,,M,,M,,*65
$GPGSV,3,1,10,28,57,063,28,15,47,306,37,30,30,068,51,05,30,203,31*74
$GPGSV,3,2,10,17,19,124,50,24,19,270,50,19,06,149,46,07,00,076,*7D
$GPGSV,3,3,10,13,81,348,22,20,05,327,*7D
$GLGSV,2,1,08,68,73,281,,78,72,308,,67,39,168,,77,37,038,*65
$GLGSV,2,2,08,79,28,246,,69,26,327,,86,09,029,,87,06,082,*6B
$GPGSA,A,1,,,,,,,,,,,,,140.0,99.0,99.0*35
$GNGSA,A,1,,,,,,,,,,,,,140.0,99.0,99.0*2B
$GNGSA,A,1,,,,,,,,,,,,,140.0,99.0,99.0*2B
$QZGSA,A,1,,,,,,,,,,,,,140.0,99.0,99.0*29
$IMGSA,A,1,,,,,,,,,,,,,140.0,99.0,99.0*26
$GPRMC,120644.53,V,,,,,,,100219,,,N*75
$GPGGA,120645.53,,,,,0,00,999.9,,M,,M,,*64
$GPGSV,3,1,10,28,57,063,27,15,47,306,39,30,30,068,51,05,30,203,30*74
$GPGSV,3,2,10,17,19,124,50,24,19,270,50,19,06,149,46,07,00,076,*7D
$GPGSV,3,3,10,13,81,348,21,20,05,327,*7E
$GLGSV,2,1,08,68,73,281,,78,72,308,,67,39,168,,77,37,038,*65
$GLGSV,2,2,08,79,28,246,,69,26,327,,86,09,029,,87,06,082,*6B
$GPGSA,A,1,,,,,,,,,,,,,140.0,99.0,99.0*35
$GNGSA,A,1,,,,,,,,,,,,,140.0,99.0,99.0*2B
$GNGSA,A,1,,,,,,,,,,,,,140.0,99.0,99.0*2B
$QZGSA,A,1,,,,,,,,,,,,,140.0,99.0,99.0*29
$IMGSA,A,1,,,,,,,,,,,,,140.0,99.0,99.0*26
$GPRMC,120645.53,V,,,,,,,100219,,,N*74
$GPGGA,120646.53,,,,,0,00,999.9,,M,,M,,*67
$GPGSV,3,1,10,28,57,063,26,15,47,306,39,30,30,068,51,05,30,203,28*7C
$GPGSV,3,2,10,17,19,124,50,24,19,270,50,19,06,149,46,20,05,327,42*7C
$GPGSV,3,3,10,07,00,076,,13,81,348,44*7A
$GLGSV,2,1,08,68,73,281,,78,72,308,,67,39,168,,77,37,038,*65
$GLGSV,2,2,08,79,28,246,,69,26,327,,86,09,029,,87,06,082,*6B
$GPGSA,A,1,,,,,,,,,,,,,140.0,99.0,99.0*35
$GNGSA,A,1,,,,,,,,,,,,,140.0,99.0,99.0*2B
$GNGSA,A,1,,,,,,,,,,,,,140.0,99.0,99.0*2B
$QZGSA,A,1,,,,,,,,,,,,,140.0,99.0,99.0*29
$IMGSA,A,1,,,,,,,,,,,,,140.0,99.0,99.0*26
$GPRMC,120646.53,V,,,,,,,100219,,,N*77
$GPGGA,120647.53,,,,,0,00,999.9,,M,,M,,*66
$GPGSV,3,1,10,28,57,063,25,15,47,306,44,30,30,068,51,05,30,203,27*7A
$GPGSV,3,2,10,17,19,124,50,24,19,270,50,19,06,149,47,20,05,327,48*77
$GPGSV,3,3,10,07,00,076,,13,81,348,49*77
$GLGSV,2,1,08,68,73,281,,78,72,308,,67,39,168,,77,37,038,*65
$GLGSV,2,2,08,79,28,246,,69,26,327,,86,09,029,,87,07,082,*6A
$GPGSA,A,1,,,,,,,,,,,,,140.0,99.0,99.0*35
$GNGSA,A,1,,,,,,,,,,,,,140.0,99.0,99.0*2B
$GNGSA,A,1,,,,,,,,,,,,,140.0,99.0,99.0*2B
$QZGSA,A,1,,,,,,,,,,,,,140.0,99.0,99.0*29
$IMGSA,A,1,,,,,,,,,,,,,140.0,99.0,99.0*26
$GPRMC,120647.53,V,,,,,,,100219,,,N*76
$GPGGA,120648.53,,,,,0,00,999.9,,M,,M,,*69
$GPGSV,3,1,10,28,57,063,28,15,47,306,44,30,30,068,51,05,30,203,26*76
$GPGSV,3,2,10,17,19,124,50,24,19,270,50,19,06,149,47,20,05,327,48*77
$GPGSV,3,3,10,07,00,076,,13,81,348,51*7E
$GLGSV,2,1,08,68,73,281,,78,72,308,,67,39,168,,77,37,038,*65
$GLGSV,2,2,08,79,28,246,,69,26,327,,86,09,029,,87,07,082,*6A
$GPGSA,A,1,,,,,,,,,,,,,140.0,99.0,99.0*35
$GNGSA,A,1,,,,,,,,,,,,,140.0,99.0,99.0*2B
$GNGSA,A,1,,,,,,,,,,,,,140.0,99.0,99.0*2B
$QZGSA,A,1,,,,,,,,,,,,,140.0,99.0,99.0*29
$IMGSA,A,1,,,,,,,,,,,,,140.0,99.0,99.0*26
$GPRMC,120648.53,V,,,,,,,100219,,,N*79
$GPGGA,120649.53,,,,,0,00,999.9,,M,,M,,*68
$GPGSV,3,1,10,28,57,063,27,15,47,306,44,30,30,068,51,05,30,203,25*7A
$GPGSV,3,2,10,17,19,124,50,24,19,270,50,19,06,149,48,20,05,327,48*78
$GPGSV,3,3,10,07,00,076,,13,81,348,51*7E
$GLGSV,2,1,08,68,73,281,,78,72,308,,67,39,168,,77,37,038,*65
$GLGSV,2,2,08,79,28,246,,69,26,327,,86,09,029,,87,07,082,*6A
$GPGSA,A,1,,,,,,,,,,,,,140.0,99.0,99.0*35
$GNGSA,A,1,,,,,,,,,,,,,140.0,99.0,99.0*2B
$GNGSA,A,1,,,,,,,,,,,,,140.0,99.0,99.0*2B
$QZGSA,A,1,,,,,,,,,,,,,140.0,99.0,99.0*29
$IMGSA,A,1,,,,,,,,,,,,,140.0,99.0,99.0*26
$GPRMC,120649.53,V,,,,,,,100219,,,N*78
$GPGGA,120650.53,,,,,0,00,999.9,,M,,M,,*60
$GPGSV,3,1,10,28,57,063,26,15,47,306,43,30,30,068,51,05,30,203,24*7D
$GPGSV,3,2,10,17,19,124,50,24,19,270,50,19,06,149,48,20,05,327,48*78
$GPGSV,3,3,10,07,00,076,,13,81,348,51*7E
$GLGSV,2,1,08,68,73,281,,78,72,308,,67,39,168,,77,37,038,*65
$GLGSV,2,2,08,79,28,246,,69,26,327,,86,09,029,,87,07,082,*6A
$GPGSA,A,1,,,,,,,,,,,,,140.0,99.0,99.0*35
$GNGSA,A,1,,,,,,,,,,,,,140.0,99.0,99.0*2B
$GNGSA,A,1,,,,,,,,,,,,,140.0,99.0,99.0*2B
$QZGSA,A,1,,,,,,,,,,,,,140.0,99.0,99.0*29
$IMGSA,A,1,,,,,,,,,,,,,140.0,99.0,99.0*26
$GPRMC,120650.53,V,,,,,,,100219,,,N*70
$GPGGA,120651.53,,,,,0,00,999.9,,M,,M,,*61
$GPGSV,3,1,10,28,57,063,24,15,47,306,45,30,30,068,51,05,30,203,24*79
$GPGSV,3,2,10,17,19,124,50,24,19,270,50,19,06,149,48,20,05,327,48*78
$GPGSV,3,3,10,07,00,076,,13,81,348,51*7E
$GLGSV,2,1,08,68,73,281,,78,72,308,,67,39,168,,77,37,038,*65
$GLGSV,2,2,08,79,28,246,,69,26,327,,86,09,029,,87,07,082,*6A
$GPGSA,A,1,,,,,,,,,,,,,140.0,99.0,99.0*35
$GNGSA,A,1,,,,,,,,,,,,,140.0,99.0,99.0*2B
$GNGSA,A,1,,,,,,,,,,,,,140.0,99.0,99.0*2B
$QZGSA,A,1,,,,,,,,,,,,,140.0,99.0,99.0*29
$IMGSA,A,1,,,,,,,,,,,,,140.0,99.0,99.0*26
$GPRMC,120651.53,V,,,,,,,100219,,,N*71
$GPGGA,120652.53,,,,,0,00,999.9,,M,,M,,*62
$GPGSV,3,1,10,28,57,063,23,15,47,306,45,30,30,068,51,05,30,203,43*7F
$GPGSV,3,2,10,17,19,124,50,24,19,270,50,19,06,149,48,20,05,327,48*78
$GPGSV,3,3,10,07,00,076,,13,81,348,51*7E
$GLGSV,2,1,08,68,73,281,,78,72,308,,67,39,168,,77,37,038,*65
$GLGSV,2,2,08,79,28,246,,69,26,327,,86,09,029,,87,07,082,*6A
$GPGSA,A,1,,,,,,,,,,,,,140.0,99.0,99.0*35
$GNGSA,A,1,,,,,,,,,,,,,140.0,99.0,99.0*2B
$GNGSA,A,1,,,,,,,,,,,,,140.0,99.0,99.0*2B
$QZGSA,A,1,,,,,,,,,,,,,140.0,99.0,99.0*29
$IMGSA,A,1,,,,,,,,,,,,,140.0,99.0,99.0*26
$GPRMC,120652.53,V,,,,,,,100219,,,N*72
$GPGGA,120653.53,,,,,0,00,999.9,,M,,M,,*63
$GPGSV,3,1,10,28,57,063,22,15,47,306,45,30,30,068,51,05,30,203,51*7D
$GPGSV,3,2,10,17,19,124,50,24,19,270,50,19,06,149,48,20,05,327,48*78
$GPGSV,3,3,10,07,00,076,,13,81,348,51*7E
$GLGSV,2,1,08,68,73,281,,78,72,308,,67,39,168,,77,37,038,*65
$GLGSV,2,2,08,79,28,246,,69,26,327,,86,09,029,,87,07,082,*6A
$GPGSA,A,1,,,,,,,,,,,,,140.0,99.0,99.0*35
$GNGSA,A,1,,,,,,,,,,,,,140.0,99.0,99.0*2B
$GNGSA,A,1,,,,,,,,,,,,,140.0,99.0,99.0*2B
$QZGSA,A,1,,,,,,,,,,,,,140.0,99.0,99.0*29
$IMGSA,A,1,,,,,,,,,,,,,140.0,99.0,99.0*26
$GPRMC,120653.53,V,,,,,,,100219,,,N*73
$GPGGA,120654.53,,,,,0,00,999.9,,M,,M,,*64
$GPGSV,3,1,10,28,57,063,28,15,47,306,44,30,30,068,51,05,30,203,51*76
$GPGSV,3,2,10,17,19,124,50,24,19,270,50,19,06,149,48,20,05,327,48*78
$GPGSV,3,3,10,07,00,076,,13,81,348,51*7E
$GLGSV,2,1,08,68,73,281,,78,72,308,,67,39,168,,77,37,038,*65
$GLGSV,2,2,08,79,28,246,,69,26,327,,86,09,029,,87,07,082,*6A
$GPGSA,A,1,,,,,,,,,,,,,140.0,99.0,99.0*35
$GNGSA,A,1,,,,,,,,,,,,,140.0,99.0,99.0*2B
$GNGSA,A,1,,,,,,,,,,,,,140.0,99.0,99.0*2B
$QZGSA,A,1,,,,,,,,,,,,,140.0,99.0,99.0*29
$IMGSA,A,1,,,,,,,,,,,,,140.0,99.0,99.0*26
$GPRMC,120654.53,V,,,,,,,100219,,,N*74
$GPGGA,120655.53,,,,,0,00,999.9,,M,,M,,*65
$GPGSV,3,1,10,28,57,063,29,15,47,306,45,30,30,068,51,05,30,203,51*76
$GPGSV,3,2,10,17,19,124,50,24,19,270,50,19,06,149,48,20,05,327,48*78
$GPGSV,3,3,10,07,00,076,,13,81,348,51*7E
$GLGSV,2,1,08,68,73,281,,78,72,308,,67,39,168,,77,37,038,*65
$GLGSV,2,2,08,79,28,246,,69,26,327,,86,09,029,,87,07,082,*6A
$GPGSA,A,1,,,,,,,,,,,,,140.0,99.0,99.0*35
$GNGSA,A,1,,,,,,,,,,,,,140.0,99.0,99.0*2B
$GNGSA,A,1,,,,,,,,,,,,,140.0,99.0,99.0*2B
$QZGSA,A,1,,,,,,,,,,,,,140.0,99.0,99.0*29
$IMGSA,A,1,,,,,,,,,,,,,140.0,99.0,99.0*26
$GPRMC,120655.53,V,,,,,,,100219,,,N*75
$GPGGA,120656.53,,,,,0,00,999.9,,M,,M,,*66
$GPGSV,3,1,10,28,57,063,28,15,47,306,45,30,30,068,51,05,30,203,51*77
$GPGSV,3,2,10,17,19,124,50,24,19,270,50,19,06,149,48,20,05,327,48*78
$GPGSV,3,3,10,07,00,076,,13,81,348,51*7E
$GLGSV,2,1,08,68,73,281,,78,72,308,,67,39,168,,77,37,038,*65
$GLGSV,2,2,08,79,28,246,,69,26,327,,86,09,029,,87,07,082,*6A
$GPGSA,A,1,,,,,,,,,,,,,140.0,99.0,99.0*35
$GNGSA,A,1,,,,,,,,,,,,,140.0,99.0,99.0*2B
$GNGSA,A,1,,,,,,,,,,,,,140.0,99.0,99.0*2B
$QZGSA,A,1,,,,,,,,,,,,,140.0,99.0,99.0*29
$IMGSA,A,1,,,,,,,,,,,,,140.0,99.0,99.0*26
$GPRMC,120656.53,V,,,,,,,100219,,,N*76
$GPGGA,120000.28,,,,,0,00,999.9,,M,,M,,*6F
$GPGSV,3,1,10,28,57,063,28,15,47,306,45,30,30,068,51,05,30,203,51*77
$GPGSV,3,2,10,17,19,124,50,24,19,270,50,19,06,149,48,20,05,327,48*78
$GPGSV,3,3,10,07,00,076,,13,81,348,51*7E
$GLGSV,2,1,08,68,73,281,,78,72,308,,67,39,168,,77,37,038,*65
$GLGSV,2,2,08,79,28,246,,69,26,327,,86,09,029,,87,07,082,*6A
$GPGSA,A,1,,,,,,,,,,,,,140.0,99.0,99.0*35
$GNGSA,A,1,,,,,,,,,,,,,140.0,99.0,99.0*2B
$GNGSA,A,1,,,,,,,,,,,,,140.0,99.0,99.0*2B
$QZGSA,A,1,,,,,,,,,,,,,140.0,99.0,99.0*29
$IMGSA,A,1,,,,,,,,,,,,,140.0,99.0,99.0*26
$GPRMC,120000.28,V,,,,,,,080219,,,N*76
$GPGGA,000000.00,,,,,0,00,999.9,,M,,M,,*66
$GPGSA,A,1,,,,,,,,,,,,,140.0,99.0,99.0*35
$GNGSA,A,1,,,,,,,,,,,,,140.0,99.0,99.0*2B
$GNGSA,A,1,,,,,,,,,,,,,140.0,99.0,99.0*2B
$QZGSA,A,1,,,,,,,,,,,,,140.0,99.0,99.0*29
$IMGSA,A,1,,,,,,,,,,,,,140.0,99.0,99.0*26
$GPRMC,000000.00,V,,,,,,,,,,N*7D
$GPGGA,000001.00,,,,,0,00,999.9,,M,,M,,*67
$GPGSA,A,1,,,,,,,,,,,,,140.0,99.0,99.0*35
$GNGSA,A,1,,,,,,,,,,,,,140.0,99.0,99.0*2B
$GNGSA,A,1,,,,,,,,,,,,,140.0,99.0,99.0*2B
$QZGSA,A,1,,,,,,,,,,,,,140.0,99.0,99.0*29
$IMGSA,A,1,,,,,,,,,,,,,140.0,99.0,99.0*26
$GPRMC,000001.00,V,,,,,,,,,,N*7C
$GPGGA,000001.00,,,,,0,00,999.9,,M,,M,,*67
$GPGSV,1,1,01,15,,,44*7C
$GPGSA,A,1,,,,,,,,,,,,,140.0,99.0,99.0*35
$GNGSA,A,1,,,,,,,,,,,,,140.0,99.0,99.0*2B
$GNGSA,A,1,,,,,,,,,,,,,140.0,99.0,99.0*2B
$QZGSA,A,1,,,,,,,,,,,,,140.0,99.0,99.0*29
$IMGSA,A,1,,,,,,,,,,,,,140.0,99.0,99.0*26
$GPRMC,000001.00,V,,,,,,,,,,N*7C
$GPGGA,000002.00,,,,,0,00,999.9,,M,,M,,*64
$GPGSV,1,1,01,15,,,44*7C
$GPGSA,A,1,,,,,,,,,,,,,140.0,99.0,99.0*35
$GNGSA,A,1,,,,,,,,,,,,,140.0,99.0,99.0*2B
$GNGSA,A,1,,,,,,,,,,,,,140.0,99.0,99.0*2B
$QZGSA,A,1,,,,,,,,,,,,,140.0,99.0,99.0*29
$IMGSA,A,1,,,,,,,,,,,,,140.0,99.0,99.0*26
$GPRMC,000002.00,V,,,,,,,,,,N*7F
$GPGGA,000003.00,,,,,0,00,999.9,,M,,M,,*65
$GPGSV,1,1,02,28,,,49,15,,,46*7A
$GPGSA,A,1,,,,,,,,,,,,,140.0,99.0,99.0*35
$GNGSA,A,1,,,,,,,,,,,,,140.0,99.0,99.0*2B
$GNGSA,A,1,,,,,,,,,,,,,140.0,99.0,99.0*2B
$QZGSA,A,1,,,,,,,,,,,,,140.0,99.0,99.0*29
$IMGSA,A,1,,,,,,,,,,,,,140.0,99.0,99.0*26
$GPRMC,000003.00,V,,,,,,,,,,N*7E
$GPGGA,000004.00,,,,,0,00,999.9,,M,,M,,*62
$GPGSV,1,1,04,13,,,41,05,,,48,28,,,51,15,,,51*7D
$GPGSA,A,1,,,,,,,,,,,,,140.0,99.0,99.0*35
$GNGSA,A,1,,,,,,,,,,,,,140.0,99.0,99.0*2B
$GNGSA,A,1,,,,,,,,,,,,,140.0,99.0,99.0*2B
$QZGSA,A,1,,,,,,,,,,,,,140.0,99.0,99.0*29
$IMGSA,A,1,,,,,,,,,,,,,140.0,99.0,99.0*26
$GPRMC,000004.00,V,,,,,,,,,,N*79
$GPGGA,000005.00,,,,,0,00,999.9,,M,,M,,*63
$GPGSV,2,1,05,13,,,49,05,,,50,28,,,51,15,,,51*7E
$GPGSV,2,2,05,30,,,48*73
$GPGSA,A,1,,,,,,,,,,,,,140.0,99.0,99.0*35
$GNGSA,A,1,,,,,,,,,,,,,140.0,99.0,99.0*2B
$GNGSA,A,1,,,,,,,,,,,,,140.0,99.0,99.0*2B
$QZGSA,A,1,,,,,,,,,,,,,140.0,99.0,99.0*29
$IMGSA,A,1,,,,,,,,,,,,,140.0,99.0,99.0*26
$GPRMC,000005.00,V,,,,,,,,,,N*78
$GPGGA,000006.00,,,,,0,00,999.9,,M,,M,,*60
$GPGSV,2,1,07,13,,,51,05,,,51,19,,,47,15,,,51*71
$GPGSV,2,2,07,28,,,51,20,,,35,30,,,50*72
$GPGSA,A,1,,,,,,,,,,,,,140.0,99.0,99.0*35
$GNGSA,A,1,,,,,,,,,,,,,140.0,99.0,99.0*2B
$GNGSA,A,1,,,,,,,,,,,,,140.0,99.0,99.0*2B
$QZGSA,A,1,,,,,,,,,,,,,140.0,99.0,99.0*29
$IMGSA,A,1,,,,,,,,,,,,,140.0,99.0,99.0*26
$GPRMC,000006.00,V,,,,,,,,,,N*7B
$GPGGA,000007.00,,,,,0,00,999.9,,M,,M,,*61
$GPGSV,2,1,08,07,,,45,05,,,51,15,,,51,13,,,51*73
$GPGSV,2,2,08,20,,,47,19,,,48,30,,,50,28,,,51*7C
$GPGSA,A,1,,,,,,,,,,,,,140.0,99.0,99.0*35
$GNGSA,A,1,,,,,,,,,,,,,140.0,99.0,99.0*2B
$GNGSA,A,1,,,,,,,,,,,,,140.0,99.0,99.0*2B
$QZGSA,A,1,,,,,,,,,,,,,140.0,99.0,99.0*29
$IMGSA,A,1,,,,,,,,,,,,,140.0,99.0,99.0*26
$GPRMC,000007.00,V,,,,,,,,,,N*7A
$GPGGA,000008.00,,,,,0,00,999.9,,M,,M,,*6E
$GPGSV,3,1,09,07,,,48,05,,,51,15,,,51,13,,,51*7E
$GPGSV,3,2,09,19,,,48,17,,,48,28,,,51,20,,,48*7F
$GPGSV,3,3,09,30,,,51*77
$GPGSA,A,1,,,,,,,,,,,,,140.0,99.0,99.0*35
$GNGSA,A,1,,,,,,,,,,,,,140.0,99.0,99.0*2B
$GNGSA,A,1,,,,,,,,,,,,,140.0,99.0,99.0*2B
$QZGSA,A,1,,,,,,,,,,,,,140.0,99.0,99.0*29
$IMGSA,A,1,,,,,,,,,,,,,140.0,99.0,99.0*26
$GPRMC,000008.00,V,,,,,,,,,,N*75
$GPGGA,000009.00,,,,,0,00,999.9,,M,,M,,*6F
$GPGSV,3,1,09,07,,,49,05,,,51,15,,,51,13,,,51*7F
$GPGSV,3,2,09,19,,,48,17,,,50,28,,,51,20,,,48*76
$GPGSV,3,3,09,30,,,51*77
$GPGSA,A,1,,,,,,,,,,,,,140.0,99.0,99.0*35
$GNGSA,A,1,,,,,,,,,,,,,140.0,99.0,99.0*2B
$GNGSA,A,1,,,,,,,,,,,,,140.0,99.0,99.0*2B
$QZGSA,A,1,,,,,,,,,,,,,140.0,99.0,99.0*29
$IMGSA,A,1,,,,,,,,,,,,,140.0,99.0,99.0*26
$GPRMC,000009.00,V,,,,,,,,,,N*74
$GPGGA,000010.00,,,,,0,00,999.9,,M,,M,,*67
$GPGSV,3,1,11,05,,,51,04,,,47,08,,,47,07,,,49*7C
$GPGSV,3,2,11,15,,,51,13,,,51,19,,,48,17,,,50*79
$GPGSV,3,3,11,28,,,51,20,,,48,30,,,51*7E
$GPGSA,A,1,,,,,,,,,,,,,140.0,99.0,99.0*35
$GNGSA,A,1,,,,,,,,,,,,,140.0,99.0,99.0*2B
$GNGSA,A,1,,,,,,,,,,,,,140.0,99.0,99.0*2B
$QZGSA,A,1,,,,,,,,,,,,,140.0,99.0,99.0*29
$IMGSA,A,1,,,,,,,,,,,,,140.0,99.0,99.0*26
$GPRMC,000010.00,V,,,,,,,,,,N*7C
$GPGGA,000011.00,,,,,0,00,999.9,,M,,M,,*66
$GPGSV,3,1,12,05,,,51,04,,,48,08,,,48,07,,,49*7F
$GPGSV,3,2,12,15,,,51,13,,,52,19,,,48,17,,,50*79
$GPGSV,3,3,12,24,,,48,20,,,48,30,,,51,28,,,51*77
$GPGSA,A,1,,,,,,,,,,,,,140.0,99.0,99.0*35
$GNGSA,A,1,,,,,,,,,,,,,140.0,99.0,99.0*2B
$GNGSA,A,1,,,,,,,,,,,,,140.0,99.0,99.0*2B
$QZGSA,A,1,,,,,,,,,,,,,140.0,99.0,99.0*29
$IMGSA,A,1,,,,,,,,,,,,,140.0,99.0,99.0*26
$GPRMC,000011.00,V,,,,,,,,,,N*7D
$GPGGA,000012.00,,,,,0,00,999.9,,M,,M,,*65
$GPGSV,3,1,12,05,,,51,04,,,48,08,,,48,07,,,49*7F
$GPGSV,3,2,12,15,,,51,13,,,52,19,,,48,17,,,49*71
$GPGSV,3,3,12,24,,,49,20,,,48,30,,,51,28,,,51*76
$GPGSA,A,1,,,,,,,,,,,,,140.0,99.0,99.0*35
$GNGSA,A,1,,,,,,,,,,,,,140.0,99.0,99.0*2B
$GNGSA,A,1,,,,,,,,,,,,,140.0,99.0,99.0*2B
$QZGSA,A,1,,,,,,,,,,,,,140.0,99.0,99.0*29
$IMGSA,A,1,,,,,,,,,,,,,140.0,99.0,99.0*26
$GPRMC,000012.00,V,,,,,,,,,,N*7E
$GPGGA,000013.00,,,,,0,00,999.9,,M,,M,,*64
$GPGSV,3,1,12,05,,,51,04,,,48,08,,,48,07,,,49*7F
$GPGSV,3,2,12,15,,,51,13,,,52,19,,,48,17,,,50*79
$GPGSV,3,3,12,24,,,49,20,,,48,30,,,51,28,,,51*76
$GPGSA,A,1,,,,,,,,,,,,,140.0,99.0,99.0*35
$GNGSA,A,1,,,,,,,,,,,,,140.0,99.0,99.0*2B
$GNGSA,A,1,,,,,,,,,,,,,140.0,99.0,99.0*2B
$QZGSA,A,1,,,,,,,,,,,,,140.0,99.0,99.0*29
$IMGSA,A,1,,,,,,,,,,,,,140.0,99.0,99.0*26
$GPRMC,000013.00,V,,,,,,,,,,N*7F
$GPGGA,000014.00,,,,,0,00,999.9,,M,,M,,*63
$GPGSV,3,1,12,05,,,51,04,,,48,08,,,48,07,,,49*7F
$GPGSV,3,2,12,15,,,51,13,,,52,19,,,48,17,,,50*79
$GPGSV,3,3,12,24,,,50,20,,,48,30,,,51,28,,,51*7E
$GPGSA,A,1,,,,,,,,,,,,,140.0,99.0,99.0*35
$GNGSA,A,1,,,,,,,,,,,,,140.0,99.0,99.0*2B
$GNGSA,A,1,,,,,,,,,,,,,140.0,99.0,99.0*2B
$QZGSA,A,1,,,,,,,,,,,,,140.0,99.0,99.0*29
$IMGSA,A,1,,,,,,,,,,,,,140.0,99.0,99.0*26
$GPRMC,000014.00,V,,,,,,,,,,N*78
$GPGGA,000015.00,,,,,0,00,999.9,,M,,M,,*62
$GPGSV,3,1,12,05,,,51,04,,,48,08,,,48,07,,,49*7F
$GPGSV,3,2,12,15,,,51,13,,,52,19,,,48,17,,,50*79
$GPGSV,3,3,12,24,,,50,20,,,48,30,,,51,28,,,51*7E
$GPGSA,A,1,,,,,,,,,,,,,140.0,99.0,99.0*35
$GNGSA,A,1,,,,,,,,,,,,,140.0,99.0,99.0*2B
$GNGSA,A,1,,,,,,,,,,,,,140.0,99.0,99.0*2B
$QZGSA,A,1,,,,,,,,,,,,,140.0,99.0,99.0*29
$IMGSA,A,1,,,,,,,,,,,,,140.0,99.0,99.0*26
$GPRMC,000015.00,V,,,,,,,,,,N*79
$GPGGA,000016.00,,,,,0,00,999.9,,M,,M,,*61
$GPGSV,3,1,12,05,,,51,04,,,48,08,,,48,07,,,49*7F
$GPGSV,3,2,12,15,,,51,13,,,51,19,,,48,17,,,50*7A
$GPGSV,3,3,12,24,,,50,20,,,48,30,,,51,28,,,51*7E
$GPGSA,A,1,,,,,,,,,,,,,140.0,99.0,99.0*35
$GNGSA,A,1,,,,,,,,,,,,,140.0,99.0,99.0*2B
$GNGSA,A,1,,,,,,,,,,,,,140.0,99.0,99.0*2B
$QZGSA,A,1,,,,,,,,,,,,,140.0,99.0,99.0*29
$IMGSA,A,1,,,,,,,,,,,,,140.0,99.0,99.0*26
$GPRMC,000016.00,V,,,,,,,,,,N*7A
$GPGGA,120018.37,,,,,0,00,999.9,,M,,M,,*68
$GPGSV,3,1,12,05,,,51,04,,,48,08,,,48,07,,,49*7F
$GPGSV,3,2,12,15,,,51,13,,,51,19,,,48,17,,,50*7A
$GPGSV,3,3,12,24,,,50,20,,,48,30,,,51,28,,,51*7E
$GPGSA,A,1,,,,,,,,,,,,,140.0,99.0,99.0*35
$GNGSA,A,1,,,,,,,,,,,,,140.0,99.0,99.0*2B
$GNGSA,A,1,,,,,,,,,,,,,140.0,99.0,99.0*2B
$QZGSA,A,1,,,,,,,,,,,,,140.0,99.0,99.0*29
$IMGSA,A,1,,,,,,,,,,,,,140.0,99.0,99.0*26
$GPRMC,120018.37,V,,,,,,,080219,,,N*71
$GPGGA,120019.37,,,,,0,00,999.9,,M,,M,,*69
$GPGSV,3,1,12,05,,,51,04,,,48,08,,,48,07,,,49*7F
$GPGSV,3,2,12,15,,,51,13,,,51,19,,,48,17,,,50*7A
$GPGSV,3,3,12,24,,,50,20,,,48,30,,,51,28,,,51*7E
$GPGSA,A,1,,,,,,,,,,,,,140.0,99.0,99.0*35
$GNGSA,A,1,,,,,,,,,,,,,140.0,99.0,99.0*2B
$GNGSA,A,1,,,,,,,,,,,,,140.0,99.0,99.0*2B
$QZGSA,A,1,,,,,,,,,,,,,140.0,99.0,99.0*29
$IMGSA,A,1,,,,,,,,,,,,,140.0,99.0,99.0*26
$GPRMC,120019.37,V,,,,,,,080219,,,N*70
$GPGGA,120020.37,,,,,0,00,999.9,,M,,M,,*63
$GPGSV,3,1,12,05,,,51,04,,,48,08,,,48,07,,,49*7F
$GPGSV,3,2,12,15,,,51,13,,,52,19,,,48,17,,,50*79
$GPGSV,3,3,12,24,,,50,20,,,48,30,,,51,28,,,51*7E
$GPGSA,A,1,,,,,,,,,,,,,140.0,99.0,99.0*35
$GNGSA,A,1,,,,,,,,,,,,,140.0,99.0,99.0*2B
$GNGSA,A,1,,,,,,,,,,,,,140.0,99.0,99.0*2B
$QZGSA,A,1,,,,,,,,,,,,,140.0,99.0,99.0*29
$IMGSA,A,1,,,,,,,,,,,,,140.0,99.0,99.0*26
$GPRMC,120020.37,V,,,,,,,080219,,,N*7A
$GPGGA,120021.37,,,,,0,00,999.9,,M,,M,,*62
$GPGSV,3,1,12,05,,,51,04,,,48,08,,,48,07,,,49*7F
$GPGSV,3,2,12,15,,,51,13,,,52,19,,,48,17,,,50*79
$GPGSV,3,3,12,24,,,50,20,,,48,30,,,51,28,,,51*7E
$GPGSA,A,1,,,,,,,,,,,,,140.0,99.0,99.0*35
$GNGSA,A,1,,,,,,,,,,,,,140.0,99.0,99.0*2B
$GNGSA,A,1,,,,,,,,,,,,,140.0,99.0,99.0*2B
$QZGSA,A,1,,,,,,,,,,,,,140.0,99.0,99.0*29
$IMGSA,A,1,,,,,,,,,,,,,140.0,99.0,99.0*26
$GPRMC,120021.37,V,,,,,,,080219,,,N*7B
$GPGGA,120022.37,,,,,0,00,999.9,,M,,M,,*61
$GPGSV,3,1,12,05,,,51,04,,,48,08,,,48,07,,,49*7F
$GPGSV,3,2,12,15,,,51,13,,,51,19,,,48,17,,,50*7A
$GPGSV,3,3,12,24,,,50,20,,,48,30,,,51,28,,,51*7E
$GPGSA,A,1,,,,,,,,,,,,,140.0,99.0,99.0*35
$GNGSA,A,1,,,,,,,,,,,,,140.0,99.0,99.0*2B
$GNGSA,A,1,,,,,,,,,,,,,140.0,99.0,99.0*2B
$QZGSA,A,1,,,,,,,,,,,,,140.0,99.0,99.0*29
$IMGSA,A,1,,,,,,,,,,,,,140.0,99.0,99.0*26
$GPRMC,120022.37,V,,,,,,,080219,,,N*78
$GPGGA,120023.37,,,,,0,00,999.9,,M,,M,,*60
$GPGSV,3,1,12,05,,,51,04,,,48,08,,,48,07,,,49*7F
$GPGSV,3,2,12,15,,,51,13,,,51,19,,,48,17,,,50*7A
$GPGSV,3,3,12,24,,,50,20,,,48,30,,,51,28,,,51*7E
$GPGSA,A,1,,,,,,,,,,,,,140.0,99.0,99.0*35
$GNGSA,A,1,,,,,,,,,,,,,140.0,99.0,99.0*2B
$GNGSA,A,1,,,,,,,,,,,,,140.0,99.0,99.0*2B
$QZGSA,A,1,,,,,,,,,,,,,140.0,99.0,99.0*29
$IMGSA,A,1,,,,,,,,,,,,,140.0,99.0,99.0*26
$GPRMC,120023.37,V,,,,,,,080219,,,N*79
$GPGGA,120024.37,,,,,0,00,999.9,,M,,M,,*67
$GPGSV,3,1,12,05,,,51,04,,,48,08,,,48,07,,,49*7F
$GPGSV,3,2,12,15,,,51,13,,,51,19,,,48,17,,,50*7A
$GPGSV,3,3,12,24,,,50,20,,,48,30,,,51,28,,,51*7E
$GPGSA,A,1,,,,,,,,,,,,,140.0,99.0,99.0*35
$GNGSA,A,1,,,,,,,,,,,,,140.0,99.0,99.0*2B
$GNGSA,A,1,,,,,,,,,,,,,140.0,99.0,99.0*2B
$QZGSA,A,1,,,,,,,,,,,,,140.0,99.0,99.0*29
$IMGSA,A,1,,,,,,,,,,,,,140.0,99.0,99.0*26
$GPRMC,120024.37,V,,,,,,,080219,,,N*7E
$GPGGA,120025.37,,,,,0,00,999.9,,M,,M,,*66
$GPGSV,3,1,12,05,,,51,04,,,48,08,,,48,07,,,49*7F
$GPGSV,3,2,12,15,,,51,13,,,51,19,,,48,17,,,50*7A
$GPGSV,3,3,12,24,,,50,20,,,48,30,,,51,28,,,51*7E
$GPGSA,A,1,,,,,,,,,,,,,140.0,99.0,99.0*35
$GNGSA,A,1,,,,,,,,,,,,,140.0,99.0,99.0*2B
$GNGSA,A,1,,,,,,,,,,,,,140.0,99.0,99.0*2B
$QZGSA,A,1,,,,,,,,,,,,,140.0,99.0,99.0*29
$IMGSA,A,1,,,,,,,,,,,,,140.0,99.0,99.0*26
$GPRMC,120025.37,V,,,,,,,080219,,,N*7F
$GPGGA,120026.37,,,,,0,00,999.9,,M,,M,,*65
$GPGSV,3,1,12,05,,,51,04,,,48,08,,,48,07,,,49*7F
$GPGSV,3,2,12,15,,,51,13,,,51,19,,,48,17,,,50*7A
$GPGSV,3,3,12,24,,,50,20,,,48,30,,,51,28,,,51*7E
$GPGSA,A,1,,,,,,,,,,,,,140.0,99.0,99.0*35
$GNGSA,A,1,,,,,,,,,,,,,140.0,99.0,99.0*2B
$GNGSA,A,1,,,,,,,,,,,,,140.0,99.0,99.0*2B
$QZGSA,A,1,,,,,,,,,,,,,140.0,99.0,99.0*29
$IMGSA,A,1,,,,,,,,,,,,,140.0,99.0,99.0*26
$GPRMC,120026.37,V,,,,,,,080219,,,N*7C
$GPGGA,120027.37,,,,,0,00,999.9,,M,,M,,*64
$GPGSV,3,1,12,05,,,51,04,,,48,08,,,48,07,,,49*7F
$GPGSV,3,2,12,15,,,51,13,,,52,19,,,48,17,,,50*79
$GPGSV,3,3,12,24,,,50,20,,,48,30,,,51,28,,,51*7E
$GPGSA,A,1,,,,,,,,,,,,,140.0,99.0,99.0*35
$GNGSA,A,1,,,,,,,,,,,,,140.0,99.0,99.0*2B
$GNGSA,A,1,,,,,,,,,,,,,140.0,99.0,99.0*2B
$QZGSA,A,1,,,,,,,,,,,,,140.0,99.0,99.0*29
$IMGSA,A,1,,,,,,,,,,,,,140.0,99.0,99.0*26
$GPRMC,120027.37,V,,,,,,,080219,,,N*7D
$GPGGA,120028.37,,,,,0,00,999.9,,M,,M,,*6B
$GPGSV,3,1,12,05,,,51,04,,,48,08,,,48,07,,,49*7F
$GPGSV,3,2,12,15,,,51,13,,,52,19,,,48,17,,,50*79
$GPGSV,3,3,12,24,,,50,20,,,48,30,,,51,28,,,51*7E
$GPGSA,A,1,,,,,,,,,,,,,140.0,99.0,99.0*35
$GNGSA,A,1,,,,,,,,,,,,,140.0,99.0,99.0*2B
$GNGSA,A,1,,,,,,,,,,,,,140.0,99.0,99.0*2B
$QZGSA,A,1,,,,,,,,,,,,,140.0,99.0,99.0*29
$IMGSA,A,1,,,,,,,,,,,,,140.0,99.0,99.0*26
$GPRMC,120028.37,V,,,,,,,080219,,,N*72
$GPGGA,120029.37,,,,,0,00,999.9,,M,,M,,*6A
$GPGSV,3,1,12,05,,,51,04,,,48,08,,,48,07,,,49*7F
$GPGSV,3,2,12,15,,,51,13,,,52,19,,,48,17,,,50*79
$GPGSV,3,3,12,24,,,50,20,,,48,30,,,51,28,,,51*7E
$GPGSA,A,1,,,,,,,,,,,,,140.0,99.0,99.0*35
$GNGSA,A,1,,,,,,,,,,,,,140.0,99.0,99.0*2B
$GNGSA,A,1,,,,,,,,,,,,,140.0,99.0,99.0*2B
$QZGSA,A,1,,,,,,,,,,,,,140.0,99.0,99.0*29
$IMGSA,A,1,,,,,,,,,,,,,140.0,99.0,99.0*26
$GPRMC,120029.37,V,,,,,,,080219,,,N*73
$GPGGA,120030.37,,,,,0,00,999.9,,M,,M,,*62
$GPGSV,3,1,12,05,,,51,04,,,48,08,,,48,07,,,49*7F
$GPGSV,3,2,12,15,,,51,13,,,52,19,,,48,17,,,50*79
$GPGSV,3,3,12,24,,,50,20,,,48,30,,,51,28,,,51*7E
$GPGSA,A,1,,,,,,,,,,,,,140.0,99.0,99.0*35
$GNGSA,A,1,,,,,,,,,,,,,140.0,99.0,99.0*2B
$GNGSA,A,1,,,,,,,,,,,,,140.0,99.0,99.0*2B
$QZGSA,A,1,,,,,,,,,,,,,140.0,99.0,99.0*29
$IMGSA,A,1,,,,,,,,,,,,,140.0,99.0,99.0*26
$GPRMC,120030.37,V,,,,,,,080219,,,N*7B
$GPGGA,120031.37,,,,,0,00,999.9,,M,,M,,*63
$GPGSV,3,1,12,05,36,207,51,19,01,152,48,20,01,330,48,08,00,024,*7B
$GPGSV,3,2,12,13,75,332,51,28,61,073,51,15,40,307,51,30,35,064,51*73
$GPGSV,3,3,12,24,14,265,50,17,14,129,50,07,05,072,49,04,,,48*43
$GLGSV,2,1,08,76,73,303,,66,70,303,,75,44,035,,65,39,164,*62
$GLGSV,2,2,08,77,20,240,,67,18,328,,84,07,031,,85,04,081,*61
$GPGSA,A,1,,,,,,,,,,,,,140.0,99.0,99.0*35
$GNGSA,A,1,,,,,,,,,,,,,140.0,99.0,99.0*2B
$GNGSA,A,1,,,,,,,,,,,,,140.0,99.0,99.0*2B
$QZGSA,A,1,,,,,,,,,,,,,140.0,99.0,99.0*29
$IMGSA,A,1,,,,,,,,,,,,,140.0,99.0,99.0*26
$GPRMC,120031.37,V,,,,,,,080219,,,N*7A
$GPGGA,120032.37,,,,,0,00,999.9,,M,,M,,*60
$GPGSV,3,1,12,05,36,207,51,19,01,152,48,20,01,330,48,08,00,024,*7B
$GPGSV,3,2,12,13,75,332,51,28,61,073,51,15,40,307,51,30,35,064,51*73
$GPGSV,3,3,12,24,14,265,50,17,14,129,50,07,05,072,49,04,,,48*43
$GLGSV,2,1,08,76,73,303,,66,70,303,,75,44,035,,65,39,164,*62
$GLGSV,2,2,08,77,20,240,,67,18,328,,84,07,031,,85,04,081,*61
$GPGSA,A,1,,,,,,,,,,,,,140.0,99.0,99.0*35
$GNGSA,A,1,,,,,,,,,,,,,140.0,99.0,99.0*2B
$GNGSA,A,1,,,,,,,,,,,,,140.0,99.0,99.0*2B
$QZGSA,A,1,,,,,,,,,,,,,140.0,99.0,99.0*29
$IMGSA,A,1,,,,,,,,,,,,,140.0,99.0,99.0*26
$GPRMC,120032.37,V,,,,,,,080219,,,N*79
$GPGGA,120033.37,,,,,0,00,999.9,,M,,M,,*61
$GPGSV,3,1,12,05,36,207,51,19,01,152,48,20,01,330,48,08,00,024,*7B
$GPGSV,3,2,12,13,75,332,51,28,61,073,51,15,40,307,51,30,35,064,51*73
$GPGSV,3,3,12,24,14,265,50,17,14,129,50,07,05,072,49,04,,,48*43
$GLGSV,2,1,08,76,73,303,,66,70,303,,75,44,035,,65,39,164,*62
$GLGSV,2,2,08,77,20,240,,67,18,328,,84,07,031,,85,04,081,*61
$GPGSA,A,1,,,,,,,,,,,,,140.0,99.0,99.0*35
$GNGSA,A,1,,,,,,,,,,,,,140.0,99.0,99.0*2B
$GNGSA,A,1,,,,,,,,,,,,,140.0,99.0,99.0*2B
$QZGSA,A,1,,,,,,,,,,,,,140.0,99.0,99.0*29
$IMGSA,A,1,,,,,,,,,,,,,140.0,99.0,99.0*26
$GPRMC,120033.37,V,,,,,,,080219,,,N*78
$GPGGA,120034.37,,,,,0,00,999.9,,M,,M,,*66
$GPGSV,3,1,12,05,36,207,51,19,01,152,48,20,01,330,48,08,00,024,*7B
$GPGSV,3,2,12,13,75,333,51,28,61,073,51,15,40,307,51,30,35,064,51*72
$GPGSV,3,3,12,24,14,265,50,17,14,129,50,07,05,072,49,04,,,48*43
$GLGSV,2,1,08,76,73,303,,66,70,303,,75,44,035,,65,39,164,*62
$GLGSV,2,2,08,77,20,240,,67,18,328,,84,07,031,,85,04,081,*61
$GPGSA,A,1,,,,,,,,,,,,,140.0,99.0,99.0*35
$GNGSA,A,1,,,,,,,,,,,,,140.0,99.0,99.0*2B
$GNGSA,A,1,,,,,,,,,,,,,140.0,99.0,99.0*2B
$QZGSA,A,1,,,,,,,,,,,,,140.0,99.0,99.0*29
$IMGSA,A,1,,,,,,,,,,,,,140.0,99.0,99.0*26
$GPRMC,120034.37,V,,,,,,,080219,,,N*7F
$GPGGA,120035.37,,,,,0,00,999.9,,M,,M,,*67
$GPGSV,3,1,12,05,36,207,51,19,01,152,48,20,01,330,48,08,00,024,*7B
$GPGSV,3,2,12,13,75,333,51,28,61,073,51,15,40,307,51,30,35,064,51*72
$GPGSV,3,3,12,24,14,265,50,17,14,129,50,07,05,072,49,04,,,48*43
$GLGSV,2,1,08,76,73,303,,66,70,303,,75,44,035,,65,39,164,*62
$GLGSV,2,2,08,77,20,240,,67,18,328,,84,07,031,,85,04,081,*61
$GPGSA,A,1,,,,,,,,,,,,,140.0,99.0,99.0*35
$GNGSA,A,1,,,,,,,,,,,,,140.0,99.0,99.0*2B
$GNGSA,A,1,,,,,,,,,,,,,140.0,99.0,99.0*2B
$QZGSA,A,1,,,,,,,,,,,,,140.0,99.0,99.0*29
$IMGSA,A,1,,,,,,,,,,,,,140.0,99.0,99.0*26
$GPRMC,120035.37,V,,,,,,,080219,,,N*7E
$GPGGA,120036.37,,,,,0,00,999.9,,M,,M,,*64
$GPGSV,3,1,12,05,36,207,51,19,01,152,48,20,01,330,48,08,00,024,*7B
$GPGSV,3,2,12,13,75,333,51,28,61,073,51,15,40,307,51,30,35,064,51*72
$GPGSV,3,3,12,24,14,265,50,17,14,129,50,07,05,072,49,04,,,48*43
$GLGSV,2,1,08,76,73,303,,66,70,303,,75,44,035,,65,39,164,*62
$GLGSV,2,2,08,77,20,240,,67,18,328,,84,07,031,,85,04,081,*61
$GPGSA,A,1,,,,,,,,,,,,,140.0,99.0,99.0*35
$GNGSA,A,1,,,,,,,,,,,,,140.0,99.0,99.0*2B
$GNGSA,A,1,,,,,,,,,,,,,140.0,99.0,99.0*2B
$QZGSA,A,1,,,,,,,,,,,,,140.0,99.0,99.0*29
$IMGSA,A,1,,,,,,,,,,,,,140.0,99.0,99.0*26
$GPRMC,120036.37,V,,,,,,,080219,,,N*7D
$GPGGA,120037.37,,,,,0,00,999.9,,M,,M,,*65
$GPGSV,3,1,12,05,36,207,51,19,01,152,48,20,01,330,48,08,00,024,*7B
$GPGSV,3,2,12,13,75,333,52,28,61,073,51,15,40,307,51,30,35,064,51*71
$GPGSV,3,3,12,24,14,265,50,17,14,129,50,07,05,072,49,04,,,48*43
$GLGSV,2,1,08,76,73,303,,66,70,303,,75,44,035,,65,39,164,*62
$GLGSV,2,2,08,77,20,240,,67,18,328,,84,07,031,,85,04,081,*61
$GPGSA,A,1,,,,,,,,,,,,,140.0,99.0,99.0*35
$GNGSA,A,1,,,,,,,,,,,,,140.0,99.0,99.0*2B
$GNGSA,A,1,,,,,,,,,,,,,140.0,99.0,99.0*2B
$QZGSA,A,1,,,,,,,,,,,,,140.0,99.0,99.0*29
$IMGSA,A,1,,,,,,,,,,,,,140.0,99.0,99.0*26
$GPRMC,120037.37,V,,,,,,,080219,,,N*7C
$GPGGA,120038.37,,,,,0,00,999.9,,M,,M,,*6A
$GPGSV,3,1,12,05,36,207,51,19,01,152,48,20,01,330,48,08,00,024,*7B
$GPGSV,3,2,12,13,75,333,52,28,61,073,51,15,40,307,51,30,35,064,51*71
$GPGSV,3,3,12,24,14,265,50,17,14,129,50,07,05,072,49,04,,,48*43
$GLGSV,2,1,08,76,73,303,,66,70,303,,75,44,035,,65,39,164,*62
$GLGSV,2,2,08,77,20,240,,67,18,328,,84,07,031,,85,04,081,*61
$GPGSA,A,1,,,,,,,,,,,,,140.0,99.0,99.0*35
$GNGSA,A,1,,,,,,,,,,,,,140.0,99.0,99.0*2B
$GNGSA,A,1,,,,,,,,,,,,,140.0,99.0,99.0*2B
$QZGSA,A,1,,,,,,,,,,,,,140.0,99.0,99.0*29
$IMGSA,A,1,,,,,,,,,,,,,140.0,99.0,99.0*26
$GPRMC,120038.37,V,,,,,,,080219,,,N*73
$GPGGA,120039.37,,,,,0,00,999.9,,M,,M,,*6B
$GPGSV,3,1,12,05,36,207,51,19,01,152,48,20,01,330,48,08,00,024,*7B
$GPGSV,3,2,12,13,75,333,52,28,61,073,51,15,40,307,51,30,35,064,51*71
$GPGSV,3,3,12,24,14,265,50,17,14,129,50,07,05,072,49,04,,,48*43
$GLGSV,2,1,08,76,73,303,,66,70,303,,75,44,035,,65,39,164,*62
$GLGSV,2,2,08,77,20,240,,67,18,328,,84,07,031,,85,04,081,*61
$GPGSA,A,1,,,,,,,,,,,,,140.0,99.0,99.0*35
$GNGSA,A,1,,,,,,,,,,,,,140.0,99.0,99.0*2B
$GNGSA,A,1,,,,,,,,,,,,,140.0,99.0,99.0*2B
$QZGSA,A,1,,,,,,,,,,,,,140.0,99.0,99.0*29
$IMGSA,A,1,,,,,,,,,,,,,140.0,99.0,99.0*26
$GPRMC,120039.37,V,,,,,,,080219,,,N*72
$GPGGA,120040.37,,,,,0,00,999.9,,M,,M,,*65
$GPGSV,3,1,12,05,36,207,51,19,01,152,48,20,01,330,48,08,00,024,*7B
$GPGSV,3,2,12,13,75,333,51,28,61,073,51,15,40,307,51,30,35,064,51*72
$GPGSV,3,3,12,24,14,265,50,17,14,129,50,07,05,072,49,04,,,48*43
$GLGSV,2,1,08,76,73,304,,66,70,303,,75,44,035,,65,39,164,*65
$GLGSV,2,2,08,77,20,240,,67,18,328,,84,07,031,,85,04,081,*61
$GPGSA,A,1,,,,,,,,,,,,,140.0,99.0,99.0*35
$GNGSA,A,1,,,,,,,,,,,,,140.0,99.0,99.0*2B
$GNGSA,A,1,,,,,,,,,,,,,140.0,99.0,99.0*2B
$QZGSA,A,1,,,,,,,,,,,,,140.0,99.0,99.0*29
$IMGSA,A,1,,,,,,,,,,,,,140.0,99.0,99.0*26
$GPRMC,120040.37,V,,,,,,,080219,,,N*7C
$GPGGA,120041.37,,,,,0,00,999.9,,M,,M,,*64
$GPGSV,3,1,12,05,36,207,51,19,01,152,48,20,01,330,48,08,00,024,*7B
$GPGSV,3,2,12,13,75,333,51,28,61,073,51,15,40,307,51,30,35,064,51*72
$GPGSV,3,3,12,24,14,265,50,17,14,129,50,07,05,072,49,04,,,48*43
$GLGSV,2,1,08,76,73,304,,66,70,302,,75,44,035,,65,39,164,*64
$GLGSV,2,2,08,77,20,240,,67,18,328,,84,07,030,,85,04,081,*60
$GPGSA,A,1,,,,,,,,,,,,,140.0,99.0,99.0*35
$GNGSA,A,1,,,,,,,,,,,,,140.0,99.0,99.0*2B
$GNGSA,A,1,,,,,,,,,,,,,140.0,99.0,99.0*2B
$QZGSA,A,1,,,,,,,,,,,,,140.0,99.0,99.0*29
$IMGSA,A,1,,,,,,,,,,,,,140.0,99.0,99.0*26
$GPRMC,120041.37,V,,,,,,,080219,,,N*7D
$GPGGA,120042.37,,,,,0,00,999.9,,M,,M,,*67
$GPGSV,3,1,12,05,36,207,51,19,01,152,48,20,01,330,48,08,00,024,*7B
$GPGSV,3,2,12,13,75,333,51,28,61,073,51,15,40,307,51,30,35,064,51*72
$GPGSV,3,3,12,24,14,265,50,17,14,129,50,07,05,072,49,04,,,48*43
$GLGSV,2,1,08,76,73,304,,66,70,302,,75,44,035,,65,39,164,*64
$GLGSV,2,2,08,77,20,240,,67,18,328,,84,07,030,,85,04,081,*60
$GPGSA,A,1,,,,,,,,,,,,,140.0,99.0,99.0*35
$GNGSA,A,1,,,,,,,,,,,,,140.0,99.0,99.0*2B
$GNGSA,A,1,,,,,,,,,,,,,140.0,99.0,99.0*2B
$QZGSA,A,1,,,,,,,,,,,,,140.0,99.0,99.0*29
$IMGSA,A,1,,,,,,,,,,,,,140.0,99.0,99.0*26
$GPRMC,120042.37,V,,,,,,,080219,,,N*7E
$GPGGA,120043.37,,,,,0,00,999.9,,M,,M,,*66
$GPGSV,3,1,12,05,36,207,51,19,01,152,48,20,01,330,48,08,00,024,*7B
$GPGSV,3,2,12,13,75,333,51,28,61,073,52,15,40,307,51,30,35,064,51*71
$GPGSV,3,3,12,24,14,265,50,17,14,129,50,07,05,072,49,04,,,48*43
$GLGSV,2,1,08,76,73,304,,66,70,302,,75,44,035,,65,39,164,*64
$GLGSV,2,2,08,77,20,240,,67,18,328,,84,07,030,,85,04,081,*60
$GPGSA,A,1,,,,,,,,,,,,,140.0,99.0,99.0*35
$GNGSA,A,1,,,,,,,,,,,,,140.0,99.0,99.0*2B
$GNGSA,A,1,,,,,,,,,,,,,140.0,99.0,99.0*2B
$QZGSA,A,1,,,,,,,,,,,,,140.0,99.0,99.0*29
$IMGSA,A,1,,,,,,,,,,,,,140.0,99.0,99.0*26
$GPRMC,120043.37,V,,,,,,,080219,,,N*7F
$GPGGA,120044.37,,,,,0,00,999.9,,M,,M,,*61
$GPGSV,3,1,12,05,36,207,51,19,01,152,48,20,01,330,48,08,00,024,*7B
$GPGSV,3,2,12,13,75,333,51,28,61,073,52,15,40,307,51,30,35,064,51*71
$GPGSV,3,3,12,24,14,265,50,17,14,129,50,07,05,072,49,04,,,48*43
$GLGSV,2,1,08,76,73,304,,66,70,302,,75,44,035,,65,39,164,*64
$GLGSV,2,2,08,77,20,240,,67,18,328,,84,07,030,,85,04,081,*60
$GPGSA,A,1,,,,,,,,,,,,,140.0,99.0,99.0*35
$GNGSA,A,1,,,,,,,,,,,,,140.0,99.0,99.0*2B
$GNGSA,A,1,,,,,,,,,,,,,140.0,99.0,99.0*2B
$QZGSA,A,1,,,,,,,,,,,,,140.0,99.0,99.0*29
$IMGSA,A,1,,,,,,,,,,,,,140.0,99.0,99.0*26
$GPRMC,120044.37,V,,,,,,,080219,,,N*78
$GPGGA,120045.37,,,,,0,00,999.9,,M,,M,,*60
$GPGSV,3,1,12,05,36,207,51,19,01,152,48,20,01,330,48,08,00,024,*7B
$GPGSV,3,2,12,13,75,333,51,28,61,073,52,15,40,307,51,30,35,064,51*71
$GPGSV,3,3,12,24,14,265,50,17,14,129,50,07,05,072,49,04,,,48*43
$GLGSV,2,1,08,76,73,304,,66,70,302,,75,44,035,,65,39,164,*64
$GLGSV,2,2,08,77,20,240,,67,18,328,,84,07,030,,85,04,081,*60
$GPGSA,A,1,,,,,,,,,,,,,140.0,99.0,99.0*35
$GNGSA,A,1,,,,,,,,,,,,,140.0,99.0,99.0*2B
$GNGSA,A,1,,,,,,,,,,,,,140.0,99.0,99.0*2B
$QZGSA,A,1,,,,,,,,,,,,,140.0,99.0,99.0*29
$IMGSA,A,1,,,,,,,,,,,,,140.0,99.0,99.0*26
$GPRMC,120045.37,V,,,,,,,080219,,,N*79
$GPGGA,120046.37,,,,,0,00,999.9,,M,,M,,*63
$GPGSV,3,1,12,05,36,207,51,19,01,152,48,20,01,330,48,08,00,024,*7B
$GPGSV,3,2,12,13,75,333,51,28,61,073,51,15,40,307,51,30,35,064,51*72
$GPGSV,3,3,12,24,14,265,50,17,14,129,50,07,05,072,49,04,,,48*43
$GLGSV,2,1,08,76,73,304,,66,70,302,,75,44,035,,65,39,164,*64
$GLGSV,2,2,08,77,20,240,,67,18,328,,84,07,030,,85,04,081,*60
$GPGSA,A,1,,,,,,,,,,,,,140.0,99.0,99.0*35
$GNGSA,A,1,,,,,,,,,,,,,140.0,99.0,99.0*2B
$GNGSA,A,1,,,,,,,,,,,,,140.0,99.0,99.0*2B
$QZGSA,A,1,,,,,,,,,,,,,140.0,99.0,99.0*29
$IMGSA,A,1,,,,,,,,,,,,,140.0,99.0,99.0*26
$GPRMC,120046.37,V,,,,,,,080219,,,N*7A
$GPGGA,120047.37,,,,,0,00,999.9,,M,,M,,*62
$GPGSV,3,1,12,05,36,207,51,19,01,152,48,20,01,330,48,08,00,024,*7B
$GPGSV,3,2,12,13,75,333,51,28,61,073,51,15,40,307,51,30,35,064,51*72
$GPGSV,3,3,12,24,14,265,50,17,14,129,50,07,05,072,49,04,,,48*43
$GLGSV,2,1,08,76,73,304,,66,70,302,,75,44,035,,65,39,164,*64
$GLGSV,2,2,08,77,20,240,,67,18,328,,84,07,030,,85,04,081,*60
$GPGSA,A,1,,,,,,,,,,,,,140.0,99.0,99.0*35
$GNGSA,A,1,,,,,,,,,,,,,140.0,99.0,99.0*2B
$GNGSA,A,1,,,,,,,,,,,,,140.0,99.0,99.0*2B
$QZGSA,A,1,,,,,,,,,,,,,140.0,99.0,99.0*29
$IMGSA,A,1,,,,,,,,,,,,,140.0,99.0,99.0*26
$GPRMC,120047.37,V,,,,,,,080219,,,N*7B
$GPGGA,120048.36,4155.819474,N,01236.684185,E,1,05,1.6,0.0,M,45.0,M,,*67
$GPGSV,3,1,12,05,36,207,51,19,01,152,48,20,01,330,48,08,00,024,*7B
$GPGSV,3,2,12,13,75,333,52,28,61,073,51,15,41,307,51,30,35,064,51*70
$GPGSV,3,3,12,24,14,266,50,17,14,129,50,07,05,072,49,04,,,48*40
$GLGSV,2,1,08,76,73,304,,66,70,302,,75,44,035,,65,39,164,*64
$GLGSV,2,2,08,77,20,240,,67,18,328,,84,07,030,,85,04,081,*60
$GPGSA,A,3,05,07,17,24,30,,,,,,,,2.6,1.3,2.3*34
$GNGSA,A,3,05,07,17,24,30,,,,,,,,2.6,1.3,2.3*2A
$GNGSA,A,3,,,,,,,,,,,,,2.6,1.3,2.3*2B
$QZGSA,A,3,,,,,,,,,,,,,2.6,1.3,2.3*29
$IMGSA,A,3,,,,,,,,,,,,,2.6,1.3,2.3*26
$GPRMC,120048.36,A,4155.819474,N,01236.684185,E,000.0,,080219,,,A*7A
$GPGGA,120049.36,4155.820531,N,01236.683377,E,1,08,1.6,0.0,M,45.0,M,,*69
$GPGSV,3,1,12,05,36,207,51,30,35,064,51,17,14,129,50,24,14,266,50*72
$GPGSV,3,2,12,07,05,072,49,20,01,330,48,19,01,152,48,08,00,024,*73
$GPGSV,3,3,12,13,75,333,52,28,61,073,51,15,41,307,51,04,,,48*4A
$GLGSV,2,1,08,76,73,304,,66,70,302,,75,44,035,,65,39,164,*64
$GLGSV,2,2,08,77,20,240,,67,18,328,,84,07,030,,85,04,081,*60
$GPGSA,A,3,05,07,17,19,20,24,30,,,,,,2.6,1.3,2.3*3E
$GNGSA,A,3,05,07,17,19,20,24,30,,,,,,2.6,1.3,2.3*20
$GNGSA,A,3,,,,,,,,,,,,,2.6,1.3,2.3*2B
$QZGSA,A,3,,,,,,,,,,,,,2.6,1.3,2.3*29
$IMGSA,A,3,,,,,,,,,,,,,2.6,1.3,2.3*26
$GPRMC,120049.36,A,4155.820531,N,01236.683377,E,000.0,,080219,,,A*79
$GPGGA,120050.36,4155.820531,N,01236.683377,E,1,08,1.2,0.0,M,45.0,M,,*65
$GPGSV,3,1,12,05,36,207,51,30,35,064,51,17,14,129,50,24,14,266,50*72
$GPGSV,3,2,12,07,05,072,49,20,01,330,48,19,01,152,48,08,00,024,*73
$GPGSV,3,3,12,13,75,333,52,28,61,073,51,15,41,307,51,04,,,48*4A
$GLGSV,2,1,08,76,73,304,,66,70,302,,75,44,035,,65,39,164,*64
$GLGSV,2,2,08,77,20,240,,67,18,328,,84,07,030,,85,04,081,*60
$GPGSA,A,3,05,07,17,19,20,24,30,,,,,,2.6,1.3,2.3*3E
$GNGSA,A,3,05,07,17,19,20,24,30,,,,,,2.6,1.3,2.3*20
$GNGSA,A,3,,,,,,,,,,,,,2.6,1.3,2.3*2B
$QZGSA,A,3,,,,,,,,,,,,,2.6,1.3,2.3*29
$IMGSA,A,3,,,,,,,,,,,,,2.6,1.3,2.3*26
$GPRMC,120050.36,A,4155.820531,N,01236.683377,E,000.0,,080219,,,A*71
$GPGGA,120051.00,4155.820531,N,01236.683377,E,1,08,1.6,0.0,M,45.0,M,,*65
$GPGSV,3,1,12,05,36,207,51,30,35,064,51,17,14,129,50,24,14,266,50*72
$GPGSV,3,2,12,07,05,072,48,20,01,330,48,19,01,152,48,08,00,024,*72
$GPGSV,3,3,12,13,75,333,52,28,61,073,51,15,41,307,51,04,,,48*4A
$GLGSV,2,1,08,76,73,304,,66,70,302,,75,44,035,,65,39,164,*64
$GLGSV,2,2,08,77,20,240,,67,18,328,,84,07,030,,85,04,081,*60
$GPGSA,A,3,05,07,17,19,20,24,30,,,,,,2.6,1.3,2.3*3E
$GNGSA,A,3,05,07,17,19,20,24,30,,,,,,2.6,1.3,2.3*20
$GNGSA,A,3,,,,,,,,,,,,,2.6,1.3,2.3*2B
$QZGSA,A,3,,,,,,,,,,,,,2.6,1.3,2.3*29
$IMGSA,A,3,,,,,,,,,,,,,2.6,1.3,2.3*26
$GPRMC,120051.00,A,4155.820531,N,01236.683377,E,000.0,,080219,,,A*75
$GPGGA,120052.00,4155.820531,N,01236.683377,E,1,08,1.6,0.0,M,45.0,M,,*66
$GPGSV,3,1,12,05,36,207,51,30,35,064,51,17,14,129,50,24,14,266,50*72
$GPGSV,3,2,12,07,05,072,48,20,01,330,48,19,01,152,48,08,00,024,*72
$GPGSV,3,3,12,13,75,333,52,28,61,073,51,15,41,307,51,04,,,48*4A
$GLGSV,2,1,08,76,73,304,,66,70,302,,75,44,035,,65,39,164,*64
$GLGSV,2,2,08,77,20,240,,67,18,328,,84,07,030,,85,04,081,*60
$GPGSA,A,3,05,07,17,19,20,24,30,,,,,,2.6,1.3,2.3*3E
$GNGSA,A,3,05,07,17,19,20,24,30,,,,,,2.6,1.3,2.3*20
$GNGSA,A,3,,,,,,,,,,,,,2.6,1.3,2.3*2B
$QZGSA,A,3,,,,,,,,,,,,,2.6,1.3,2.3*29
$IMGSA,A,3,,,,,,,,,,,,,2.6,1.3,2.3*26
$GPRMC,120052.00,A,4155.820531,N,01236.683377,E,000.0,,080219,,,A*76
$GPGGA,120053.00,4155.820531,N,01236.683377,E,1,08,1.6,0.0,M,45.0,M,,*67
$GPGSV,3,1,12,05,36,207,51,30,35,064,51,17,14,129,50,24,14,266,50*72
$GPGSV,3,2,12,07,05,072,48,20,01,330,48,19,01,152,48,08,00,023,*75
$GPGSV,3,3,12,13,75,333,52,28,61,073,51,15,41,307,51,04,,,48*4A
$GLGSV,2,1,08,76,73,304,,66,70,302,,75,44,035,,65,39,164,*64
$GLGSV,2,2,08,77,20,240,,67,18,328,,84,07,030,,85,04,080,*61
$GPGSA,A,3,05,07,17,19,20,24,30,,,,,,2.6,1.3,2.3*3E
$GNGSA,A,3,05,07,17,19,20,24,30,,,,,,2.6,1.3,2.3*20
$GNGSA,A,3,,,,,,,,,,,,,2.6,1.3,2.3*2B
$QZGSA,A,3,,,,,,,,,,,,,2.6,1.3,2.3*29
$IMGSA,A,3,,,,,,,,,,,,,2.6,1.3,2.3*26
$GPRMC,120053.00,A,4155.820531,N,01236.683377,E,000.0,,080219,,,A*77
$GPGGA,120054.00,4155.820531,N,01236.683377,E,1,08,1.6,0.0,M,45.0,M,,*60
$GPGSV,3,1,12,05,36,207,51,30,35,064,51,17,14,129,50,24,14,266,50*72
$GPGSV,3,2,12,07,05,072,48,20,01,330,48,19,01,152,48,08,00,023,*75
$GPGSV,3,3,12,13,75,333,52,28,61,073,51,15,41,307,51,04,,,48*4A
$GLGSV,2,1,08,76,73,304,,66,70,302,,75,44,035,,65,39,164,*64
$GLGSV,2,2,08,77,20,240,,67,18,328,,84,07,030,,85,04,080,*61
$GPGSA,A,3,05,07,17,19,20,24,30,,,,,,2.6,1.3,2.3*3E
$GNGSA,A,3,05,07,17,19,20,24,30,,,,,,2.6,1.3,2.3*20
$GNGSA,A,3,,,,,,,,,,,,,2.6,1.3,2.3*2B
$QZGSA,A,3,,,,,,,,,,,,,2.6,1.3,2.3*29
$IMGSA,A,3,,,,,,,,,,,,,2.6,1.3,2.3*26
$GPRMC,120054.00,A,4155.820531,N,01236.683377,E,000.0,,080219,,,A*70
$GPGGA,120055.00,4155.820531,N,01236.683377,E,1,08,2.4,0.0,M,45.0,M,,*60
$GPGSV,3,1,12,05,36,207,51,30,35,064,51,17,14,129,50,24,14,266,50*72
$GPGSV,3,2,12,07,05,072,48,20,01,330,48,19,01,152,48,08,00,023,*75
$GPGSV,3,3,12,13,75,333,52,28,61,073,51,15,41,307,51,04,,,48*4A
$GLGSV,2,1,08,76,73,304,,66,70,302,,75,44,035,,65,39,164,*64
$GLGSV,2,2,08,77,20,240,,67,18,328,,84,07,030,,85,04,080,*61
$GPGSA,A,3,05,07,17,19,20,24,30,,,,,,6.0,2.3,5.5*3E
$GNGSA,A,3,05,07,17,19,20,24,30,,,,,,6.0,2.3,5.5*20
$GNGSA,A,3,,,,,,,,,,,,,6.0,2.3,5.5*2B
$QZGSA,A,3,,,,,,,,,,,,,6.0,2.3,5.5*29
$IMGSA,A,3,,,,,,,,,,,,,6.0,2.3,5.5*26
$GPRMC,120055.00,A,4155.820531,N,01236.683377,E,,,080219,,,A*5F
$GPGGA,120056.00,4155.820531,N,01236.683377,E,1,08,2.4,0.0,M,45.0,M,,*63
$GPGSV,3,1,12,05,36,207,51,30,35,064,51,17,14,129,50,24,14,266,50*72
$GPGSV,3,2,12,07,05,072,48,20,01,330,48,19,01,152,48,08,00,023,*75
$GPGSV,3,3,12,13,75,333,52,28,61,073,51,15,41,307,51,04,,,48*4A
$GLGSV,2,1,08,76,73,304,,66,70,302,,75,44,035,,65,39,164,*64
$GLGSV,2,2,08,77,20,240,,67,18,328,,84,07,030,,85,04,080,*61
$GPGSA,A,3,05,07,17,19,20,24,30,,,,,,2.6,1.3,2.3*3E
$GNGSA,A,3,05,07,17,19,20,24,30,,,,,,2.6,1.3,2.3*20
$GNGSA,A,3,,,,,,,,,,,,,2.6,1.3,2.3*2B
$QZGSA,A,3,,,,,,,,,,,,,2.6,1.3,2.3*29
$IMGSA,A,3,,,,,,,,,,,,,2.6,1.3,2.3*26
$GPRMC,120056.00,A,4155.820531,N,01236.683377,E,000.0,,080219,,,A*72
$GPGGA,120057.00,4155.820531,N,01236.683377,E,1,08,1.6,0.0,M,45.0,M,,*63
$GPGSV,3,1,12,05,36,207,51,30,35,064,51,17,14,129,50,24,14,266,50*72
$GPGSV,3,2,12,07,05,072,48,20,01,330,48,19,01,152,48,08,00,023,*75
$GPGSV,3,3,12,13,75,333,52,28,61,073,51,15,41,307,51,04,,,48*4A
$GLGSV,2,1,08,76,73,304,,66,70,302,,75,44,035,,65,39,164,*64
$GLGSV,2,2,08,77,20,240,,67,18,328,,84,07,030,,85,04,080,*61
$GPGSA,A,3,05,07,17,19,20,24,30,,,,,,2.6,1.3,2.3*3E
$GNGSA,A,3,05,07,17,19,20,24,30,,,,,,2.6,1.3,2.3*20
$GNGSA,A,3,,,,,,,,,,,,,2.6,1.3,2.3*2B
$QZGSA,A,3,,,,,,,,,,,,,2.6,1.3,2.3*29
$IMGSA,A,3,,,,,,,,,,,,,2.6,1.3,2.3*26
$GPRMC,120057.00,A,4155.820531,N,01236.683377,E,000.0,,080219,,,A*73
$GPGGA,120058.00,4155.820531,N,01236.683377,E,1,08,1.6,0.0,M,45.0,M,,*6C
$GPGSV,3,1,12,05,36,207,51,30,35,064,51,17,14,129,50,24,14,266,50*72
$GPGSV,3,2,12,07,05,073,48,20,01,330,48,19,01,152,48,08,00,023,*74
$GPGSV,3,3,12,13,75,333,51,28,61,073,51,15,41,307,51,04,,,48*49
$GLGSV,2,1,08,76,73,304,,66,70,302,,75,44,035,,65,39,164,*64
$GLGSV,2,2,08,77,20,240,,67,18,328,,84,07,030,,85,04,080,*61
$GPGSA,A,3,05,07,17,19,20,24,30,,,,,,2.6,1.3,2.3*3E
$GNGSA,A,3,05,07,17,19,20,24,30,,,,,,2.6,1.3,2.3*20
$GNGSA,A,3,,,,,,,,,,,,,2.6,1.3,2.3*2B
$QZGSA,A,3,,,,,,,,,,,,,2.6,1.3,2.3*29
$IMGSA,A,3,,,,,,,,,,,,,2.6,1.3,2.3*26
$GPRMC,120058.00,A,4155.820531,N,01236.683377,E,000.0,,080219,,,A*7C
$GPGGA,120059.00,4155.820531,N,01236.683377,E,1,08,1.6,0.0,M,45.0,M,,*6D
$GPGSV,3,1,12,05,36,207,51,30,35,064,51,17,14,129,50,24,14,266,50*72
$GPGSV,3,2,12,07,05,073,48,20,01,330,48,19,01,152,48,08,00,023,*74
$GPGSV,3,3,12,13,75,333,51,28,61,073,51,15,41,307,51,04,,,48*49
$GLGSV,2,1,08,76,73,304,,66,70,302,,75,44,035,,65,39,164,*64
$GLGSV,2,2,08,77,20,240,,67,18,328,,84,07,030,,85,04,080,*61
$GPGSA,A,3,05,07,17,19,20,24,30,,,,,,2.6,1.3,2.3*3E
$GNGSA,A,3,05,07,17,19,20,24,30,,,,,,2.6,1.3,2.3*20
$GNGSA,A,3,,,,,,,,,,,,,2.6,1.3,2.3*2B
$QZGSA,A,3,,,,,,,,,,,,,2.6,1.3,2.3*29
$IMGSA,A,3,,,,,,,,,,,,,2.6,1.3,2.3*26
$GPRMC,120059.00,A,4155.820531,N,01236.683377,E,000.0,,080219,,,A*7D
$GPGGA,120100.00,4155.820531,N,01236.683377,E,1,08,1.6,0.0,M,45.0,M,,*60
$GPGSV,3,1,12,05,36,207,51,30,35,064,51,17,14,129,50,24,14,266,50*72
$GPGSV,3,2,12,07,05,073,48,20,01,330,48,19,01,152,48,08,00,023,*74
$GPGSV,3,3,12,13,75,333,51,28,61,073,51,15,41,307,51,04,,,48*49
$GLGSV,2,1,08,76,73,304,,66,70,302,,75,44,035,,65,39,164,*64
$GLGSV,2,2,08,77,20,240,,67,18,328,,84,07,030,,85,04,080,*61
$GPGSA,A,3,05,07,17,19,20,24,30,,,,,,2.6,1.3,2.3*3E
$GNGSA,A,3,05,07,17,19,20,24,30,,,,,,2.6,1.3,2.3*20
$GNGSA,A,3,,,,,,,,,,,,,2.6,1.3,2.3*2B
$QZGSA,A,3,,,,,,,,,,,,,2.6,1.3,2.3*29
$IMGSA,A,3,,,,,,,,,,,,,2.6,1.3,2.3*26
$GPRMC,120100.00,A,4155.820531,N,01236.683377,E,000.0,,080219,,,A*70
$GPGGA,120101.00,4155.820531,N,01236.683377,E,1,08,1.6,0.0,M,45.0,M,,*61
$GPGSV,3,1,12,05,36,207,51,30,35,064,51,17,14,129,50,24,14,266,50*72
$GPGSV,3,2,12,07,05,073,48,20,01,330,48,19,01,152,48,08,00,023,*74
$GPGSV,3,3,12,13,75,333,51,28,61,073,51,15,41,307,51,04,,,48*49
$GLGSV,2,1,08,76,73,304,,66,70,302,,75,44,035,,65,39,164,*64
$GLGSV,2,2,08,77,20,240,,67,18,328,,84,07,030,,85,04,080,*61
$GPGSA,A,3,05,07,17,19,20,24,30,,,,,,2.6,1.3,2.3*3E
$GNGSA,A,3,05,07,17,19,20,24,30,,,,,,2.6,1.3,2.3*20
$GNGSA,A,3,,,,,,,,,,,,,2.6,1.3,2.3*2B
$QZGSA,A,3,,,,,,,,,,,,,2.6,1.3,2.3*29
$IMGSA,A,3,,,,,,,,,,,,,2.6,1.3,2.3*26
$GPRMC,120101.00,A,4155.820531,N,01236.683377,E,000.0,,080219,,,A*71
$GPGGA,120102.00,4155.820531,N,01236.683377,E,1,08,1.6,0.0,M,45.0,M,,*62
$GPGSV,3,1,12,05,36,207,51,30,35,064,51,17,14,129,50,24,14,266,50*72
$GPGSV,3,2,12,07,05,073,48,20,01,330,48,19,01,152,48,08,00,023,*74
$GPGSV,3,3,12,13,75,333,51,28,61,073,51,15,41,307,51,04,,,48*49
$GLGSV,2,1,08,76,73,304,,66,70,302,,75,44,035,,65,39,164,*64
$GLGSV,2,2,08,77,20,240,,67,18,328,,84,07,030,,85,04,080,*61
$GPGSA,A,3,05,07,17,19,20,24,30,,,,,,2.6,1.3,2.3*3E
$GNGSA,A,3,05,07,17,19,20,24,30,,,,,,2.6,1.3,2.3*20
$GNGSA,A,3,,,,,,,,,,,,,2.6,1.3,2.3*2B
$QZGSA,A,3,,,,,,,,,,,,,2.6,1.3,2.3*29
$IMGSA,A,3,,,,,,,,,,,,,2.6,1.3,2.3*26
$GPRMC,120102.00,A,4155.820531,N,01236.683377,E,000.0,,080219,,,A*72
$GPGGA,120103.00,4155.820531,N,01236.683377,E,1,08,1.6,0.0,M,45.0,M,,*63
$GPGSV,3,1,12,05,36,207,51,30,35,064,52,17,14,129,50,24,14,266,50*71
$GPGSV,3,2,12,07,05,073,48,20,01,330,48,19,01,152,48,08,00,023,*74
$GPGSV,3,3,12,13,75,333,52,28,61,073,51,15,41,307,51,04,,,48*4A
$GLGSV,2,1,08,76,73,304,,66,70,302,,75,44,035,,65,39,164,*64
$GLGSV,2,2,08,77,20,240,,67,18,328,,84,07,030,,85,04,080,*61
$GPGSA,A,3,05,07,17,19,20,24,30,,,,,,6.0,2.3,5.6*3D
$GNGSA,A,3,05,07,17,19,20,24,30,,,,,,6.0,2.3,5.6*23
$GNGSA,A,3,,,,,,,,,,,,,6.0,2.3,5.6*28
$QZGSA,A,3,,,,,,,,,,,,,6.0,2.3,5.6*2A
$IMGSA,A,3,,,,,,,,,,,,,6.0,2.3,5.6*25
$GPRMC,120103.00,A,4155.820531,N,01236.683377,E,,,080219,,,A*5D
$GPGGA,120104.00,4155.820531,N,01236.683377,E,1,08,1.6,0.0,M,45.0,M,,*64
$GPGSV,3,1,12,05,36,207,51,30,35,064,52,17,14,129,50,24,14,266,50*71
$GPGSV,3,2,12,07,05,073,48,20,01,330,48,19,01,152,48,08,00,023,*74
$GPGSV,3,3,12,13,75,333,51,28,61,073,52,15,41,307,51,04,,,48*4A
$GLGSV,2,1,08,76,73,304,,66,70,302,,75,44,035,,65,39,164,*64
$GLGSV,2,2,08,77,20,240,,67,18,328,,84,07,030,,85,04,080,*61
$GPGSA,A,3,05,07,17,19,20,24,30,,,,,,2.6,1.3,2.3*3E
$GNGSA,A,3,05,07,17,19,20,24,30,,,,,,2.6,1.3,2.3*20
$GNGSA,A,3,,,,,,,,,,,,,2.6,1.3,2.3*2B
$QZGSA,A,3,,,,,,,,,,,,,2.6,1.3,2.3*29
$IMGSA,A,3,,,,,,,,,,,,,2.6,1.3,2.3*26
$GPRMC,120104.00,A,4155.820531,N,01236.683377,E,000.0,,080219,,,A*74
$GPGGA,120105.00,4155.820531,N,01236.683377,E,1,08,1.6,0.0,M,45.0,M,,*65
$GPGSV,3,1,12,05,36,207,51,30,35,064,52,17,14,129,50,24,14,266,50*71
$GPGSV,3,2,12,07,05,073,48,20,01,330,48,19,01,152,48,08,00,023,*74
$GPGSV,3,3,12,13,75,333,51,28,61,073,52,15,41,307,51,04,,,48*4A
$GLGSV,2,1,08,76,73,304,,66,70,302,,75,44,035,,65,39,164,*64
$GLGSV,2,2,08,77,20,240,,67,18,328,,84,07,030,,85,04,080,*61
$GPGSA,A,3,05,07,17,19,20,24,30,,,,,,2.6,1.3,2.3*3E
$GNGSA,A,3,05,07,17,19,20,24,30,,,,,,2.6,1.3,2.3*20
$GNGSA,A,3,,,,,,,,,,,,,2.6,1.3,2.3*2B
$QZGSA,A,3,,,,,,,,,,,,,2.6,1.3,2.3*29
$IMGSA,A,3,,,,,,,,,,,,,2.6,1.3,2.3*26
$GPRMC,120105.00,A,4155.820531,N,01236.683377,E,000.0,,080219,,,A*75
$GPGGA,120106.00,4155.820531,N,01236.683377,E,1,08,1.6,0.0,M,45.0,M,,*66
$GPGSV,3,1,12,05,36,207,51,30,35,064,52,17,14,129,50,24,14,266,50*71
$GPGSV,3,2,12,07,05,073,48,20,01,330,48,19,01,152,48,08,00,023,*74
$GPGSV,3,3,12,13,75,333,51,28,60,073,52,15,41,307,51,04,,,48*4B
$GLGSV,2,1,08,76,73,304,,66,70,302,,75,44,035,,65,39,164,*64
$GLGSV,2,2,08,77,20,240,,67,18,328,,84,07,030,,85,04,080,*61
$GPGSA,A,3,05,07,17,19,20,24,30,,,,,,6.1,2.4,5.6*3B
$GNGSA,A,3,05,07,17,19,20,24,30,,,,,,6.1,2.4,5.6*25
$GNGSA,A,3,,,,,,,,,,,,,6.1,2.4,5.6*2E
$QZGSA,A,3,,,,,,,,,,,,,6.1,2.4,5.6*2C
$IMGSA,A,3,,,,,,,,,,,,,6.1,2.4,5.6*23
$GPRMC,120106.00,A,4155.820531,N,01236.683377,E,,,080219,,,A*58
$GPGGA,120107.00,4155.820531,N,01236.683377,E,1,08,1.6,0.0,M,45.0,M,,*67
$GPGSV,3,1,12,05,36,207,51,30,35,064,52,17,14,129,50,24,14,266,50*71
$GPGSV,3,2,12,07,05,073,48,20,01,330,48,19,01,152,48,08,00,023,*74
$GPGSV,3,3,12,13,75,333,51,28,60,073,51,15,41,307,51,04,,,48*48
$GLGSV,2,1,08,76,73,304,,66,70,302,,75,44,035,,65,39,164,*64
$GLGSV,2,2,08,77,20,240,,67,18,328,,84,07,030,,85,04,080,*61
$GPGSA,A,3,05,07,17,19,20,24,30,,,,,,2.6,1.3,2.3*3E
$GNGSA,A,3,05,07,17,19,20,24,30,,,,,,2.6,1.3,2.3*20
$GNGSA,A,3,,,,,,,,,,,,,2.6,1.3,2.3*2B
$QZGSA,A,3,,,,,,,,,,,,,2.6,1.3,2.3*29
$IMGSA,A,3,,,,,,,,,,,,,2.6,1.3,2.3*26
$GPRMC,120107.00,A,4155.820531,N,01236.683377,E,000.0,,080219,,,A*77
$GPGGA,120108.00,4155.820531,N,01236.683377,E,1,08,1.6,0.0,M,45.0,M,,*68
$GPGSV,3,1,12,05,36,207,51,30,35,064,51,17,14,129,50,24,14,266,50*72
$GPGSV,3,2,12,07,05,073,48,20,01,330,48,19,01,152,48,08,00,023,*74
$GPGSV,3,3,12,13,75,333,51,28,60,073,51,15,41,307,51,04,,,48*48
$GLGSV,2,1,08,76,73,304,,66,70,302,,75,44,035,,65,39,164,*64
$GLGSV,2,2,08,77,20,240,,67,18,328,,84,07,030,,85,04,080,*61
$GPGSA,A,3,05,07,17,19,20,24,30,,,,,,2.6,1.3,2.3*3E
$GNGSA,A,3,05,07,17,19,20,24,30,,,,,,2.6,1.3,2.3*20
$GNGSA,A,3,,,,,,,,,,,,,2.6,1.3,2.3*2B
$QZGSA,A,3,,,,,,,,,,,,,2.6,1.3,2.3*29
$IMGSA,A,3,,,,,,,,,,,,,2.6,1.3,2.3*26
$GPRMC,120108.00,A,4155.820531,N,01236.683377,E,000.0,,080219,,,A*78
$GPGGA,120109.00,4155.820531,N,01236.683377,E,1,08,1.6,0.0,M,45.0,M,,*69
$GPGSV,3,1,12,05,36,207,51,30,35,064,51,17,14,129,50,24,14,266,50*72
$GPGSV,3,2,12,07,05,073,48,20,01,330,48,19,01,152,48,08,00,023,*74
$GPGSV,3,3,12,13,75,333,51,28,60,073,51,15,41,307,51,04,,,48*48
$GLGSV,2,1,08,76,73,304,,66,70,302,,75,44,035,,65,39,164,*64
$GLGSV,2,2,08,77,20,240,,67,18,328,,84,07,030,,85,04,080,*61
$GPGSA,A,3,05,07,17,19,20,24,30,,,,,,2.6,1.3,2.3*3E
$GNGSA,A,3,05,07,17,19,20,24,30,,,,,,2.6,1.3,2.3*20
$GNGSA,A,3,,,,,,,,,,,,,2.6,1.3,2.3*2B
$QZGSA,A,3,,,,,,,,,,,,,2.6,1.3,2.3*29
$IMGSA,A,3,,,,,,,,,,,,,2.6,1.3,2.3*26
$GPRMC,120109.00,A,4155.820531,N,01236.683377,E,000.0,,080219,,,A*79
$GPGGA,120110.00,4155.820531,N,01236.683377,E,1,08,1.6,0.0,M,45.0,M,,*61
$GPGSV,3,1,12,05,36,207,51,30,35,064,51,17,14,129,50,24,14,266,50*72
$GPGSV,3,2,12,07,05,073,48,20,01,330,48,19,01,152,48,08,00,023,*74
$GPGSV,3,3,12,13,75,333,51,28,60,073,51,15,41,307,51,04,,,48*48
$GLGSV,2,1,08,76,73,304,,66,70,302,,75,44,035,,65,39,164,*64
$GLGSV,2,2,08,77,20,240,,67,18,328,,84,07,030,,85,04,080,*61
$GPGSA,A,3,05,07,17,19,20,24,30,,,,,,2.6,1.3,2.3*3E
$GNGSA,A,3,05,07,17,19,20,24,30,,,,,,2.6,1.3,2.3*20
$GNGSA,A,3,,,,,,,,,,,,,2.6,1.3,2.3*2B
$QZGSA,A,3,,,,,,,,,,,,,2.6,1.3,2.3*29
$IMGSA,A,3,,,,,,,,,,,,,2.6,1.3,2.3*26
$GPRMC,120110.00,A,4155.820531,N,01236.683377,E,000.0,,080219,,,A*71
$GPGGA,120111.00,4155.822437,N,01236.683276,E,1,08,1.6,0.0,M,45.0,M,,*65
$GPGSV,3,1,12,05,36,207,51,30,35,064,51,17,14,129,50,24,14,266,50*72
$GPGSV,3,2,12,07,05,073,48,20,01,330,48,19,01,152,48,08,00,023,*74
$GPGSV,3,3,12,13,75,333,51,28,60,073,51,15,41,307,51,04,,,48*48
$GLGSV,2,1,08,76,73,305,,66,70,302,,75,44,035,,65,39,164,*65
$GLGSV,2,2,08,77,20,240,,67,18,328,,84,07,030,,85,04,080,*61
$GPGSA,A,3,05,07,17,19,20,24,30,,,,,,2.6,1.3,2.3*3E
$GNGSA,A,3,05,07,17,19,20,24,30,,,,,,2.6,1.3,2.3*20
$GNGSA,A,3,,,,,,,,,,,,,2.6,1.3,2.3*2B
$QZGSA,A,3,,,,,,,,,,,,,2.6,1.3,2.3*29
$IMGSA,A,3,,,,,,,,,,,,,2.6,1.3,2.3*26
$GPRMC,120111.00,A,4155.822437,N,01236.683276,E,001.6,,080219,,,A*72
$GPGGA,120112.00,4155.823431,N,01236.684050,E,1,08,1.6,0.0,M,45.0,M,,*60
$GPGSV,3,1,12,05,36,207,51,30,35,064,51,17,14,129,50,24,14,266,50*72
$GPGSV,3,2,12,07,05,073,48,20,01,330,48,19,01,152,48,08,00,023,*74
$GPGSV,3,3,12,13,75,333,51,28,60,073,51,15,41,307,51,04,,,48*48
$GLGSV,2,1,08,76,73,305,,66,70,302,,75,44,035,,65,39,164,*65
$GLGSV,2,2,08,77,20,240,,67,18,328,,84,07,030,,85,04,080,*61
$GPGSA,A,3,05,07,17,19,20,24,30,,,,,,2.6,1.3,2.3*3E
$GNGSA,A,3,05,07,17,19,20,24,30,,,,,,2.6,1.3,2.3*20
$GNGSA,A,3,,,,,,,,,,,,,2.6,1.3,2.3*2B
$QZGSA,A,3,,,,,,,,,,,,,2.6,1.3,2.3*29
$IMGSA,A,3,,,,,,,,,,,,,2.6,1.3,2.3*26
$GPRMC,120112.00,A,4155.823431,N,01236.684050,E,001.6,,080219,,,A*77
$GPGGA,120113.00,4155.823431,N,01236.684050,E,1,08,1.6,0.0,M,45.0,M,,*61
$GPGSV,3,1,12,05,36,207,51,30,35,064,51,17,14,129,50,24,14,266,50*72
$GPGSV,3,2,12,07,05,073,48,20,01,330,48,19,01,152,48,08,00,023,*74
$GPGSV,3,3,12,13,75,333,51,28,60,073,51,15,41,307,51,04,,,48*48
$GLGSV,2,1,08,76,73,305,,66,70,302,,75,44,035,,65,39,164,*65
$GLGSV,2,2,08,77,20,240,,67,18,328,,84,07,030,,85,04,080,*61
$GPGSA,A,3,05,07,17,19,20,24,30,,,,,,2.6,1.3,2.3*3E
$GNGSA,A,3,05,07,17,19,20,24,30,,,,,,2.6,1.3,2.3*20
$GNGSA,A,3,,,,,,,,,,,,,2.6,1.3,2.3*2B
$QZGSA,A,3,,,,,,,,,,,,,2.6,1.3,2.3*29
$IMGSA,A,3,,,,,,,,,,,,,2.6,1.3,2.3*26
$GPRMC,120113.00,A,4155.823431,N,01236.684050,E,000.0,,080219,,,A*71
$GPGGA,120114.00,4155.823431,N,01236.684050,E,1,08,1.6,0.0,M,45.0,M,,*66
$GPGSV,3,1,12,05,36,207,51,30,35,064,51,17,14,129,50,24,14,266,50*72
$GPGSV,3,2,12,07,05,073,48,20,01,330,48,19,01,152,48,08,00,023,*74
$GPGSV,3,3,12,13,75,333,51,28,60,073,51,15,41,307,51,04,,,48*48
$GLGSV,2,1,08,76,73,305,,66,70,302,,75,44,035,,65,39,164,*65
$GLGSV,2,2,08,77,20,240,,67,18,328,,84,07,030,,85,04,080,*61
$GPGSA,A,3,05,07,17,19,20,24,30,,,,,,2.6,1.3,2.3*3E
$GNGSA,A,3,05,07,17,19,20,24,30,,,,,,2.6,1.3,2.3*20
$GNGSA,A,3,,,,,,,,,,,,,2.6,1.3,2.3*2B
$QZGSA,A,3,,,,,,,,,,,,,2.6,1.3,2.3*29
$IMGSA,A,3,,,,,,,,,,,,,2.6,1.3,2.3*26
$GPRMC,120114.00,A,4155.823431,N,01236.684050,E,000.0,,080219,,,A*76
$GPGGA,120115.00,4155.823431,N,01236.684050,E,1,08,1.6,0.0,M,45.0,M,,*67
$GPGSV,3,1,12,05,36,207,51,30,35,064,51,17,14,129,50,24,14,266,50*72
$GPGSV,3,2,12,07,05,073,48,20,01,330,48,19,01,152,48,08,00,023,*74
$GPGSV,3,3,12,13,75,333,51,28,60,073,51,15,41,307,51,04,,,48*48
$GLGSV,2,1,08,76,73,305,,66,70,302,,75,44,035,,65,39,164,*65
$GLGSV,2,2,08,77,20,240,,67,19,328,,84,07,030,,85,04,080,*60
$GPGSA,A,3,05,07,17,19,20,24,30,,,,,,2.6,1.3,2.3*3E
$GNGSA,A,3,05,07,17,19,20,24,30,,,,,,2.6,1.3,2.3*20
$GNGSA,A,3,,,,,,,,,,,,,2.6,1.3,2.3*2B
$QZGSA,A,3,,,,,,,,,,,,,2.6,1.3,2.3*29
$IMGSA,A,3,,,,,,,,,,,,,2.6,1.3,2.3*26
$GPRMC,120115.00,A,4155.823431,N,01236.684050,E,,,080219,,,A*59
$GPGGA,120116.00,4155.823431,N,01236.684050,E,1,08,1.6,0.0,M,45.0,M,,*64
$GPGSV,3,1,12,05,36,207,51,30,35,064,51,17,14,129,50,24,14,266,50*72
$GPGSV,3,2,12,07,05,073,48,20,01,330,48,19,01,152,48,08,00,023,*74
$GPGSV,3,3,12,13,75,333,51,28,60,073,51,15,41,307,51,04,,,48*48
$GLGSV,2,1,08,76,73,305,,66,70,302,,75,44,035,,65,39,164,*65
$GLGSV,2,2,08,77,20,240,,67,19,328,,84,07,030,,85,04,080,*60
$GPGSA,A,3,05,07,17,19,20,24,30,,,,,,2.6,1.3,2.3*3E
$GNGSA,A,3,05,07,17,19,20,24,30,,,,,,2.6,1.3,2.3*20
$GNGSA,A,3,,,,,,,,,,,,,2.6,1.3,2.3*2B
$QZGSA,A,3,,,,,,,,,,,,,2.6,1.3,2.3*29
$IMGSA,A,3,,,,,,,,,,,,,2.6,1.3,2.3*26
$GPRMC,120116.00,A,4155.823431,N,01236.684050,E,000.0,,080219,,,A*74
$GPGGA,120117.00,4155.823431,N,01236.684050,E,1,08,1.6,0.0,M,45.0,M,,*65
$GPGSV,3,1,12,05,36,207,51,30,35,064,51,17,14,129,50,24,14,266,50*72
$GPGSV,3,2,12,07,05,073,48,20,01,330,48,19,01,152,48,08,00,023,*74
$GPGSV,3,3,12,13,75,333,51,28,60,073,51,15,41,307,51,04,,,48*48
$GLGSV,2,1,08,76,73,305,,66,70,302,,75,44,035,,65,39,164,*65
$GLGSV,2,2,08,77,20,240,,67,19,328,,84,07,030,,85,04,080,*60
$GPGSA,A,3,05,07,17,19,20,24,30,,,,,,2.6,1.3,2.3*3E
$GNGSA,A,3,05,07,17,19,20,24,30,,,,,,2.6,1.3,2.3*20
$GNGSA,A,3,,,,,,,,,,,,,2.6,1.3,2.3*2B
$QZGSA,A,3,,,,,,,,,,,,,2.6,1.3,2.3*29
$IMGSA,A,3,,,,,,,,,,,,,2.6,1.3,2.3*26
$GPRMC,120117.00,A,4155.823431,N,01236.684050,E,000.0,,080219,,,A*75
$GPGGA,120118.00,4155.823431,N,01236.684050,E,1,08,1.6,0.0,M,45.0,M,,*6A
$GPGSV,3,1,12,05,36,207,51,30,35,064,51,17,14,129,50,24,14,266,50*72
$GPGSV,3,2,12,07,05,073,48,20,01,330,48,19,01,152,48,08,00,023,*74
$GPGSV,3,3,12,13,75,333,51,28,60,073,51,15,41,307,51,04,,,48*48
$GLGSV,2,1,08,76,73,305,,66,70,302,,75,44,035,,65,39,164,*65
$GLGSV,2,2,08,77,20,240,,67,19,328,,84,07,030,,85,04,080,*60
$GPGSA,A,3,05,07,17,19,20,24,30,,,,,,2.6,1.3,2.3*3E
$GNGSA,A,3,05,07,17,19,20,24,30,,,,,,2.6,1.3,2.3*20
$GNGSA,A,3,,,,,,,,,,,,,2.6,1.3,2.3*2B
$QZGSA,A,3,,,,,,,,,,,,,2.6,1.3,2.3*29
$IMGSA,A,3,,,,,,,,,,,,,2.6,1.3,2.3*26
$GPRMC,120118.00,A,4155.823431,N,01236.684050,E,000.0,,080219,,,A*7A
$GPGGA,120119.00,4155.823431,N,01236.684050,E,1,08,1.6,0.0,M,45.0,M,,*6B
$GPGSV,3,1,12,05,36,207,51,30,35,064,51,17,14,129,50,24,14,266,50*72
$GPGSV,3,2,12,07,05,073,48,20,01,330,48,19,01,152,48,08,00,023,*74
$GPGSV,3,3,12,13,75,333,51,28,60,073,51,15,41,307,51,04,,,48*48
$GLGSV,2,1,08,76,73,305,,66,70,302,,75,44,035,,65,39,164,*65
$GLGSV,2,2,08,77,20,240,,67,19,328,,84,07,030,,85,04,080,*60
$GPGSA,A,3,05,07,17,19,20,24,30,,,,,,2.6,1.3,2.3*3E
$GNGSA,A,3,05,07,17,19,20,24,30,,,,,,2.6,1.3,2.3*20
$GNGSA,A,3,,,,,,,,,,,,,2.6,1.3,2.3*2B
$QZGSA,A,3,,,,,,,,,,,,,2.6,1.3,2.3*29
$IMGSA,A,3,,,,,,,,,,,,,2.6,1.3,2.3*26
$GPRMC,120119.00,A,4155.823431,N,01236.684050,E,,,080219,,,A*55
$GPGGA,120120.00,4155.823431,N,01236.684050,E,1,08,1.6,0.0,M,45.0,M,,*61
$GPGSV,3,1,12,05,36,207,51,30,35,064,51,17,14,129,50,24,14,266,50*72
$GPGSV,3,2,12,07,05,073,48,20,01,330,48,19,01,152,48,08,00,023,*74
$GPGSV,3,3,12,13,75,333,51,28,60,073,51,15,41,307,51,04,,,48*48
$GLGSV,2,1,08,76,73,305,,66,70,302,,75,44,035,,65,39,164,*65
$GLGSV,2,2,08,77,20,240,,67,19,328,,84,07,030,,85,04,080,*60
$GPGSA,A,3,05,07,17,19,20,24,30,,,,,,2.6,1.3,2.3*3E
$GNGSA,A,3,05,07,17,19,20,24,30,,,,,,2.6,1.3,2.3*20
$GNGSA,A,3,,,,,,,,,,,,,2.6,1.3,2.3*2B
$QZGSA,A,3,,,,,,,,,,,,,2.6,1.3,2.3*29
$IMGSA,A,3,,,,,,,,,,,,,2.6,1.3,2.3*26
$GPRMC,120120.00,A,4155.823431,N,01236.684050,E,000.0,,080219,,,A*71
$GPGGA,120121.00,4155.823431,N,01236.684050,E,1,08,1.6,0.0,M,45.0,M,,*60
$GPGSV,3,1,12,05,36,207,51,30,35,064,51,17,14,129,50,24,14,266,50*72
$GPGSV,3,2,12,07,05,073,48,20,01,330,48,19,01,152,48,08,00,023,*74
$GPGSV,3,3,12,13,75,333,51,28,60,073,51,15,41,307,51,04,,,48*48
$GLGSV,2,1,08,76,73,305,,66,70,302,,75,43,035,,65,39,164,*62
$GLGSV,2,2,08,77,20,240,,67,19,328,,84,07,030,,85,04,080,*60
$GPGSA,A,3,05,07,17,19,20,24,30,,,,,,2.6,1.3,2.3*3E
$GNGSA,A,3,05,07,17,19,20,24,30,,,,,,2.6,1.3,2.3*20
$GNGSA,A,3,,,,,,,,,,,,,2.6,1.3,2.3*2B
$QZGSA,A,3,,,,,,,,,,,,,2.6,1.3,2.3*29
$IMGSA,A,3,,,,,,,,,,,,,2.6,1.3,2.3*26
$GPRMC,120121.00,A,4155.823431,N,01236.684050,E,000.0,,080219,,,A*70
$GPGGA,120122.00,4155.823431,N,01236.684050,E,1,08,1.6,0.0,M,45.0,M,,*63
$GPGSV,3,1,12,05,36,207,51,30,35,064,51,17,14,129,50,24,14,266,50*72
$GPGSV,3,2,12,07,05,073,48,20,01,330,48,19,01,152,48,08,00,023,*74
$GPGSV,3,3,12,13,75,333,51,28,60,073,51,15,41,307,51,04,,,48*48
$GLGSV,2,1,08,76,73,305,,66,70,302,,75,43,035,,65,39,164,*62
$GLGSV,2,2,08,77,20,240,,67,19,328,,84,07,030,,85,04,080,*60
$GPGSA,A,3,05,07,17,19,20,24,30,,,,,,2.6,1.3,2.3*3E
$GNGSA,A,3,05,07,17,19,20,24,30,,,,,,2.6,1.3,2.3*20
$GNGSA,A,3,,,,,,,,,,,,,2.6,1.3,2.3*2B
$QZGSA,A,3,,,,,,,,,,,,,2.6,1.3,2.3*29
$IMGSA,A,3,,,,,,,,,,,,,2.6,1.3,2.3*26
$GPRMC,120122.00,A,4155.823431,N,01236.684050,E,000.0,,080219,,,A*73
$GPGGA,120123.00,4155.823431,N,01236.684050,E,1,08,1.6,0.0,M,45.0,M,,*62
$GPGSV,3,1,12,05,36,207,51,30,35,064,51,17,14,129,50,24,14,266,50*72
$GPGSV,3,2,12,07,05,073,48,20,01,330,48,19,01,152,48,08,00,023,*74
$GPGSV,3,3,12,13,75,333,51,28,60,073,51,15,41,307,51,04,,,48*48
$GLGSV,2,1,08,76,73,305,,66,70,302,,75,43,035,,65,39,164,*62
$GLGSV,2,2,08,77,20,240,,67,19,328,,84,07,030,,85,04,080,*60
$GPGSA,A,3,05,07,17,19,20,24,30,,,,,,2.6,1.3,2.3*3E
$GNGSA,A,3,05,07,17,19,20,24,30,,,,,,2.6,1.3,2.3*20
$GNGSA,A,3,,,,,,,,,,,,,2.6,1.3,2.3*2B
$QZGSA,A,3,,,,,,,,,,,,,2.6,1.3,2.3*29
$IMGSA,A,3,,,,,,,,,,,,,2.6,1.3,2.3*26
$GPRMC,120123.00,A,4155.823431,N,01236.684050,E,000.0,,080219,,,A*72
$GPGGA,120124.00,4155.819370,N,01236.689195,E,1,08,1.6,0.0,M,45.0,M,,*6B
$GPGSV,3,1,12,05,36,207,51,30,35,064,51,17,14,129,50,24,14,266,50*72
$GPGSV,3,2,12,07,05,073,48,20,01,330,48,19,01,152,48,08,00,023,*74
$GPGSV,3,3,12,13,75,333,51,28,60,073,51,15,41,307,51,04,,,48*48
$GLGSV,2,1,08,76,73,305,,66,70,302,,75,43,035,,65,39,164,*62
$GLGSV,2,2,08,77,20,240,,67,19,328,,84,07,030,,85,04,080,*60
$GPGSA,A,3,05,07,17,19,20,24,30,,,,,,2.6,1.3,2.3*3E
$GNGSA,A,3,05,07,17,19,20,24,30,,,,,,2.6,1.3,2.3*20
$GNGSA,A,3,,,,,,,,,,,,,2.6,1.3,2.3*2B
$QZGSA,A,3,,,,,,,,,,,,,2.6,1.3,2.3*29
$IMGSA,A,3,,,,,,,,,,,,,2.6,1.3,2.3*26
$GPRMC,120124.00,A,4155.819370,N,01236.689195,E,000.0,,080219,,,A*7B
