$GPGGA,000000.00,,,,,0,00,999.9,,M,,M,,*66
$GPGSA,A,1,,,,,,,,,,,,,140.0,99.0,99.0*35
$GNGSA,A,1,,,,,,,,,,,,,140.0,99.0,99.0*2B
$GNGSA,A,1,,,,,,,,,,,,,140.0,99.0,99.0*2B
$QZGSA,A,1,,,,,,,,,,,,,140.0,99.0,99.0*29
$IMGSA,A,1,,,,,,,,,,,,,140.0,99.0,99.0*26
$GPRMC,000000.00,V,,,,,,,,,,N*7D
$GPGGA,000001.00,,,,,0,00,999.9,,M,,M,,*67
$GPGSA,A,1,,,,,,,,,,,,,140.0,99.0,99.0*35
$GNGSA,A,1,,,,,,,,,,,,,140.0,99.0,99.0*2B
$GNGSA,A,1,,,,,,,,,,,,,140.0,99.0,99.0*2B
$QZGSA,A,1,,,,,,,,,,,,,140.0,99.0,99.0*29
$IMGSA,A,1,,,,,,,,,,,,,140.0,99.0,99.0*26
$GPRMC,000001.00,V,,,,,,,,,,N*7C
$GPGGA,000001.00,,,,,0,00,999.9,,M,,M,,*67
$GPGSA,A,1,,,,,,,,,,,,,140.0,99.0,99.0*35
$GNGSA,A,1,,,,,,,,,,,,,140.0,99.0,99.0*2B
$GNGSA,A,1,,,,,,,,,,,,,140.0,99.0,99.0*2B
$QZGSA,A,1,,,,,,,,,,,,,140.0,99.0,99.0*29
$IMGSA,A,1,,,,,,,,,,,,,140.0,99.0,99.0*26
$GPRMC,000001.00,V,,,,,,,,,,N*7C
$GPGGA,000002.00,,,,,0,00,999.9,,M,,M,,*64
$GPGSA,A,1,,,,,,,,,,,,,140.0,99.0,99.0*35
$GNGSA,A,1,,,,,,,,,,,,,140.0,99.0,99.0*2B
$GNGSA,A,1,,,,,,,,,,,,,140.0,99.0,99.0*2B
$QZGSA,A,1,,,,,,,,,,,,,140.0,99.0,99.0*29
$IMGSA,A,1,,,,,,,,,,,,,140.0,99.0,99.0*26
$GPRMC,000002.00,V,,,,,,,,,,N*7F
$GPGGA,000003.00,,,,,0,00,999.9,,M,,M,,*65
$GPGSV,1,1,01,30,,,28*71
$GPGSA,A,1,,,,,,,,,,,,,140.0,99.0,99.0*35
$GNGSA,A,1,,,,,,,,,,,,,140.0,99.0,99.0*2B
$GNGSA,A,1,,,,,,,,,,,,,140.0,99.0,99.0*2B
$QZGSA,A,1,,,,,,,,,,,,,140.0,99.0,99.0*29
$IMGSA,A,1,,,,,,,,,,,,,140.0,99.0,99.0*26
$GPRMC,000003.00,V,,,,,,,,,,N*7E
$GPGGA,000004.00,,,,,0,00,999.9,,M,,M,,*62
$GPGSV,1,1,01,30,,,33*7B
$GPGSA,A,1,,,,,,,,,,,,,140.0,99.0,99.0*35
$GNGSA,A,1,,,,,,,,,,,,,140.0,99.0,99.0*2B
$GNGSA,A,1,,,,,,,,,,,,,140.0,99.0,99.0*2B
$QZGSA,A,1,,,,,,,,,,,,,140.0,99.0,99.0*29
$IMGSA,A,1,,,,,,,,,,,,,140.0,99.0,99.0*26
$GPRMC,000004.00,V,,,,,,,,,,N*79
$GPGGA,000005.00,,,,,0,00,999.9,,M,,M,,*63
$GPGSV,1,1,02,30,,,35,07,,,33*79
$GPGSA,A,1,,,,,,,,,,,,,140.0,99.0,99.0*35
$GNGSA,A,1,,,,,,,,,,,,,140.0,99.0,99.0*2B
$GNGSA,A,1,,,,,,,,,,,,,140.0,99.0,99.0*2B
$QZGSA,A,1,,,,,,,,,,,,,140.0,99.0,99.0*29
$IMGSA,A,1,,,,,,,,,,,,,140.0,99.0,99.0*26
$GPRMC,000005.00,V,,,,,,,,,,N*78
$GPGGA,000006.00,,,,,0,00,999.9,,M,,M,,*60
$GPGSV,1,1,03,26,,,23,07,,,35,30,,,35*7B
$GPGSA,A,1,,,,,,,,,,,,,140.0,99.0,99.0*35
$GNGSA,A,1,,,,,,,,,,,,,140.0,99.0,99.0*2B
$GNGSA,A,1,,,,,,,,,,,,,140.0,99.0,99.0*2B
$QZGSA,A,1,,,,,,,,,,,,,140.0,99.0,99.0*29
$IMGSA,A,1,,,,,,,,,,,,,140.0,99.0,99.0*26
$GPRMC,000006.00,V,,,,,,,,,,N*7B
$GPGGA,000007.00,,,,,0,00,999.9,,M,,M,,*61
$GPGSV,1,1,03,26,,,26,07,,,37,30,,,35*7C
$GPGSA,A,1,,,,,,,,,,,,,140.0,99.0,99.0*35
$GNGSA,A,1,,,,,,,,,,,,,140.0,99.0,99.0*2B
$GNGSA,A,1,,,,,,,,,,,,,140.0,99.0,99.0*2B
$QZGSA,A,1,,,,,,,,,,,,,140.0,99.0,99.0*29
$IMGSA,A,1,,,,,,,,,,,,,140.0,99.0,99.0*26
$GPRMC,000007.00,V,,,,,,,,,,N*7A
$GPGGA,000008.00,,,,,0,00,999.9,,M,,M,,*6E
$GPGSV,1,1,04,07,,,38,03,,,37,30,,,35,26,,,26*73
$GPGSA,A,1,,,,,,,,,,,,,140.0,99.0,99.0*35
$GNGSA,A,1,,,,,,,,,,,,,140.0,99.0,99.0*2B
$GNGSA,A,1,,,,,,,,,,,,,140.0,99.0,99.0*2B
$QZGSA,A,1,,,,,,,,,,,,,140.0,99.0,99.0*29
$IMGSA,A,1,,,,,,,,,,,,,140.0,99.0,99.0*26
$GPRMC,000008.00,V,,,,,,,,,,N*75
$GPGGA,000009.00,,,,,0,00,999.9,,M,,M,,*6F
$GPGSV,2,1,05,06,,,30,03,,,37,26,,,26,07,,,38*71
$GPGSV,2,2,05,30,,,35*79
$GPGSA,A,1,,,,,,,,,,,,,140.0,99.0,99.0*35
$GNGSA,A,1,,,,,,,,,,,,,140.0,99.0,99.0*2B
$GNGSA,A,1,,,,,,,,,,,,,140.0,99.0,99.0*2B
$QZGSA,A,1,,,,,,,,,,,,,140.0,99.0,99.0*29
$IMGSA,A,1,,,,,,,,,,,,,140.0,99.0,99.0*26
$GPRMC,000009.00,V,,,,,,,,,,N*74
$GPGGA,000010.00,,,,,0,00,999.9,,M,,M,,*67
$GPGSV,2,1,05,06,,,30,03,,,38,26,,,26,07,,,38*7E
$GPGSV,2,2,05,30,,,35*79
$GPGSA,A,1,,,,,,,,,,,,,140.0,99.0,99.0*35
$GNGSA,A,1,,,,,,,,,,,,,140.0,99.0,99.0*2B
$GNGSA,A,1,,,,,,,,,,,,,140.0,99.0,99.0*2B
$QZGSA,A,1,,,,,,,,,,,,,140.0,99.0,99.0*29
$IMGSA,A,1,,,,,,,,,,,,,140.0,99.0,99.0*26
$GPRMC,000010.00,V,,,,,,,,,,N*7C
$GPGGA,000011.00,,,,,0,00,999.9,,M,,M,,*66
$GPGSV,2,1,07,04,,,26,03,,,38,07,,,38,06,,,30*7C
$GPGSV,2,2,07,26,,,25,09,,,33,30,,,35*71
$GPGSA,A,1,,,,,,,,,,,,,140.0,99.0,99.0*35
$GNGSA,A,1,,,,,,,,,,,,,140.0,99.0,99.0*2B
$GNGSA,A,1,,,,,,,,,,,,,140.0,99.0,99.0*2B
$QZGSA,A,1,,,,,,,,,,,,,140.0,99.0,99.0*29
$IMGSA,A,1,,,,,,,,,,,,,140.0,99.0,99.0*26
$GPRMC,000011.00,V,,,,,,,,,,N*7D
$GPGGA,000012.00,,,,,0,00,999.9,,M,,M,,*65
$GPGSV,2,1,07,04,,,29,03,,,38,07,,,37,06,,,30*7C
$GPGSV,2,2,07,26,,,25,09,,,33,30,,,35*71
$GLGSV,1,1,03,80,,,32,68,,,36,79,,,37*6E
$GPGSA,A,1,,,,,,,,,,,,,140.0,99.0,99.0*35
$GNGSA,A,1,,,,,,,,,,,,,140.0,99.0,99.0*2B
$GNGSA,A,1,,,,,,,,,,,,,140.0,99.0,99.0*2B
$QZGSA,A,1,,,,,,,,,,,,,140.0,99.0,99.0*29
$IMGSA,A,1,,,,,,,,,,,,,140.0,99.0,99.0*26
$GPRMC,000012.00,V,,,,,,,,,,N*7E
$GPGGA,000013.00,,,,,0,00,999.9,,M,,M,,*64
$GPGSV,2,1,07,04,,,29,03,,,38,07,,,37,06,,,30*7C
$GPGSV,2,2,07,26,,,25,09,,,33,30,,,35*71
$GLGSV,1,1,03,80,,,32,68,,,37,79,,,38*60
$GPGSA,A,1,,,,,,,,,,,,,140.0,99.0,99.0*35
$GNGSA,A,1,,,,,,,,,,,,,140.0,99.0,99.0*2B
$GNGSA,A,1,,,,,,,,,,,,,140.0,99.0,99.0*2B
$QZGSA,A,1,,,,,,,,,,,,,140.0,99.0,99.0*29
$IMGSA,A,1,,,,,,,,,,,,,140.0,99.0,99.0*26
$GPRMC,000013.00,V,,,,,,,,,,N*7F
$GPGGA,000014.00,,,,,0,00,999.9,,M,,M,,*63
$GPGSV,2,1,07,04,,,29,03,,,38,07,,,37,06,,,29*74
$GPGSV,2,2,07,26,,,25,09,,,34,30,,,34*77
$GLGSV,1,1,03,80,,,32,68,,,37,79,,,38*60
$GPGSA,A,1,,,,,,,,,,,,,140.0,99.0,99.0*35
$GNGSA,A,1,,,,,,,,,,,,,140.0,99.0,99.0*2B
$GNGSA,A,1,,,,,,,,,,,,,140.0,99.0,99.0*2B
$QZGSA,A,1,,,,,,,,,,,,,140.0,99.0,99.0*29
$IMGSA,A,1,,,,,,,,,,,,,140.0,99.0,99.0*26
$GPRMC,000014.00,V,,,,,,,,,,N*78
$GPGGA,000015.00,,,,,0,00,999.9,,M,,M,,*62
$GPGSV,2,1,07,04,,,29,03,,,38,07,,,37,06,,,29*74
$GPGSV,2,2,07,26,,,25,09,,,35,30,,,33*71
$GLGSV,1,1,03,80,,,32,68,,,39,79,,,39*6F
$GPGSA,A,1,,,,,,,,,,,,,140.0,99.0,99.0*35
$GNGSA,A,1,,,,,,,,,,,,,140.0,99.0,99.0*2B
$GNGSA,A,1,,,,,,,,,,,,,140.0,99.0,99.0*2B
$QZGSA,A,1,,,,,,,,,,,,,140.0,99.0,99.0*29
$IMGSA,A,1,,,,,,,,,,,,,140.0,99.0,99.0*26
$GPRMC,000015.00,V,,,,,,,,,,N*79
$GPGGA,000016.00,,,,,0,00,999.9,,M,,M,,*61
$GPGSV,2,1,07,04,,,28,03,,,38,07,,,37,06,,,30*7D
$GPGSV,2,2,07,26,,,25,09,,,34,30,,,32*71
$GLGSV,1,1,03,80,,,32,68,,,39,79,,,39*6F
$GPGSA,A,1,,,,,,,,,,,,,140.0,99.0,99.0*35
$GNGSA,A,1,,,,,,,,,,,,,140.0,99.0,99.0*2B
$GNGSA,A,1,,,,,,,,,,,,,140.0,99.0,99.0*2B
$QZGSA,A,1,,,,,,,,,,,,,140.0,99.0,99.0*29
$IMGSA,A,1,,,,,,,,,,,,,140.0,99.0,99.0*26
$GPRMC,000016.00,V,,,,,,,,,,N*7A
$GPGGA,000017.00,,,,,0,00,999.9,,M,,M,,*60
$GPGSV,2,1,07,04,,,28,03,,,38,07,,,38,06,,,31*73
$GPGSV,2,2,07,26,,,25,09,,,34,30,,,31*72
$GLGSV,1,1,03,80,,,31,68,,,38,79,,,39*6D
$GPGSA,A,1,,,,,,,,,,,,,140.0,99.0,99.0*35
$GNGSA,A,1,,,,,,,,,,,,,140.0,99.0,99.0*2B
$GNGSA,A,1,,,,,,,,,,,,,140.0,99.0,99.0*2B
$QZGSA,A,1,,,,,,,,,,,,,140.0,99.0,99.0*29
$IMGSA,A,1,,,,,,,,,,,,,140.0,99.0,99.0*26
$GPRMC,000017.00,V,,,,,,,,,,N*7B
$GPGGA,000018.00,,,,,0,00,999.9,,M,,M,,*6F
$GPGSV,2,1,07,04,,,28,03,,,38,07,,,38,06,,,31*73
$GPGSV,2,2,07,26,,,25,09,,,34,30,,,31*72
$GLGSV,1,1,03,80,,,31,68,,,38,79,,,38*6C
$GPGSA,A,1,,,,,,,,,,,,,140.0,99.0,99.0*35
$GNGSA,A,1,,,,,,,,,,,,,140.0,99.0,99.0*2B
$GNGSA,A,1,,,,,,,,,,,,,140.0,99.0,99.0*2B
$QZGSA,A,1,,,,,,,,,,,,,140.0,99.0,99.0*29
$IMGSA,A,1,,,,,,,,,,,,,140.0,99.0,99.0*26
$GPRMC,000018.00,V,,,,,,,,,,N*74
$GPGGA,000019.00,,,,,0,00,999.9,,M,,M,,*6E
$GPGSV,2,1,07,04,,,28,03,,,38,07,,,38,06,,,31*73
$GPGSV,2,2,07,26,,,26,09,,,34,30,,,30*70
$GLGSV,1,1,03,80,,,31,68,,,38,79,,,38*6C
$GPGSA,A,1,,,,,,,,,,,,,140.0,99.0,99.0*35
$GNGSA,A,1,,,,,,,,,,,,,140.0,99.0,99.0*2B
$GNGSA,A,1,,,,,,,,,,,,,140.0,99.0,99.0*2B
$QZGSA,A,1,,,,,,,,,,,,,140.0,99.0,99.0*29
$IMGSA,A,1,,,,,,,,,,,,,140.0,99.0,99.0*26
$GPRMC,000019.00,V,,,,,,,,,,N*75
$GPGGA,000020.00,,,,,0,00,999.9,,M,,M,,*64
$GPGSV,2,1,07,04,,,28,03,,,39,07,,,38,06,,,30*73
$GPGSV,2,2,07,26,,,26,09,,,34,30,,,29*78
$GLGSV,1,1,03,80,,,31,68,,,37,79,,,38*63
$GPGSA,A,1,,,,,,,,,,,,,140.0,99.0,99.0*35
$GNGSA,A,1,,,,,,,,,,,,,140.0,99.0,99.0*2B
$GNGSA,A,1,,,,,,,,,,,,,140.0,99.0,99.0*2B
$QZGSA,A,1,,,,,,,,,,,,,140.0,99.0,99.0*29
$IMGSA,A,1,,,,,,,,,,,,,140.0,99.0,99.0*26
$GPRMC,000020.00,V,,,,,,,,,,N*7F
$GPGGA,000021.00,,,,,0,00,999.9,,M,,M,,*65
$GPGSV,2,1,08,04,,,27,03,,,40,07,,,38,06,,,29*75
$GPGSV,2,2,08,22,,,20,09,,,34,30,,,28,26,,,25*77
$GLGSV,1,1,03,79,,,39,80,,,31,68,,,37*62
$GPGSA,A,1,,,,,,,,,,,,,140.0,99.0,99.0*35
$GNGSA,A,1,,,,,,,,,,,,,140.0,99.0,99.0*2B
$GNGSA,A,1,,,,,,,,,,,,,140.0,99.0,99.0*2B
$QZGSA,A,1,,,,,,,,,,,,,140.0,99.0,99.0*29
$IMGSA,A,1,,,,,,,,,,,,,140.0,99.0,99.0*26
$GPRMC,000021.00,V,,,,,,,,,,N*7E
$GPGGA,072518.16,4156.030022,N,01236.603302,E,1,10,0.8,57.0,M,45.0,M,,*5F
$GPGSV,2,1,08,04,,,26,03,29,111,40,07,45,176,38,06,54,276,29*4D
$GPGSV,2,2,08,22,10,117,25,09,78,328,34,30,15,196,28,26,09,050,25*74
$GLGSV,1,1,04,80,22,157,30,74,,,37,68,16,082,37,79,46,096,39*50
$GPGSA,A,3,03,06,07,09,22,26,30,,,,,,1.8,1.1,1.5*33
$GNGSA,A,3,03,06,07,09,22,26,30,,,,,,1.8,1.1,1.5*2D
$GNGSA,A,3,68,79,80,,,,,,,,,,1.8,1.1,1.5*29
$QZGSA,A,3,,,,,,,,,,,,,1.8,1.1,1.5*23
$IMGSA,A,3,,,,,,,,,,,,,1.8,1.1,1.5*2C
$GPRMC,072518.16,A,4156.030022,N,01236.603302,E,002.3,,060219,,,A*74
$GPGGA,072519.15,4156.029153,N,01236.603419,E,1,10,1.2,58.4,M,45.0,M,,*5F
$GPGSV,4,1,13,09,78,328,34,06,54,276,28,07,45,176,38,03,29,111,43*7B
$GPGSV,4,2,13,30,15,196,28,22,10,117,29,26,09,050,25,04,,,26*4C
$GPGSV,4,3,13,23,56,051,,19,08,241,,17,00,222,,02,26,312,*7F
$GPGSV,4,4,13,16,10,076,*4C
$GLGSV,2,1,05,79,46,096,44,80,22,157,30,68,16,082,37,78,,,36*55
$GLGSV,2,2,05,69,55,040,*5B
$GPGSA,A,3,03,06,07,09,22,26,30,,,,,,1.8,1.1,1.5*33
$GNGSA,A,3,03,06,07,09,22,26,30,,,,,,1.8,1.1,1.5*2D
$GNGSA,A,3,68,79,80,,,,,,,,,,1.8,1.1,1.5*29
$QZGSA,A,3,,,,,,,,,,,,,1.8,1.1,1.5*23
$IMGSA,A,3,,,,,,,,,,,,,1.8,1.1,1.5*2C
$GPRMC,072519.15,A,4156.029153,N,01236.603419,E,000.0,,060219,,,A*75
$GPGGA,072520.15,4156.029078,N,01236.602043,E,1,13,1.2,58.0,M,45.0,M,,*50
$GPGSV,3,1,12,09,78,328,34,23,56,051,30,06,54,276,27,07,45,176,38*79
$GPGSV,3,2,12,03,29,111,42,30,15,196,30,22,10,117,29,26,09,050,25*7C
$GPGSV,3,3,12,19,08,241,22,16,10,076,32,04,,,25,02,26,312,*4E
$GLGSV,3,1,09,69,55,040,32,79,46,096,43,78,24,036,36,80,22,157,30*61
$GLGSV,3,2,09,68,16,082,37,70,38,305,,85,36,281,,84,21,220,*6C
$GLGSV,3,3,09,86,13,336,*56
$GPGSA,A,3,03,06,07,09,19,22,23,26,30,,,,1.7,1.0,1.3*32
$GNGSA,A,3,03,06,07,09,19,22,23,26,30,,,,1.7,1.0,1.3*2C
$GNGSA,A,3,68,69,79,80,,,,,,,,,1.7,1.0,1.3*2E
$QZGSA,A,3,,,,,,,,,,,,,1.7,1.0,1.3*2B
$IMGSA,A,3,,,,,,,,,,,,,1.7,1.0,1.3*24
$GPRMC,072520.15,A,4156.029078,N,01236.602043,E,001.4,,060219,,,A*78
$GPGGA,072521.00,4156.027991,N,01236.601194,E,1,13,0.8,54.4,M,45.0,M,,*5E
$GPGSV,3,1,12,09,78,328,33,23,56,051,30,06,54,276,27,07,45,176,38*7E
$GPGSV,3,2,12,03,29,111,42,30,15,196,35,22,10,117,29,26,09,050,25*79
$GPGSV,3,3,12,19,08,241,24,16,10,076,34,04,,,25,02,26,312,*4E
$GLGSV,3,1,09,69,55,040,32,79,46,096,43,78,24,036,35,80,22,157,30*62
$GLGSV,3,2,09,68,16,082,38,70,38,305,,85,36,281,,84,21,220,*63
$GLGSV,3,3,09,86,13,336,*56
$GPGSA,A,3,03,06,07,09,19,22,23,26,30,,,,1.7,1.0,1.4*35
$GNGSA,A,3,03,06,07,09,19,22,23,26,30,,,,1.7,1.0,1.4*2B
$GNGSA,A,3,68,69,79,80,,,,,,,,,1.7,1.0,1.4*29
$QZGSA,A,3,,,,,,,,,,,,,1.7,1.0,1.4*2C
$IMGSA,A,3,,,,,,,,,,,,,1.7,1.0,1.4*23
$GPRMC,072521.00,A,4156.027991,N,01236.601194,E,002.4,,060219,,,A*76
$GPGGA,072522.00,4156.026497,N,01236.599714,E,1,13,0.8,54.1,M,45.0,M,,*5E
$GPGSV,3,1,12,09,78,328,34,23,56,051,31,06,54,276,28,07,45,176,39*76
$GPGSV,3,2,12,03,29,111,42,30,15,196,36,22,10,117,28,26,09,050,24*7A
$GPGSV,3,3,12,19,08,241,25,16,10,076,33,04,,,28,02,26,312,*45
$GLGSV,3,1,09,69,55,040,32,79,46,096,42,78,24,036,35,80,22,157,33*60
$GLGSV,3,2,09,68,16,082,38,70,38,305,,85,36,281,,84,21,220,*63
$GLGSV,3,3,09,86,13,336,*56
$GPGSA,A,3,03,06,07,09,19,22,23,26,30,,,,1.7,1.0,1.3*32
$GNGSA,A,3,03,06,07,09,19,22,23,26,30,,,,1.7,1.0,1.3*2C
$GNGSA,A,3,68,69,79,80,,,,,,,,,1.7,1.0,1.3*2E
$QZGSA,A,3,,,,,,,,,,,,,1.7,1.0,1.3*2B
$IMGSA,A,3,,,,,,,,,,,,,1.7,1.0,1.3*24
$GPRMC,072522.00,A,4156.026497,N,01236.599714,E,002.8,,060219,,,A*7F
$GPGGA,072523.00,4156.025612,N,01236.597500,E,1,14,0.8,51.7,M,45.0,M,,*5E
$GPGSV,3,1,12,09,78,328,37,23,56,051,31,06,54,276,33,07,45,176,39*7F
$GPGSV,3,2,12,03,29,111,41,30,15,196,39,22,10,117,28,26,09,050,24*76
$GPGSV,3,3,12,19,08,241,26,16,10,076,32,04,,,31,02,26,312,*4F
$GLGSV,3,1,09,69,55,040,32,79,46,096,42,78,24,036,34,80,22,157,35*67
$GLGSV,3,2,09,68,16,082,38,86,13,336,22,70,38,305,,85,36,281,*66
$GLGSV,3,3,09,84,21,220,*53
$GPGSA,A,3,03,06,07,09,19,22,23,26,30,,,,1.7,1.0,1.3*32
$GNGSA,A,3,03,06,07,09,19,22,23,26,30,,,,1.7,1.0,1.3*2C
$GNGSA,A,3,68,69,79,80,86,,,,,,,,1.7,1.0,1.3*20
$QZGSA,A,3,,,,,,,,,,,,,1.7,1.0,1.3*2B
$IMGSA,A,3,,,,,,,,,,,,,1.7,1.0,1.3*24
$GPRMC,072523.00,A,4156.025612,N,01236.597500,E,003.3,,060219,,,A*71
$GPGGA,072524.00,4156.024674,N,01236.597124,E,1,14,0.8,51.0,M,45.0,M,,*5D
$GPGSV,3,1,12,09,78,328,37,23,56,051,33,06,54,276,33,07,45,176,40*73
$GPGSV,3,2,12,03,29,111,41,30,15,196,39,22,10,117,29,26,09,050,23*70
$GPGSV,3,3,12,19,08,241,32,16,10,076,32,04,,,31,02,26,312,*4A
$GLGSV,3,1,09,69,55,040,31,79,46,096,42,78,24,036,33,80,23,157,35*62
$GLGSV,3,2,09,68,16,082,37,86,13,336,22,70,38,305,,85,36,281,*69
$GLGSV,3,3,09,84,21,220,*53
$GPGSA,A,3,03,06,07,09,19,22,23,26,30,,,,1.7,1.0,1.3*32
$GNGSA,A,3,03,06,07,09,19,22,23,26,30,,,,1.7,1.0,1.3*2C
$GNGSA,A,3,68,69,79,80,86,,,,,,,,1.7,1.0,1.3*20
$QZGSA,A,3,,,,,,,,,,,,,1.7,1.0,1.3*2B
$IMGSA,A,3,,,,,,,,,,,,,1.7,1.0,1.3*24
$GPRMC,072524.00,A,4156.024674,N,01236.597124,E,003.0,,060219,,,A*76
$GPGGA,072525.00,4156.023868,N,01236.596923,E,1,15,0.6,50.8,M,45.0,M,,*50
$GPGSV,3,1,12,09,78,328,36,23,56,051,33,06,54,276,33,07,45,176,40*72
$GPGSV,3,2,12,03,29,111,41,30,15,196,39,22,10,117,29,26,09,050,23*70
$GPGSV,3,3,12,19,08,241,36,16,10,076,31,04,,,30,02,26,312,*4C
$GLGSV,3,1,09,69,55,040,31,79,46,096,42,78,24,036,33,80,23,157,34*63
$GLGSV,3,2,09,84,21,220,30,68,16,082,37,86,13,336,22,70,38,305,*66
$GLGSV,3,3,09,85,36,281,*5F
$GPGSA,A,3,03,06,07,09,19,22,23,26,30,,,,1.7,1.0,1.3*32
$GNGSA,A,3,03,06,07,09,19,22,23,26,30,,,,1.7,1.0,1.3*2C
$GNGSA,A,3,68,69,79,80,84,86,,,,,,,1.7,1.0,1.3*2C
$QZGSA,A,3,,,,,,,,,,,,,1.7,1.0,1.3*2B
$IMGSA,A,3,,,,,,,,,,,,,1.7,1.0,1.3*24
$GPRMC,072525.00,A,4156.023868,N,01236.596923,E,003.2,,060219,,,A*7F
$GPGGA,072526.00,4156.022908,N,01236.597015,E,1,17,0.6,51.0,M,45.0,M,,*53
$GPGSV,3,1,12,09,78,328,36,23,56,051,32,06,54,276,33,07,45,176,39*7D
$GPGSV,3,2,12,03,29,111,40,30,15,196,38,22,10,117,29,26,09,050,23*70
$GPGSV,3,3,12,19,08,241,35,16,10,076,31,04,,,30,02,26,312,*4F
$GLGSV,3,1,09,69,55,040,31,79,46,096,41,70,38,305,17,85,36,281,31*6C
$GLGSV,3,2,09,78,24,036,32,80,23,157,34,84,21,220,30,68,16,082,36*67
$GLGSV,3,3,09,86,13,336,21*55
$GPGSA,A,3,03,06,07,09,19,22,23,26,30,,,,1.7,1.0,1.3*32
$GNGSA,A,3,03,06,07,09,19,22,23,26,30,,,,1.7,1.0,1.3*2C
$GNGSA,A,3,68,69,70,79,80,84,85,86,,,,,1.7,1.0,1.3*26
$QZGSA,A,3,,,,,,,,,,,,,1.7,1.0,1.3*2B
$IMGSA,A,3,,,,,,,,,,,,,1.7,1.0,1.3*24
$GPRMC,072526.00,A,4156.022908,N,01236.597015,E,003.9,,060219,,,A*7C
$GPGGA,072527.00,4156.022908,N,01236.597015,E,1,16,0.6,50.4,M,45.0,M,,*56
$GPGSV,3,1,12,09,78,328,35,23,56,051,32,06,54,276,32,07,45,176,39*7F
$GPGSV,3,2,12,03,29,111,40,30,15,196,38,22,10,117,33,26,09,050,25*7D
$GPGSV,3,3,12,19,08,241,35,16,10,076,30,04,,,30,02,26,312,*4E
$GLGSV,3,1,09,69,55,040,31,79,46,096,41,70,38,305,17,85,36,281,33*6E
$GLGSV,3,2,09,78,24,036,32,80,23,157,33,84,21,220,29,68,16,082,36*68
$GLGSV,3,3,09,86,13,336,*56
$GPGSA,A,3,03,06,07,09,19,22,23,26,30,,,,1.7,0.9,1.4*3D
$GNGSA,A,3,03,06,07,09,19,22,23,26,30,,,,1.7,0.9,1.4*23
$GNGSA,A,3,68,69,70,79,80,84,85,,,,,,1.7,0.9,1.4*27
$QZGSA,A,3,,,,,,,,,,,,,1.7,0.9,1.4*24
$IMGSA,A,3,,,,,,,,,,,,,1.7,0.9,1.4*2B
$GPRMC,072527.00,A,4156.022908,N,01236.597015,E,000.0,,060219,,,A*77
$GPGGA,072528.00,4156.022908,N,01236.597015,E,1,15,0.6,49.7,M,45.0,M,,*51
$GPGSV,3,1,12,09,78,328,35,23,56,051,32,06,54,276,32,07,45,176,39*7F
$GPGSV,3,2,12,03,29,111,39,30,15,196,37,22,10,117,33,26,09,050,25*7C
$GPGSV,3,3,12,19,08,241,34,16,10,076,30,04,,,29,02,26,312,*47
$GLGSV,3,1,09,69,55,040,30,79,46,096,40,70,38,305,21,85,36,281,33*6B
$GLGSV,3,2,09,78,24,036,31,80,23,157,33,84,21,220,,68,16,082,36*60
$GLGSV,3,3,09,86,13,336,*56
$GPGSA,A,3,03,06,07,09,19,22,23,26,30,,,,1.9,1.0,1.6*39
$GNGSA,A,3,03,06,07,09,19,22,23,26,30,,,,1.9,1.0,1.6*27
$GNGSA,A,3,68,69,70,79,80,85,,,,,,,1.9,1.0,1.6*2F
$QZGSA,A,3,,,,,,,,,,,,,1.9,1.0,1.6*20
$IMGSA,A,3,,,,,,,,,,,,,1.9,1.0,1.6*2F
$GPRMC,072528.00,A,4156.022908,N,01236.597015,E,000.0,,060219,,,A*78
$GPGGA,072529.00,4156.021026,N,01236.596926,E,1,15,0.6,49.2,M,45.0,M,,*5B
$GPGSV,3,1,12,09,78,328,35,23,56,051,32,06,54,276,32,07,45,176,39*7F
$GPGSV,3,2,12,03,29,111,39,30,15,196,37,22,10,117,33,26,09,050,25*7C
$GPGSV,3,3,12,19,08,241,33,02,26,312,16,16,10,076,33,04,,,29*44
$GLGSV,3,1,09,69,55,040,30,79,46,096,40,70,38,305,,85,36,281,33*68
$GLGSV,3,2,09,78,24,036,30,80,23,157,33,84,21,220,26,68,16,082,37*64
$GLGSV,3,3,09,86,13,336,*56
$GPGSA,A,3,03,06,07,09,19,22,23,26,30,,,,1.9,1.0,1.6*39
$GNGSA,A,3,03,06,07,09,19,22,23,26,30,,,,1.9,1.0,1.6*27
$GNGSA,A,3,68,69,79,80,84,85,,,,,,,1.9,1.0,1.6*24
$QZGSA,A,3,,,,,,,,,,,,,1.9,1.0,1.6*20
$IMGSA,A,3,,,,,,,,,,,,,1.9,1.0,1.6*2F
$GPRMC,072529.00,A,4156.021026,N,01236.596926,E,001.6,,060219,,,A*70
$GPGGA,072530.00,4156.019903,N,01236.596954,E,1,15,0.6,48.9,M,45.0,M,,*59
$GPGSV,3,1,12,09,78,328,34,23,56,051,32,06,54,276,31,07,45,176,39*7D
$GPGSV,3,2,12,03,29,111,38,30,15,196,37,22,10,117,33,26,09,050,26*7E
$GPGSV,3,3,12,19,08,241,32,02,26,312,17,16,10,076,33,04,,,29*44
$GLGSV,3,1,09,69,55,040,32,79,46,096,39,70,38,305,,85,36,281,33*64
$GLGSV,3,2,09,78,24,035,30,80,23,157,33,84,21,220,26,68,16,082,37*67
$GLGSV,3,3,09,86,13,336,*56
$GPGSA,A,3,03,06,07,09,19,22,23,26,30,,,,1.9,1.0,1.6*39
$GNGSA,A,3,03,06,07,09,19,22,23,26,30,,,,1.9,1.0,1.6*27
$GNGSA,A,3,68,69,79,80,84,85,,,,,,,1.9,1.0,1.6*24
$QZGSA,A,3,,,,,,,,,,,,,1.9,1.0,1.6*20
$IMGSA,A,3,,,,,,,,,,,,,1.9,1.0,1.6*2F
$GPRMC,072530.00,A,4156.019903,N,01236.596954,E,002.6,181.3,060219,,,A*5E
$GPGGA,072531.00,4156.019039,N,01236.596754,E,1,15,0.6,49.2,M,45.0,M,,*5C
$GPGSV,3,1,12,09,78,328,34,23,56,051,32,06,54,276,31,07,45,176,38*7C
$GPGSV,3,2,12,03,29,111,38,30,15,196,37,22,10,117,34,26,09,050,31*7F
$GPGSV,3,3,12,19,08,241,31,02,26,312,22,16,10,076,33,04,,,29*41
$GLGSV,3,1,09,69,55,040,32,79,46,096,39,70,38,305,,85,36,281,32*65
$GLGSV,3,2,09,78,24,035,29,80,23,157,33,84,21,220,29,68,16,082,37*60
$GLGSV,3,3,09,86,13,336,*56
$GPGSA,A,3,03,06,07,09,19,22,23,26,30,,,,1.9,1.0,1.6*39
$GNGSA,A,3,03,06,07,09,19,22,23,26,30,,,,1.9,1.0,1.6*27
$GNGSA,A,3,68,69,79,80,84,85,,,,,,,1.9,1.0,1.6*24
$QZGSA,A,3,,,,,,,,,,,,,1.9,1.0,1.6*20
$IMGSA,A,3,,,,,,,,,,,,,1.9,1.0,1.6*2F
$GPRMC,072531.00,A,4156.019039,N,01236.596754,E,002.6,191.3,060219,,,A*50
$GPGGA,072532.00,4156.018818,N,01236.596950,E,1,14,0.6,48.3,M,45.0,M,,*5E
$GPGSV,3,1,12,09,78,328,34,23,56,051,32,06,54,276,31,07,45,176,39*7D
$GPGSV,3,2,12,03,29,111,38,30,15,196,38,22,10,117,34,26,09,050,31*70
$GPGSV,3,3,12,19,08,241,31,02,26,312,,16,10,076,33,04,,,29*41
$GLGSV,3,1,09,69,55,040,32,79,46,096,39,85,36,281,32,78,24,035,*60
$GLGSV,3,2,09,80,23,157,33,84,21,220,,68,16,082,37,70,38,305,*65
$GLGSV,3,3,09,86,13,336,*56
$GPGSA,A,3,03,06,07,09,19,22,23,26,30,,,,1.9,1.1,1.5*3B
$GNGSA,A,3,03,06,07,09,19,22,23,26,30,,,,1.9,1.1,1.5*25
$GNGSA,A,3,68,69,79,80,85,,,,,,,,1.9,1.1,1.5*2A
$QZGSA,A,3,,,,,,,,,,,,,1.9,1.1,1.5*22
$IMGSA,A,3,,,,,,,,,,,,,1.9,1.1,1.5*2D
$GPRMC,072532.00,A,4156.018818,N,01236.596950,E,002.8,190.4,060219,,,A*5B
$GPGGA,072533.00,4156.017827,N,01236.596843,E,1,15,0.6,48.7,M,45.0,M,,*5A
$GPGSV,3,1,12,09,78,328,34,23,56,051,33,06,54,276,31,07,45,176,39*7C
$GPGSV,3,2,12,03,29,111,38,30,15,196,40,22,10,117,35,26,09,050,30*7F
$GPGSV,3,3,12,19,08,241,31,02,26,312,,16,10,076,33,04,,,29*41
$GLGSV,3,1,09,69,55,040,32,79,46,096,39,85,36,281,32,78,24,035,30*63
$GLGSV,3,2,09,80,23,157,33,84,21,220,32,68,16,082,37,70,38,305,*64
$GLGSV,3,3,09,86,13,336,*56
$GPGSA,A,3,03,06,07,09,19,22,23,26,30,,,,1.9,1.1,1.5*3B
$GNGSA,A,3,03,06,07,09,19,22,23,26,30,,,,1.9,1.1,1.5*25
$GNGSA,A,3,68,69,79,80,84,85,,,,,,,1.9,1.1,1.5*26
$QZGSA,A,3,,,,,,,,,,,,,1.9,1.1,1.5*22
$IMGSA,A,3,,,,,,,,,,,,,1.9,1.1,1.5*2D
$GPRMC,072533.00,A,4156.017827,N,01236.596843,E,002.5,173.2,060219,,,A*5C
$GPGGA,072534.00,4156.017280,N,01236.597032,E,1,15,0.6,48.3,M,45.0,M,,*51
$GPGSV,3,1,12,09,78,328,34,23,56,051,33,06,54,276,31,07,45,176,39*7C
$GPGSV,3,2,12,03,29,111,38,30,15,196,39,22,10,117,35,26,09,050,31*70
$GPGSV,3,3,12,19,08,241,30,02,26,312,,16,10,076,33,04,,,29*40
$GLGSV,3,1,09,69,55,040,32,79,46,096,38,85,36,281,34,80,23,157,33*62
$GLGSV,3,2,09,78,23,035,30,84,21,220,31,68,16,082,36,70,38,305,*67
$GLGSV,3,3,09,86,13,336,*56
$GPGSA,A,3,03,06,07,09,19,22,23,26,30,,,,1.7,1.0,1.3*32
$GNGSA,A,3,03,06,07,09,19,22,23,26,30,,,,1.7,1.0,1.3*2C
$GNGSA,A,3,68,69,79,80,84,85,,,,,,,1.7,1.0,1.3*2F
$QZGSA,A,3,,,,,,,,,,,,,1.7,1.0,1.3*2B
$IMGSA,A,3,,,,,,,,,,,,,1.7,1.0,1.3*24
$GPRMC,072534.00,A,4156.017280,N,01236.597032,E,002.8,130.6,060219,,,A*5D
$GPGGA,072535.00,4156.016415,N,01236.597751,E,1,15,0.6,47.9,M,45.0,M,,*5C
$GPGSV,3,1,12,09,78,328,34,23,56,051,33,06,54,276,31,07,45,176,39*7C
$GPGSV,3,2,12,03,29,111,38,30,15,196,39,22,10,117,36,26,09,050,30*72
$GPGSV,3,3,12,19,08,241,30,16,10,076,33,04,,,28,02,26,312,*41
$GLGSV,3,1,09,69,55,040,32,79,46,096,38,85,36,281,34,78,23,035,30*63
$GLGSV,3,2,09,80,23,157,33,84,21,220,31,68,16,082,36,70,38,305,*66
$GLGSV,3,3,09,86,13,336,*56
$GPGSA,A,3,03,06,07,09,19,22,23,26,30,,,,1.9,1.1,1.5*3B
$GNGSA,A,3,03,06,07,09,19,22,23,26,30,,,,1.9,1.1,1.5*25
$GNGSA,A,3,68,69,79,80,84,85,,,,,,,1.9,1.1,1.5*26
$QZGSA,A,3,,,,,,,,,,,,,1.9,1.1,1.5*22
$IMGSA,A,3,,,,,,,,,,,,,1.9,1.1,1.5*2D
$GPRMC,072535.00,A,4156.016415,N,01236.597751,E,003.1,170.0,060219,,,A*5F
$GPGGA,072536.00,4156.015279,N,01236.598133,E,1,14,0.6,48.2,M,45.0,M,,*58
$GPGSV,3,1,12,09,78,328,33,23,56,051,34,06,54,276,31,07,45,176,39*7C
$GPGSV,3,2,12,03,28,111,37,30,15,196,38,22,10,117,36,26,09,050,30*7D
$GPGSV,3,3,12,19,08,241,30,16,10,076,33,04,,,28,02,26,312,*41
$GLGSV,3,1,09,69,55,040,32,79,46,096,38,85,36,281,34,78,23,035,*60
$GLGSV,3,2,09,80,23,157,33,84,21,220,,68,16,082,36,70,38,305,*64
$GLGSV,3,3,09,86,13,336,*56
$GPGSA,A,3,03,06,07,09,19,22,23,26,30,,,,1.4,0.9,1.2*38
$GNGSA,A,3,03,06,07,09,19,22,23,26,30,,,,1.4,0.9,1.2*26
$GNGSA,A,3,68,69,79,80,85,,,,,,,,1.4,0.9,1.2*29
$QZGSA,A,3,,,,,,,,,,,,,1.4,0.9,1.2*21
$IMGSA,A,3,,,,,,,,,,,,,1.4,0.9,1.2*2E
$GPRMC,072536.00,A,4156.015279,N,01236.598133,E,003.4,168.6,060219,,,A*54
$GPGGA,072537.00,4156.014322,N,01236.598394,E,1,14,0.6,48.4,M,45.0,M,,*5E
$GPGSV,3,1,12,09,78,328,33,23,56,051,34,06,54,276,30,07,45,176,38*7C
$GPGSV,3,2,12,03,28,111,37,30,15,196,37,22,10,117,35,26,09,050,30*71
$GPGSV,3,3,12,19,08,241,30,16,10,076,32,04,,,27,02,26,312,*4F
$GLGSV,3,1,09,69,55,040,31,79,46,096,38,85,36,281,34,78,23,035,*63
$GLGSV,3,2,09,80,23,157,32,84,21,220,,68,16,082,36,70,38,305,*65
$GLGSV,3,3,09,86,13,336,*56
$GPGSA,A,3,03,06,07,09,19,22,23,26,30,,,,1.4,0.8,1.1*3A
$GNGSA,A,3,03,06,07,09,19,22,23,26,30,,,,1.4,0.8,1.1*24
$GNGSA,A,3,68,69,79,80,85,,,,,,,,1.4,0.8,1.1*2B
$QZGSA,A,3,,,,,,,,,,,,,1.4,0.8,1.1*23
$IMGSA,A,3,,,,,,,,,,,,,1.4,0.8,1.1*2C
$GPRMC,072537.00,A,4156.014322,N,01236.598394,E,003.5,172.0,060219,,,A*58
$GPGGA,072538.00,4156.013464,N,01236.598728,E,1,14,0.6,48.5,M,45.0,M,,*51
$GPGSV,3,1,12,09,78,328,33,23,56,051,35,06,54,276,30,07,45,176,38*7D
$GPGSV,3,2,12,03,28,111,37,30,15,196,37,22,10,117,35,26,09,050,30*71
$GPGSV,3,3,12,19,08,241,30,16,10,076,32,04,,,27,02,26,312,*4F
$GLGSV,3,1,09,69,55,040,31,79,46,096,38,85,36,281,33,78,23,035,*64
$GLGSV,3,2,09,80,23,157,32,84,21,220,,68,16,082,36,70,38,305,*65
$GLGSV,3,3,09,86,13,336,*56
$GPGSA,A,3,03,06,07,09,19,22,23,26,30,,,,1.4,0.9,1.2*38
$GNGSA,A,3,03,06,07,09,19,22,23,26,30,,,,1.4,0.9,1.2*26
$GNGSA,A,3,68,69,79,80,85,,,,,,,,1.4,0.9,1.2*29
$QZGSA,A,3,,,,,,,,,,,,,1.4,0.9,1.2*21
$IMGSA,A,3,,,,,,,,,,,,,1.4,0.9,1.2*2E
$GPRMC,072538.00,A,4156.013464,N,01236.598728,E,003.3,167.2,060219,,,A*56
$GPGGA,072539.00,4156.012716,N,01236.599191,E,1,14,0.6,48.7,M,45.0,M,,*50
$GPGSV,3,1,12,09,78,328,33,23,56,051,34,06,54,276,30,07,45,176,38*7C
$GPGSV,3,2,12,03,28,111,37,30,15,196,37,22,10,117,35,26,09,050,30*71
$GPGSV,3,3,12,19,08,241,30,16,10,076,32,04,,,,02,26,312,*4A
$GLGSV,3,1,09,69,55,040,31,79,46,096,37,85,36,281,32,78,23,035,*6A
$GLGSV,3,2,09,80,23,157,31,84,21,220,,68,16,082,36,70,38,305,*66
$GLGSV,3,3,09,86,13,336,*56
$GPGSA,A,3,03,06,07,09,19,22,23,26,30,,,,1.4,0.9,1.2*38
$GNGSA,A,3,03,06,07,09,19,22,23,26,30,,,,1.4,0.9,1.2*26
$GNGSA,A,3,68,69,79,80,85,,,,,,,,1.4,0.9,1.2*29
$QZGSA,A,3,,,,,,,,,,,,,1.4,0.9,1.2*21
$IMGSA,A,3,,,,,,,,,,,,,1.4,0.9,1.2*2E
$GPRMC,072539.00,A,4156.012716,N,01236.599191,E,003.3,167.9,060219,,,A*5E
$GPGGA,072540.00,4156.012011,N,01236.599537,E,1,14,0.6,49.1,M,45.0,M,,*51
$GPGSV,3,1,11,09,78,328,35,23,56,051,34,06,54,276,31,07,45,176,38*78
$GPGSV,3,2,11,03,28,111,36,30,15,196,36,22,10,117,35,26,09,050,30*72
$GPGSV,3,3,11,19,08,241,29,16,10,076,31,02,26,312,*46
$GLGSV,3,1,09,69,55,040,32,79,46,096,37,85,36,281,32,80,23,157,31*69
$GLGSV,3,2,09,68,16,082,35,70,38,305,,78,23,035,,84,21,220,*65
$GLGSV,3,3,09,86,13,336,*56
$GPGSA,A,3,03,06,07,09,19,22,23,26,30,,,,1.4,0.9,1.2*38
$GNGSA,A,3,03,06,07,09,19,22,23,26,30,,,,1.4,0.9,1.2*26
$GNGSA,A,3,68,69,79,80,85,,,,,,,,1.4,0.9,1.2*29
$QZGSA,A,3,,,,,,,,,,,,,1.4,0.9,1.2*21
$IMGSA,A,3,,,,,,,,,,,,,1.4,0.9,1.2*2E
$GPRMC,072540.00,A,4156.012011,N,01236.599537,E,003.0,171.5,060219,,,A*50
$GPGGA,072541.00,4156.012193,N,01236.599654,E,1,14,0.4,48.8,M,45.0,M,,*57
$GPGSV,3,1,11,09,78,328,35,23,56,051,34,06,54,276,32,07,45,176,38*7B
$GPGSV,3,2,11,03,28,111,37,30,15,196,36,22,10,117,35,26,09,050,29*7B
$GPGSV,3,3,11,19,08,241,29,16,10,076,31,02,26,312,*46
$GLGSV,3,1,09,69,55,040,32,79,46,096,37,85,36,281,32,80,23,157,31*69
$GLGSV,3,2,09,68,16,082,35,70,38,305,,78,23,035,,84,21,220,*65
$GLGSV,3,3,09,86,13,336,*56
$GPGSA,A,3,03,06,07,09,19,22,23,26,30,,,,1.4,0.8,1.2*39
$GNGSA,A,3,03,06,07,09,19,22,23,26,30,,,,1.4,0.8,1.2*27
$GNGSA,A,3,68,69,79,80,85,,,,,,,,1.4,0.8,1.2*28
$QZGSA,A,3,,,,,,,,,,,,,1.4,0.8,1.2*20
$IMGSA,A,3,,,,,,,,,,,,,1.4,0.8,1.2*2F
$GPRMC,072541.00,A,4156.012193,N,01236.599654,E,002.8,173.4,060219,,,A*56
$GPGGA,072542.00,4156.011860,N,01236.599871,E,1,14,0.4,48.1,M,45.0,M,,*52
$GPGSV,3,1,11,09,78,329,35,23,56,051,34,06,54,276,32,07,45,176,38*7A
$GPGSV,3,2,11,03,28,111,38,30,15,196,35,22,10,117,36,26,09,050,29*74
$GPGSV,3,3,11,19,08,241,28,16,10,076,31,02,26,312,*47
$GLGSV,3,1,09,69,55,040,32,79,46,096,37,85,36,281,32,80,23,157,31*69
$GLGSV,3,2,09,68,16,082,35,70,38,305,,78,23,035,,84,21,220,*65
$GLGSV,3,3,09,86,13,336,*56
$GPGSA,A,3,03,06,07,09,19,22,23,26,30,,,,1.4,0.8,1.2*39
$GNGSA,A,3,03,06,07,09,19,22,23,26,30,,,,1.4,0.8,1.2*27
$GNGSA,A,3,68,69,79,80,85,,,,,,,,1.4,0.8,1.2*28
$QZGSA,A,3,,,,,,,,,,,,,1.4,0.8,1.2*20
$IMGSA,A,3,,,,,,,,,,,,,1.4,0.8,1.2*2F
$GPRMC,072542.00,A,4156.011860,N,01236.599871,E,002.6,173.5,060219,,,A*55
$GPGGA,072543.00,4156.011293,N,01236.600056,E,1,14,0.4,47.4,M,45.0,M,,*51
$GPGSV,3,1,11,09,78,329,34,23,56,051,36,06,54,276,31,07,45,176,37*75
$GPGSV,3,2,11,03,28,111,37,30,15,196,35,22,10,117,37,26,09,050,29*7A
$GPGSV,3,3,11,19,08,241,27,16,10,076,31,02,26,312,*48
$GLGSV,3,1,09,69,55,040,32,79,46,096,36,85,36,281,32,80,23,157,31*68
$GLGSV,3,2,09,68,16,082,35,70,38,305,,78,23,035,,84,21,220,*65
$GLGSV,3,3,09,86,13,336,*56
$GPGSA,A,3,03,06,07,09,19,22,23,26,30,,,,1.4,0.8,1.2*39
$GNGSA,A,3,03,06,07,09,19,22,23,26,30,,,,1.4,0.8,1.2*27
$GNGSA,A,3,68,69,79,80,85,,,,,,,,1.4,0.8,1.2*28
$QZGSA,A,3,,,,,,,,,,,,,1.4,0.8,1.2*20
$IMGSA,A,3,,,,,,,,,,,,,1.4,0.8,1.2*2F
$GPRMC,072543.00,A,4156.011293,N,01236.600056,E,002.8,170.7,060219,,,A*53
$GPGGA,072544.00,4156.010490,N,01236.600287,E,1,14,0.4,46.9,M,45.0,M,,*50
$GPGSV,3,1,11,09,78,329,34,23,56,051,36,06,54,276,31,07,45,176,37*75
$GPGSV,3,2,11,03,28,111,37,30,15,196,36,22,10,117,37,26,09,050,32*73
$GPGSV,3,3,11,19,08,241,26,16,10,076,31,02,26,312,*49
$GLGSV,3,1,09,69,55,040,32,79,46,096,36,85,36,281,31,80,23,157,31*6B
$GLGSV,3,2,09,68,16,082,35,70,38,305,,78,23,035,,84,21,220,*65
$GLGSV,3,3,09,86,13,336,*56
$GPGSA,A,3,03,06,07,09,19,22,23,26,30,,,,1.4,0.8,1.2*39
$GNGSA,A,3,03,06,07,09,19,22,23,26,30,,,,1.4,0.8,1.2*27
$GNGSA,A,3,68,69,79,80,85,,,,,,,,1.4,0.8,1.2*28
$QZGSA,A,3,,,,,,,,,,,,,1.4,0.8,1.2*20
$IMGSA,A,3,,,,,,,,,,,,,1.4,0.8,1.2*2F
$GPRMC,072544.00,A,4156.010490,N,01236.600287,E,003.1,175.6,060219,,,A*52
$GPGGA,072545.00,4156.009612,N,01236.600542,E,1,14,0.4,46.2,M,45.0,M,,*54
$GPGSV,3,1,11,09,78,329,34,23,56,051,35,06,54,276,31,07,45,176,37*76
$GPGSV,3,2,11,03,28,111,37,30,15,196,36,22,10,117,37,26,09,050,34*75
$GPGSV,3,3,11,19,08,241,25,16,10,076,32,02,26,312,*49
$GLGSV,3,1,09,69,55,040,33,79,46,096,36,85,36,281,31,78,23,035,28*60
$GLGSV,3,2,09,80,23,157,30,68,16,082,35,70,38,305,,84,21,220,*64
$GLGSV,3,3,09,86,13,336,*56
$GPGSA,A,3,03,06,07,09,19,22,23,26,30,,,,1.5,0.9,1.3*38
$GNGSA,A,3,03,06,07,09,19,22,23,26,30,,,,1.5,0.9,1.3*26
$GNGSA,A,3,68,69,79,80,85,,,,,,,,1.5,0.9,1.3*29
$QZGSA,A,3,,,,,,,,,,,,,1.5,0.9,1.3*21
$IMGSA,A,3,,,,,,,,,,,,,1.5,0.9,1.3*2E
$GPRMC,072545.00,A,4156.009612,N,01236.600542,E,003.0,171.4,060219,,,A*5A
$GPGGA,072546.00,4156.008880,N,01236.600776,E,1,14,0.4,45.7,M,45.0,M,,*50
$GPGSV,3,1,11,09,78,329,34,23,56,051,35,06,54,275,31,07,45,176,37*75
$GPGSV,3,2,11,03,28,111,36,30,15,196,35,22,10,117,37,26,09,050,35*76
$GPGSV,3,3,11,19,08,241,25,16,10,076,32,02,26,312,*49
$GLGSV,3,1,09,69,55,040,33,79,46,096,35,85,36,281,31,78,23,035,34*6E
$GLGSV,3,2,09,80,23,157,30,68,16,082,35,70,38,305,,84,21,220,*64
$GLGSV,3,3,09,86,13,336,*56
$GPGSA,A,3,03,06,07,09,19,22,23,26,30,,,,1.5,0.9,1.3*38
$GNGSA,A,3,03,06,07,09,19,22,23,26,30,,,,1.5,0.9,1.3*26
$GNGSA,A,3,68,69,79,80,85,,,,,,,,1.5,0.9,1.3*29
$QZGSA,A,3,,,,,,,,,,,,,1.5,0.9,1.3*21
$IMGSA,A,3,,,,,,,,,,,,,1.5,0.9,1.3*2E
$GPRMC,072546.00,A,4156.008880,N,01236.600776,E,002.9,172.6,060219,,,A*51
$GPGGA,072547.00,4156.008140,N,01236.600903,E,1,14,0.4,45.3,M,45.0,M,,*5C
$GPGSV,3,1,12,09,78,329,33,23,56,051,35,06,54,275,31,07,45,176,38*7E
$GPGSV,3,2,12,03,28,111,36,30,15,196,37,22,10,117,37,26,09,050,35*77
$GPGSV,3,3,12,19,08,241,24,16,10,076,32,04,,,23,02,26,312,*4E
$GLGSV,3,1,09,69,55,040,33,79,46,096,35,85,36,281,31,80,23,157,29*60
$GLGSV,3,2,09,78,23,035,33,68,16,082,34,70,38,305,,84,21,220,*64
$GLGSV,3,3,09,86,13,336,*56
$GPGSA,A,3,03,06,07,09,19,22,23,26,30,,,,1.5,0.9,1.3*38
$GNGSA,A,3,03,06,07,09,19,22,23,26,30,,,,1.5,0.9,1.3*26
$GNGSA,A,3,68,69,79,80,85,,,,,,,,1.5,0.9,1.3*29
$QZGSA,A,3,,,,,,,,,,,,,1.5,0.9,1.3*21
$IMGSA,A,3,,,,,,,,,,,,,1.5,0.9,1.3*2E
$GPRMC,072547.00,A,4156.008140,N,01236.600903,E,002.8,182.2,060219,,,A*53
$GPGGA,072548.00,4156.007407,N,01236.600873,E,1,14,0.4,45.3,M,45.0,M,,*5C
$GPGSV,3,1,12,09,78,329,33,23,56,051,35,06,54,275,30,07,45,176,39*7E
$GPGSV,3,2,12,03,28,111,36,30,15,196,39,22,10,117,38,26,09,050,35*76
$GPGSV,3,3,12,19,08,241,24,16,10,076,32,04,,,30,02,26,312,*4C
$GLGSV,3,1,09,69,55,040,33,79,46,096,36,85,36,281,31,80,23,157,29*63
$GLGSV,3,2,09,78,23,035,33,68,16,082,34,70,38,305,,84,21,220,*64
$GLGSV,3,3,09,86,13,336,*56
$GPGSA,A,3,03,06,07,09,19,22,23,26,30,,,,1.5,0.9,1.3*38
$GNGSA,A,3,03,06,07,09,19,22,23,26,30,,,,1.5,0.9,1.3*26
$GNGSA,A,3,68,69,79,80,85,,,,,,,,1.5,0.9,1.3*29
$QZGSA,A,3,,,,,,,,,,,,,1.5,0.9,1.3*21
$IMGSA,A,3,,,,,,,,,,,,,1.5,0.9,1.3*2E
$GPRMC,072548.00,A,4156.007407,N,01236.600873,E,002.9,175.1,060219,,,A*59
$GPGGA,072549.00,4156.006564,N,01236.601009,E,1,14,0.4,45.3,M,45.0,M,,*5C
$GPGSV,3,1,12,09,78,329,33,23,56,051,34,06,54,275,30,07,45,176,39*7F
$GPGSV,3,2,12,03,28,111,37,30,15,196,38,22,10,117,38,26,09,050,35*76
$GPGSV,3,3,12,19,08,241,24,16,10,076,33,04,,,29,02,26,312,*45
$GLGSV,3,1,09,69,55,040,33,79,46,096,37,85,36,281,31,80,23,157,32*68
$GLGSV,3,2,09,78,23,035,33,68,16,082,36,70,39,305,,84,21,220,*67
$GLGSV,3,3,09,86,13,336,*56
$GPGSA,A,3,03,06,07,09,19,22,23,26,30,,,,1.5,0.9,1.3*38
$GNGSA,A,3,03,06,07,09,19,22,23,26,30,,,,1.5,0.9,1.3*26
$GNGSA,A,3,68,69,79,80,85,,,,,,,,1.5,0.9,1.3*29
$QZGSA,A,3,,,,,,,,,,,,,1.5,0.9,1.3*21
$IMGSA,A,3,,,,,,,,,,,,,1.5,0.9,1.3*2E
$GPRMC,072549.00,A,4156.006564,N,01236.601009,E,002.9,177.3,060219,,,A*59
$GPGGA,072550.00,4156.005807,N,01236.601233,E,1,14,0.4,45.3,M,45.0,M,,*54
$GPGSV,3,1,12,09,78,329,33,23,56,051,34,06,54,275,30,07,45,176,39*7F
$GPGSV,3,2,12,03,28,111,37,30,15,196,38,22,10,117,38,26,09,050,35*76
$GPGSV,3,3,12,19,08,241,27,16,10,076,33,04,,,29,02,26,312,*46
$GLGSV,3,1,09,69,55,040,32,79,46,096,37,85,36,281,31,80,23,157,32*69
$GLGSV,3,2,09,78,23,035,33,68,16,082,36,70,39,306,,84,21,220,*64
$GLGSV,3,3,09,86,13,336,*56
$GPGSA,A,3,03,06,07,09,19,22,23,26,30,,,,1.5,0.9,1.3*38
$GNGSA,A,3,03,06,07,09,19,22,23,26,30,,,,1.5,0.9,1.3*26
$GNGSA,A,3,68,69,79,80,85,,,,,,,,1.5,0.9,1.3*29
$QZGSA,A,3,,,,,,,,,,,,,1.5,0.9,1.3*21
$IMGSA,A,3,,,,,,,,,,,,,1.5,0.9,1.3*2E
$GPRMC,072550.00,A,4156.005807,N,01236.601233,E,002.9,175.3,060219,,,A*53
$GPGGA,072551.00,4156.005220,N,01236.601350,E,1,14,0.4,45.2,M,45.0,M,,*5F
$GPGSV,3,1,12,09,78,329,33,23,56,051,34,06,54,275,33,07,45,176,39*7C
$GPGSV,3,2,12,03,28,111,36,30,15,196,38,22,10,117,38,26,09,050,34*76
$GPGSV,3,3,12,19,08,241,31,16,10,076,33,04,,,,02,26,312,*4A
$GLGSV,3,1,09,69,55,040,32,79,46,096,37,85,36,281,31,80,23,157,31*6A
$GLGSV,3,2,09,78,23,035,32,68,16,082,36,70,39,306,,84,21,220,*65
$GLGSV,3,3,09,86,13,336,*56
$GPGSA,A,3,03,06,07,09,19,22,23,26,30,,,,1.5,0.9,1.3*38
$GNGSA,A,3,03,06,07,09,19,22,23,26,30,,,,1.5,0.9,1.3*26
$GNGSA,A,3,68,69,79,80,85,,,,,,,,1.5,0.9,1.3*29
$QZGSA,A,3,,,,,,,,,,,,,1.5,0.9,1.3*21
$IMGSA,A,3,,,,,,,,,,,,,1.5,0.9,1.3*2E
$GPRMC,072551.00,A,4156.005220,N,01236.601350,E,002.9,166.9,060219,,,A*51
$GPGGA,072552.00,4156.004127,N,01236.601156,E,1,14,0.4,45.2,M,45.0,M,,*5D
$GPGSV,3,1,11,09,78,329,33,23,56,051,34,06,54,275,32,07,45,176,39*7E
$GPGSV,3,2,11,03,28,111,36,30,15,196,38,22,10,117,38,26,09,050,34*75
$GPGSV,3,3,11,19,08,241,31,16,10,076,33,02,26,312,*4D
$GLGSV,3,1,09,69,55,040,32,79,46,096,37,85,36,281,30,78,23,035,32*6A
$GLGSV,3,2,09,80,23,157,31,68,16,082,35,70,39,306,,84,21,220,*67
$GLGSV,3,3,09,86,13,336,*56
$GPGSA,A,3,03,06,07,09,19,22,23,26,30,,,,1.5,0.9,1.2*39
$GNGSA,A,3,03,06,07,09,19,22,23,26,30,,,,1.5,0.9,1.2*27
$GNGSA,A,3,68,69,79,80,85,,,,,,,,1.5,0.9,1.2*28
$QZGSA,A,3,,,,,,,,,,,,,1.5,0.9,1.2*20
$IMGSA,A,3,,,,,,,,,,,,,1.5,0.9,1.2*2F
$GPRMC,072552.00,A,4156.004127,N,01236.601156,E,002.9,168.4,060219,,,A*50
$GPGGA,072553.00,4156.003187,N,01236.601273,E,1,14,0.3,45.3,M,45.0,M,,*53
$GPGSV,3,1,11,09,78,329,33,23,56,051,34,06,54,275,32,07,45,176,39*7E
$GPGSV,3,2,11,03,28,111,37,30,15,196,37,22,10,117,38,26,09,050,34*7B
$GPGSV,3,3,11,19,08,241,30,16,10,076,33,02,26,312,*4C
$GLGSV,3,1,09,69,55,040,32,79,46,096,37,85,36,281,30,78,23,035,32*6A
$GLGSV,3,2,09,80,23,157,31,68,16,082,35,70,39,306,,84,21,219,*6D
$GLGSV,3,3,09,86,13,336,*56
$GPGSA,A,3,03,06,07,09,19,22,23,26,30,,,,1.4,0.9,1.1*3B
$GNGSA,A,3,03,06,07,09,19,22,23,26,30,,,,1.4,0.9,1.1*25
$GNGSA,A,3,68,69,79,80,85,,,,,,,,1.4,0.9,1.1*2A
$QZGSA,A,3,,,,,,,,,,,,,1.4,0.9,1.1*22
$IMGSA,A,3,,,,,,,,,,,,,1.4,0.9,1.1*2D
$GPRMC,072553.00,A,4156.003187,N,01236.601273,E,002.9,165.6,060219,,,A*57
$GPGGA,072554.00,4156.002063,N,01236.601635,E,1,14,0.3,45.3,M,45.0,M,,*58
$GPGSV,3,1,11,09,78,329,32,23,56,051,33,06,54,275,32,07,45,176,39*78
$GPGSV,3,2,11,03,28,111,39,30,15,196,37,22,10,117,37,26,09,050,33*7D
$GPGSV,3,3,11,19,08,241,30,16,10,076,33,02,26,312,*4C
$GLGSV,3,1,09,69,55,040,32,79,46,096,36,85,36,281,30,78,23,035,32*6B
$GLGSV,3,2,09,80,23,157,30,68,16,082,35,70,39,306,,84,20,219,*6D
$GLGSV,3,3,09,86,13,336,*56
$GPGSA,A,3,03,06,07,09,19,22,23,26,30,,,,1.4,0.9,1.1*3B
$GNGSA,A,3,03,06,07,09,19,22,23,26,30,,,,1.4,0.9,1.1*25
$GNGSA,A,3,68,69,79,80,85,,,,,,,,1.4,0.9,1.1*2A
$QZGSA,A,3,,,,,,,,,,,,,1.4,0.9,1.1*22
$IMGSA,A,3,,,,,,,,,,,,,1.4,0.9,1.1*2D
$GPRMC,072554.00,A,4156.002063,N,01236.601635,E,002.9,177.5,060219,,,A*5C
$GPGGA,072555.00,4156.001169,N,01236.601777,E,1,14,0.3,45.3,M,45.0,M,,*56
$GPGSV,3,1,11,09,78,329,32,23,56,051,33,06,54,275,32,07,45,176,39*78
$GPGSV,3,2,11,03,28,111,38,30,15,196,36,22,10,117,37,26,09,050,33*7D
$GPGSV,3,3,11,19,08,241,29,16,10,076,33,02,26,312,*44
$GLGSV,3,1,09,69,55,040,31,79,46,096,36,85,36,281,34,78,23,035,32*6C
$GLGSV,3,2,09,80,23,157,29,68,16,082,35,70,39,306,,84,20,219,*65
$GLGSV,3,3,09,86,13,336,*56
$GPGSA,A,3,03,06,07,09,19,22,23,26,30,,,,1.4,0.9,1.1*3B
$GNGSA,A,3,03,06,07,09,19,22,23,26,30,,,,1.4,0.9,1.1*25
$GNGSA,A,3,68,69,79,80,85,,,,,,,,1.4,0.9,1.1*2A
$QZGSA,A,3,,,,,,,,,,,,,1.4,0.9,1.1*22
$IMGSA,A,3,,,,,,,,,,,,,1.4,0.9,1.1*2D
$GPRMC,072555.00,A,4156.001169,N,01236.601777,E,002.8,173.3,060219,,,A*51
$GPGGA,072556.00,4156.000467,N,01236.601831,E,1,14,0.3,45.4,M,45.0,M,,*55
$GPGSV,3,1,11,09,78,329,32,23,56,051,33,06,54,275,32,07,45,176,39*78
$GPGSV,3,2,11,03,28,111,38,30,15,196,36,22,10,117,37,26,09,050,33*7D
$GPGSV,3,3,11,19,08,241,28,16,10,076,32,02,26,312,*44
$GLGSV,3,1,09,69,55,040,31,79,46,096,36,85,36,281,34,78,23,035,32*6C
$GLGSV,3,2,09,80,23,157,29,68,16,083,34,70,39,306,,84,20,219,*65
$GLGSV,3,3,09,86,13,336,*56
$GPGSA,A,3,03,06,07,09,19,22,23,26,30,,,,1.4,0.9,1.1*3B
$GNGSA,A,3,03,06,07,09,19,22,23,26,30,,,,1.4,0.9,1.1*25
$GNGSA,A,3,68,69,79,80,85,,,,,,,,1.4,0.9,1.1*2A
$QZGSA,A,3,,,,,,,,,,,,,1.4,0.9,1.1*22
$IMGSA,A,3,,,,,,,,,,,,,1.4,0.9,1.1*2D
$GPRMC,072556.00,A,4156.000467,N,01236.601831,E,002.8,179.0,060219,,,A*5C
$GPGGA,072557.00,4156.000042,N,01236.602445,E,1,14,0.3,45.4,M,45.0,M,,*5B
$GPGSV,3,1,11,09,78,329,31,23,56,051,33,06,54,275,32,07,45,176,39*7B
$GPGSV,3,2,11,03,28,111,37,30,15,196,35,22,10,117,37,26,09,050,32*70
$GPGSV,3,3,11,19,08,241,28,16,10,076,32,02,26,312,*44
$GLGSV,3,1,09,69,55,040,31,79,46,096,36,85,36,281,33,78,23,035,31*68
$GLGSV,3,2,09,80,23,157,28,68,16,083,35,70,39,306,,84,20,219,*65
$GLGSV,3,3,09,86,13,336,*56
$GPGSA,A,3,03,06,07,09,19,22,23,26,30,,,,1.4,0.8,1.1*3A
$GNGSA,A,3,03,06,07,09,19,22,23,26,30,,,,1.4,0.8,1.1*24
$GNGSA,A,3,68,69,79,80,85,,,,,,,,1.4,0.8,1.1*2B
$QZGSA,A,3,,,,,,,,,,,,,1.4,0.8,1.1*23
$IMGSA,A,3,,,,,,,,,,,,,1.4,0.8,1.1*2C
$GPRMC,072557.00,A,4156.000042,N,01236.602445,E,002.7,169.2,060219,,,A*5E
$GPGGA,072558.00,4155.999791,N,01236.602800,E,1,14,0.3,45.4,M,45.0,M,,*5A
$GPGSV,3,1,11,09,78,329,31,23,56,052,33,06,54,275,32,07,45,176,38*79
$GPGSV,3,2,11,03,28,111,39,30,15,196,35,22,10,117,37,26,09,050,32*7E
$GPGSV,3,3,11,19,08,241,27,16,10,076,32,02,26,312,*4B
$GLGSV,3,1,09,69,55,040,31,79,46,096,38,85,36,280,33,78,23,035,32*64
$GLGSV,3,2,09,80,23,157,31,68,16,083,35,70,39,306,,84,20,219,*6D
$GLGSV,3,3,09,86,13,336,*56
$GPGSA,A,3,03,06,07,09,19,22,23,26,30,,,,1.4,0.8,1.1*3A
$GNGSA,A,3,03,06,07,09,19,22,23,26,30,,,,1.4,0.8,1.1*24
$GNGSA,A,3,68,69,79,80,85,,,,,,,,1.4,0.8,1.1*2B
$QZGSA,A,3,,,,,,,,,,,,,1.4,0.8,1.1*23
$IMGSA,A,3,,,,,,,,,,,,,1.4,0.8,1.1*2C
$GPRMC,072558.00,A,4155.999791,N,01236.602800,E,002.7,162.2,060219,,,A*54
$GPGGA,072559.00,4155.998818,N,01236.602677,E,1,14,0.3,45.5,M,45.0,M,,*5B
$GPGSV,3,1,12,09,78,329,31,23,56,052,32,06,54,275,31,07,45,176,38*78
$GPGSV,3,2,12,03,28,111,39,30,15,196,35,22,10,117,37,26,09,050,31*7E
$GPGSV,3,3,12,19,08,241,26,16,10,076,31,04,,,24,02,26,312,*48
$GLGSV,3,1,09,69,55,040,32,79,46,096,38,85,36,280,33,80,23,157,30*67
$GLGSV,3,2,09,78,23,035,32,68,16,083,34,70,39,306,,84,20,219,*6D
$GLGSV,3,3,09,86,13,336,*56
$GPGSA,A,3,03,06,07,09,19,22,23,26,30,,,,1.5,0.9,1.2*39
$GNGSA,A,3,03,06,07,09,19,22,23,26,30,,,,1.5,0.9,1.2*27
$GNGSA,A,3,68,69,79,80,85,,,,,,,,1.5,0.9,1.2*28
$QZGSA,A,3,,,,,,,,,,,,,1.5,0.9,1.2*20
$IMGSA,A,3,,,,,,,,,,,,,1.5,0.9,1.2*2F
$GPRMC,072559.00,A,4155.998818,N,01236.602677,E,002.7,163.9,060219,,,A*5E
$GPGGA,072600.00,4155.998380,N,01236.603241,E,1,13,0.3,45.5,M,45.0,M,,*59
$GPGSV,3,1,12,09,78,329,31,23,56,052,32,06,54,275,31,07,45,176,38*78
$GPGSV,3,2,12,03,28,111,38,30,15,196,34,22,10,117,36,26,09,050,31*7F
$GPGSV,3,3,12,19,08,241,24,16,10,076,31,04,,,24,02,26,312,*4A
$GLGSV,3,1,09,69,55,040,32,79,46,096,38,85,36,280,33,80,23,157,29*6F
$GLGSV,3,2,09,78,23,035,32,68,16,083,34,70,39,306,,84,20,219,*6D
$GLGSV,3,3,09,86,13,336,*56
$GPGSA,A,3,03,06,07,09,22,23,26,30,,,,,1.5,0.9,1.3*30
$GNGSA,A,3,03,06,07,09,22,23,26,30,,,,,1.5,0.9,1.3*2E
$GNGSA,A,3,68,69,79,80,85,,,,,,,,1.5,0.9,1.3*29
$QZGSA,A,3,,,,,,,,,,,,,1.5,0.9,1.3*21
$IMGSA,A,3,,,,,,,,,,,,,1.5,0.9,1.3*2E
$GPRMC,072600.00,A,4155.998380,N,01236.603241,E,002.7,168.2,060219,,,A*5B
$GPGGA,072601.00,4155.997758,N,01236.603485,E,1,14,0.4,45.5,M,45.0,M,,*58
$GPGSV,3,1,12,09,78,329,30,23,56,052,32,06,54,275,31,07,45,176,38*79
$GPGSV,3,2,12,03,28,111,38,30,15,196,34,22,10,117,36,26,09,050,31*7F
$GPGSV,3,3,12,19,08,241,23,16,10,076,30,04,,,23,02,26,312,*4B
$GLGSV,3,1,09,69,55,040,32,79,46,096,38,85,36,280,33,80,23,157,29*6F
$GLGSV,3,2,09,78,23,035,31,68,16,083,34,70,39,306,,84,20,219,*6E
$GLGSV,3,3,09,86,13,336,*56
$GPGSA,A,3,03,06,07,09,19,22,23,26,30,,,,1.5,0.9,1.3*38
$GNGSA,A,3,03,06,07,09,19,22,23,26,30,,,,1.5,0.9,1.3*26
$GNGSA,A,3,68,69,79,80,85,,,,,,,,1.5,0.9,1.3*29
$QZGSA,A,3,,,,,,,,,,,,,1.5,0.9,1.3*21
$IMGSA,A,3,,,,,,,,,,,,,1.5,0.9,1.3*2E
$GPRMC,072601.00,A,4155.997758,N,01236.603485,E,002.6,166.1,060219,,,A*56
$GPGGA,072602.00,4155.997196,N,01236.603753,E,1,13,0.4,45.5,M,45.0,M,,*50
$GPGSV,3,1,12,09,78,329,30,23,56,052,33,06,54,275,31,07,45,176,38*78
$GPGSV,3,2,12,03,28,111,38,30,15,196,34,22,10,117,36,26,09,050,30*7E
$GPGSV,3,3,12,19,08,241,22,16,10,076,30,04,,,23,02,26,311,*49
$GLGSV,3,1,09,69,55,040,32,79,46,096,37,85,36,280,32,80,23,157,28*60
$GLGSV,3,2,09,78,23,035,31,68,16,083,34,70,39,306,,84,20,219,*6E
$GLGSV,3,3,09,86,13,336,*56
$GPGSA,A,3,03,06,07,09,22,23,26,30,,,,,1.5,0.9,1.3*30
$GNGSA,A,3,03,06,07,09,22,23,26,30,,,,,1.5,0.9,1.3*2E
$GNGSA,A,3,68,69,79,80,85,,,,,,,,1.5,0.9,1.3*29
$QZGSA,A,3,,,,,,,,,,,,,1.5,0.9,1.3*21
$IMGSA,A,3,,,,,,,,,,,,,1.5,0.9,1.3*2E
$GPRMC,072602.00,A,4155.997196,N,01236.603753,E,002.6,165.8,060219,,,A*53
$GPGGA,072603.00,4155.996400,N,01236.604204,E,1,14,0.4,45.5,M,45.0,M,,*5D
$GPGSV,3,1,12,09,78,329,30,23,56,052,34,06,54,275,31,07,45,176,38*7F
$GPGSV,3,2,12,03,28,111,37,30,15,196,33,22,10,117,36,26,09,050,30*76
$GPGSV,3,3,12,19,08,241,22,16,10,076,30,04,,,26,02,26,311,*4C
$GLGSV,3,1,09,69,55,040,31,79,46,096,37,85,36,280,32,80,23,157,28*63
$GLGSV,3,2,09,78,23,035,31,68,16,083,33,70,39,306,,84,20,219,*69
$GLGSV,3,3,09,86,13,336,*56
$GPGSA,A,3,03,06,07,09,19,22,23,26,30,,,,1.5,0.9,1.3*38
$GNGSA,A,3,03,06,07,09,19,22,23,26,30,,,,1.5,0.9,1.3*26
$GNGSA,A,3,68,69,79,80,85,,,,,,,,1.5,0.9,1.3*29
$QZGSA,A,3,,,,,,,,,,,,,1.5,0.9,1.3*21
$IMGSA,A,3,,,,,,,,,,,,,1.5,0.9,1.3*2E
$GPRMC,072603.00,A,4155.996400,N,01236.604204,E,002.6,162.6,060219,,,A*50
$GPGGA,072604.00,4155.995446,N,01236.604820,E,1,14,0.4,45.4,M,45.0,M,,*56
$GPGSV,3,1,12,09,78,329,29,23,56,052,34,06,54,275,30,07,45,176,38*76
$GPGSV,3,2,12,03,28,111,37,30,15,196,33,22,10,117,36,26,09,050,30*76
$GPGSV,3,3,12,19,08,241,21,16,10,076,30,04,,,,02,26,311,*4B
$GLGSV,3,1,09,69,55,040,31,79,46,096,37,85,36,280,32,80,23,157,30*6A
$GLGSV,3,2,09,78,23,035,31,68,16,083,33,70,39,306,,84,20,219,*69
$GLGSV,3,3,09,86,13,336,*56
$GPGSA,A,3,03,06,07,09,19,22,23,26,30,,,,1.5,0.9,1.3*38
$GNGSA,A,3,03,06,07,09,19,22,23,26,30,,,,1.5,0.9,1.3*26
$GNGSA,A,3,68,69,79,80,85,,,,,,,,1.5,0.9,1.3*29
$QZGSA,A,3,,,,,,,,,,,,,1.5,0.9,1.3*21
$IMGSA,A,3,,,,,,,,,,,,,1.5,0.9,1.3*2E
$GPRMC,072604.00,A,4155.995446,N,01236.604820,E,002.7,161.4,060219,,,A*5A
$GPGGA,072605.00,4155.994569,N,01236.605525,E,1,14,0.4,45.4,M,45.0,M,,*53
$GPGSV,3,1,11,09,78,329,29,23,56,052,33,06,54,275,30,07,45,176,38*72
$GPGSV,3,2,11,03,28,111,37,30,15,196,32,22,10,117,36,26,09,050,29*7C
$GPGSV,3,3,11,19,08,241,21,16,10,076,31,02,26,311,*4D
$GLGSV,3,1,09,69,55,040,31,79,46,095,37,85,36,280,34,78,23,035,31*6C
$GLGSV,3,2,09,80,23,157,30,68,16,083,33,70,39,306,,84,20,219,*6A
$GLGSV,3,3,09,86,13,336,*56
$GPGSA,A,3,03,06,07,09,19,22,23,26,30,,,,1.5,0.9,1.3*38
$GNGSA,A,3,03,06,07,09,19,22,23,26,30,,,,1.5,0.9,1.3*26
$GNGSA,A,3,68,69,79,80,85,,,,,,,,1.5,0.9,1.3*29
$QZGSA,A,3,,,,,,,,,,,,,1.5,0.9,1.3*21
$IMGSA,A,3,,,,,,,,,,,,,1.5,0.9,1.3*2E
$GPRMC,072605.00,A,4155.994569,N,01236.605525,E,002.7,167.0,060219,,,A*5D
$GPGGA,072606.00,4155.993784,N,01236.606041,E,1,14,0.4,45.3,M,45.0,M,,*55
$GPGSV,3,1,11,09,78,329,28,23,56,052,33,06,54,275,30,07,45,176,38*73
$GPGSV,3,2,11,03,28,111,37,30,15,196,31,22,10,117,35,26,09,050,29*7C
$GPGSV,3,3,11,19,08,241,21,16,10,076,31,02,26,311,*4D
$GLGSV,3,1,09,69,55,040,31,79,46,095,37,85,36,280,34,78,23,035,31*6C
$GLGSV,3,2,09,80,23,157,30,68,16,083,33,70,39,306,,84,20,219,*6A
$GLGSV,3,3,09,86,13,336,*56
$GPGSA,A,3,03,06,07,09,19,22,23,26,30,,,,1.5,0.9,1.3*38
$GNGSA,A,3,03,06,07,09,19,22,23,26,30,,,,1.5,0.9,1.3*26
$GNGSA,A,3,68,69,79,80,85,,,,,,,,1.5,0.9,1.3*29
$QZGSA,A,3,,,,,,,,,,,,,1.5,0.9,1.3*21
$IMGSA,A,3,,,,,,,,,,,,,1.5,0.9,1.3*2E
$GPRMC,072606.00,A,4155.993784,N,01236.606041,E,002.7,167.3,060219,,,A*5F
$GPGGA,072607.00,4155.993059,N,01236.606236,E,1,14,0.4,45.3,M,45.0,M,,*51
$GPGSV,3,1,11,09,78,329,28,23,56,052,32,06,54,275,31,07,45,176,38*73
$GPGSV,3,2,11,03,28,111,37,30,15,196,31,22,10,117,35,26,09,050,29*7C
$GPGSV,3,3,11,19,08,241,23,16,10,076,30,02,26,311,*4E
$GLGSV,3,1,09,69,55,040,31,79,46,095,36,85,36,280,34,78,23,035,31*6D
$GLGSV,3,2,09,80,23,157,30,68,16,083,32,70,39,306,,84,20,219,*6B
$GLGSV,3,3,09,86,13,336,*56
$GPGSA,A,3,03,06,07,09,19,22,23,26,30,,,,1.5,0.9,1.3*38
$GNGSA,A,3,03,06,07,09,19,22,23,26,30,,,,1.5,0.9,1.3*26
$GNGSA,A,3,68,69,79,80,85,,,,,,,,1.5,0.9,1.3*29
$QZGSA,A,3,,,,,,,,,,,,,1.5,0.9,1.3*21
$IMGSA,A,3,,,,,,,,,,,,,1.5,0.9,1.3*2E
$GPRMC,072607.00,A,4155.993059,N,01236.606236,E,002.8,169.5,060219,,,A*5C
$GPGGA,072608.00,4155.992387,N,01236.606238,E,1,14,0.4,45.3,M,45.0,M,,*51
$GPGSV,3,1,11,09,78,329,30,23,56,052,32,06,54,275,31,07,45,176,38*7A
$GPGSV,3,2,11,03,28,111,36,30,15,196,31,22,10,117,35,26,09,050,29*7D
$GPGSV,3,3,11,19,08,241,22,16,10,076,30,02,26,311,*4F
$GLGSV,3,1,09,69,55,040,30,79,46,095,36,85,36,280,34,78,23,035,31*6C
$GLGSV,3,2,09,80,23,157,30,68,16,083,32,70,39,306,,84,20,219,*6B
$GLGSV,3,3,09,86,13,336,*56
$GPGSA,A,3,03,06,07,09,19,22,23,26,30,,,,1.5,0.9,1.3*38
$GNGSA,A,3,03,06,07,09,19,22,23,26,30,,,,1.5,0.9,1.3*26
$GNGSA,A,3,68,69,79,80,85,,,,,,,,1.5,0.9,1.3*29
$QZGSA,A,3,,,,,,,,,,,,,1.5,0.9,1.3*21
$IMGSA,A,3,,,,,,,,,,,,,1.5,0.9,1.3*2E
$GPRMC,072608.00,A,4155.992387,N,01236.606238,E,002.8,170.8,060219,,,A*59
$GPGGA,072609.00,4155.991674,N,01236.606259,E,1,14,0.4,45.2,M,45.0,M,,*5C
$GPGSV,3,1,11,09,78,330,31,23,56,052,33,06,54,275,31,07,45,176,39*73
$GPGSV,3,2,11,03,28,111,36,30,15,196,31,22,10,117,35,26,09,050,32*77
$GPGSV,3,3,11,19,08,241,22,16,10,076,33,02,26,311,*4C
$GLGSV,3,1,09,69,55,040,32,79,46,095,36,85,36,280,35,78,23,035,31*6F
$GLGSV,3,2,09,80,23,157,30,68,16,083,32,70,39,306,,84,20,219,*6B
$GLGSV,3,3,09,86,13,336,*56
$GPGSA,A,3,03,06,07,09,19,22,23,26,30,,,,1.5,0.9,1.3*38
$GNGSA,A,3,03,06,07,09,19,22,23,26,30,,,,1.5,0.9,1.3*26
$GNGSA,A,3,68,69,79,80,85,,,,,,,,1.5,0.9,1.3*29
$QZGSA,A,3,,,,,,,,,,,,,1.5,0.9,1.3*21
$IMGSA,A,3,,,,,,,,,,,,,1.5,0.9,1.3*2E
$GPRMC,072609.00,A,4155.991674,N,01236.606259,E,002.8,169.9,060219,,,A*5C
$GPGGA,072610.00,4155.990802,N,01236.606479,E,1,14,0.4,45.2,M,45.0,M,,*5E
$GPGSV,3,1,11,09,78,330,31,23,56,052,33,06,54,275,31,07,45,176,39*73
$GPGSV,3,2,11,03,28,111,40,30,15,196,30,22,10,117,35,26,09,050,33*76
$GPGSV,3,3,11,19,08,241,22,16,10,076,36,02,26,311,*49
$GLGSV,3,1,09,69,55,040,32,79,46,095,40,85,36,280,35,78,23,035,31*6E
$GLGSV,3,2,09,80,23,157,33,68,16,083,35,70,39,306,,84,20,219,*6F
$GLGSV,3,3,09,86,13,336,*56
$GPGSA,A,3,03,06,07,09,19,22,23,26,30,,,,1.5,0.9,1.3*38
$GNGSA,A,3,03,06,07,09,19,22,23,26,30,,,,1.5,0.9,1.3*26
$GNGSA,A,3,68,69,79,80,85,,,,,,,,1.5,0.9,1.3*29
$QZGSA,A,3,,,,,,,,,,,,,1.5,0.9,1.3*21
$IMGSA,A,3,,,,,,,,,,,,,1.5,0.9,1.3*2E
$GPRMC,072610.00,A,4155.990802,N,01236.606479,E,002.8,174.0,060219,,,A*5B
$GPGGA,072611.00,4155.989885,N,01236.606536,E,1,14,0.4,45.2,M,45.0,M,,*52
$GPGSV,3,1,12,09,78,330,31,23,56,052,34,06,54,275,31,07,45,176,39*77
$GPGSV,3,2,12,03,28,111,40,30,15,196,30,22,10,117,35,26,09,050,34*72
$GPGSV,3,3,12,19,08,241,21,16,10,076,36,04,,,25,02,26,311,*4A
$GLGSV,3,1,09,69,55,040,32,79,46,095,40,85,36,280,34,80,23,157,33*6F
$GLGSV,3,2,09,78,23,035,31,68,16,083,35,70,39,306,,84,20,219,*6F
$GLGSV,3,3,09,86,13,336,*56
$GPGSA,A,3,03,06,07,09,19,22,23,26,30,,,,1.5,0.9,1.3*38
$GNGSA,A,3,03,06,07,09,19,22,23,26,30,,,,1.5,0.9,1.3*26
$GNGSA,A,3,68,69,79,80,85,,,,,,,,1.5,0.9,1.3*29
$QZGSA,A,3,,,,,,,,,,,,,1.5,0.9,1.3*21
$IMGSA,A,3,,,,,,,,,,,,,1.5,0.9,1.3*2E
$GPRMC,072611.00,A,4155.989885,N,01236.606536,E,002.8,177.5,060219,,,A*51
$GPGGA,072612.00,4155.989019,N,01236.606602,E,1,14,0.4,45.1,M,45.0,M,,*5B
$GPGSV,3,1,12,09,78,330,30,23,56,052,34,06,54,275,30,07,45,176,38*76
$GPGSV,3,2,12,03,28,111,39,30,15,196,30,22,10,118,35,26,09,050,34*73
$GPGSV,3,3,12,19,08,241,21,16,10,076,35,04,,,25,02,26,311,*49
$GLGSV,3,1,09,69,55,040,31,79,46,095,41,85,36,280,36,80,23,157,32*6E
$GLGSV,3,2,09,78,23,035,30,68,16,083,34,70,39,306,,84,20,219,*6F
$GLGSV,3,3,09,86,13,336,*56
$GPGSA,A,3,03,06,07,09,19,22,23,26,30,,,,1.5,0.9,1.3*38
$GNGSA,A,3,03,06,07,09,19,22,23,26,30,,,,1.5,0.9,1.3*26
$GNGSA,A,3,68,69,79,80,85,,,,,,,,1.5,0.9,1.3*29
$QZGSA,A,3,,,,,,,,,,,,,1.5,0.9,1.3*21
$IMGSA,A,3,,,,,,,,,,,,,1.5,0.9,1.3*2E
$GPRMC,072612.00,A,4155.989019,N,01236.606602,E,002.8,176.3,060219,,,A*5C
$GPGGA,072613.00,4155.988540,N,01236.606693,E,1,14,0.4,45.1,M,45.0,M,,*5A
$GPGSV,3,1,12,09,78,330,30,23,56,052,33,06,54,275,30,07,45,176,38*71
$GPGSV,3,2,12,03,28,111,39,30,15,196,30,22,10,118,34,26,09,050,34*72
$GPGSV,3,3,12,19,08,241,21,16,10,076,35,04,,,29,02,26,311,*45
$GLGSV,3,1,09,69,55,040,31,79,46,095,41,85,36,280,36,80,23,157,32*6E
$GLGSV,3,2,09,78,23,035,30,68,16,083,34,70,39,306,,84,20,219,*6F
$GLGSV,3,3,09,86,13,336,*56
$GPGSA,A,3,03,06,07,09,19,22,23,26,30,,,,1.5,0.9,1.3*38
$GNGSA,A,3,03,06,07,09,19,22,23,26,30,,,,1.5,0.9,1.3*26
$GNGSA,A,3,68,69,79,80,85,,,,,,,,1.5,0.9,1.3*29
$QZGSA,A,3,,,,,,,,,,,,,1.5,0.9,1.3*21
$IMGSA,A,3,,,,,,,,,,,,,1.5,0.9,1.3*2E
$GPRMC,072613.00,A,4155.988540,N,01236.606693,E,002.7,178.1,060219,,,A*5E
$GPGGA,072614.00,4155.987866,N,01236.606759,E,1,14,0.4,45.1,M,45.0,M,,*5C
$GPGSV,3,1,12,09,78,330,30,23,56,052,33,06,54,275,30,07,45,176,37*7E
$GPGSV,3,2,12,03,28,111,38,30,15,196,29,22,10,118,34,26,09,050,33*7C
$GPGSV,3,3,12,19,08,241,23,16,10,076,34,04,,,29,02,26,311,*46
$GLGSV,3,1,09,69,55,040,31,79,46,095,41,85,36,280,36,80,23,157,31*6D
$GLGSV,3,2,09,78,23,035,30,68,16,083,34,70,39,306,,84,20,219,*6F
$GLGSV,3,3,09,86,13,336,*56
$GPGSA,A,3,03,06,07,09,19,22,23,26,30,,,,1.5,0.9,1.3*38
$GNGSA,A,3,03,06,07,09,19,22,23,26,30,,,,1.5,0.9,1.3*26
$GNGSA,A,3,68,69,79,80,85,,,,,,,,1.5,0.9,1.3*29
$QZGSA,A,3,,,,,,,,,,,,,1.5,0.9,1.3*21
$IMGSA,A,3,,,,,,,,,,,,,1.5,0.9,1.3*2E
$GPRMC,072614.00,A,4155.987866,N,01236.606759,E,002.7,169.9,060219,,,A*50
$GPGGA,072615.00,4155.987166,N,01236.606899,E,1,14,0.4,45.1,M,45.0,M,,*57
$GPGSV,3,1,12,09,78,330,33,23,56,052,34,06,54,275,29,07,45,176,37*72
$GPGSV,3,2,12,03,28,111,38,30,15,196,29,22,10,118,34,26,09,050,33*7C
$GPGSV,3,3,12,19,08,241,23,16,10,076,34,04,,,29,02,26,311,*46
$GLGSV,3,1,09,69,55,040,34,79,46,095,41,85,36,280,35,80,23,157,30*6A
$GLGSV,3,2,09,78,23,035,34,68,16,083,35,70,39,306,,84,20,219,*6A
$GLGSV,3,3,09,86,13,336,*56
$GPGSA,A,3,03,06,07,09,19,22,23,26,30,,,,1.5,0.9,1.3*38
$GNGSA,A,3,03,06,07,09,19,22,23,26,30,,,,1.5,0.9,1.3*26
$GNGSA,A,3,68,69,79,80,85,,,,,,,,1.5,0.9,1.3*29
$QZGSA,A,3,,,,,,,,,,,,,1.5,0.9,1.3*21
$IMGSA,A,3,,,,,,,,,,,,,1.5,0.9,1.3*2E
$GPRMC,072615.00,A,4155.987166,N,01236.606899,E,002.6,164.2,060219,,,A*5C
$GPGGA,072616.00,4155.986616,N,01236.606770,E,1,14,0.4,45.1,M,45.0,M,,*5D
$GPGSV,3,1,12,09,78,330,32,23,56,052,34,06,54,275,29,07,45,176,37*73
$GPGSV,3,2,12,03,28,111,40,30,15,196,29,22,10,118,35,26,09,050,33*72
$GPGSV,3,3,12,19,08,241,22,16,10,076,34,04,,,28,02,26,311,*46
$GLGSV,3,1,09,69,55,040,34,79,46,095,40,85,36,280,35,80,23,157,30*6B
$GLGSV,3,2,09,78,23,035,34,68,16,083,35,70,39,306,,84,20,219,*6A
$GLGSV,3,3,09,86,13,336,*56
$GPGSA,A,3,03,06,07,09,19,22,23,26,30,,,,1.5,0.9,1.3*38
$GNGSA,A,3,03,06,07,09,19,22,23,26,30,,,,1.5,0.9,1.3*26
$GNGSA,A,3,68,69,79,80,85,,,,,,,,1.5,0.9,1.3*29
$QZGSA,A,3,,,,,,,,,,,,,1.5,0.9,1.3*21
$IMGSA,A,3,,,,,,,,,,,,,1.5,0.9,1.3*2E
$GPRMC,072616.00,A,4155.986616,N,01236.606770,E,002.6,165.3,060219,,,A*56
$GPGGA,072617.00,4155.985831,N,01236.607056,E,1,14,0.4,45.0,M,45.0,M,,*57
$GPGSV,3,1,12,09,78,330,33,23,56,052,34,06,54,275,30,07,45,176,39*74
$GPGSV,3,2,12,03,28,111,40,30,15,196,29,22,10,118,36,26,09,050,33*71
$GPGSV,3,3,12,19,08,241,25,16,10,076,35,04,,,28,02,26,311,*40
$GLGSV,3,1,09,69,55,040,36,79,46,095,40,85,36,280,34,80,23,157,30*68
$GLGSV,3,2,09,78,23,035,34,68,16,083,36,70,39,306,,84,20,219,*69
$GLGSV,3,3,09,86,13,336,*56
$GPGSA,A,3,03,06,07,09,19,22,23,26,30,,,,1.5,0.9,1.3*38
$GNGSA,A,3,03,06,07,09,19,22,23,26,30,,,,1.5,0.9,1.3*26
$GNGSA,A,3,68,69,79,80,85,,,,,,,,1.5,0.9,1.3*29
$QZGSA,A,3,,,,,,,,,,,,,1.5,0.9,1.3*21
$IMGSA,A,3,,,,,,,,,,,,,1.5,0.9,1.3*2E
$GPRMC,072617.00,A,4155.985831,N,01236.607056,E,002.6,170.5,060219,,,A*5F
$GPGGA,072618.00,4155.984740,N,01236.606948,E,1,14,0.4,45.1,M,45.0,M,,*56
$GPGSV,3,1,12,09,78,330,33,23,56,052,34,06,54,275,30,07,46,176,39*77
$GPGSV,3,2,12,03,28,111,39,30,15,196,29,26,09,050,33,22,09,118,36*77
$GPGSV,3,3,12,19,08,241,24,16,10,076,35,04,,,28,02,26,311,*41
$GLGSV,3,1,09,69,55,041,35,79,46,095,40,85,36,280,34,80,23,157,30*6A
$GLGSV,3,2,09,78,23,035,34,68,16,083,35,70,39,306,,84,20,219,*6A
$GLGSV,3,3,09,86,13,336,*56
$GPGSA,A,3,03,06,07,09,19,22,23,26,30,,,,1.7,1.0,1.3*32
$GNGSA,A,3,03,06,07,09,19,22,23,26,30,,,,1.7,1.0,1.3*2C
$GNGSA,A,3,68,69,79,80,85,,,,,,,,1.7,1.0,1.3*23
$QZGSA,A,3,,,,,,,,,,,,,1.7,1.0,1.3*2B
$IMGSA,A,3,,,,,,,,,,,,,1.7,1.0,1.3*24
$GPRMC,072618.00,A,4155.984740,N,01236.606948,E,002.5,172.1,060219,,,A*5A
$GPGGA,072619.00,4155.983759,N,01236.606944,E,1,16,0.4,45.1,M,45.0,M,,*56
$GPGSV,3,1,12,09,78,330,33,23,56,052,34,06,54,275,30,07,46,176,39*77
$GPGSV,3,2,12,03,28,111,39,30,15,196,29,22,09,118,36,26,09,050,33*77
$GPGSV,3,3,12,19,08,241,24,16,10,076,35,04,,,27,02,26,311,*4E
$GLGSV,3,1,09,69,55,041,35,79,46,095,39,70,39,306,08,85,36,280,33*6A
$GLGSV,3,2,09,78,23,035,33,80,23,157,29,84,20,219,29,68,16,083,35*6F
$GLGSV,3,3,09,86,13,336,24*50
$GPGSA,A,3,03,06,07,09,19,22,23,26,30,,,,1.5,0.9,1.2*39
$GNGSA,A,3,03,06,07,09,19,22,23,26,30,,,,1.5,0.9,1.2*27
$GNGSA,A,3,68,69,79,80,84,85,86,,,,,,1.5,0.9,1.2*2A
$QZGSA,A,3,,,,,,,,,,,,,1.5,0.9,1.2*20
$IMGSA,A,3,,,,,,,,,,,,,1.5,0.9,1.2*2F
$GPRMC,072619.00,A,4155.983759,N,01236.606944,E,002.5,162.4,060219,,,A*5C
$GPGGA,072620.00,4155.983008,N,01236.607432,E,1,17,0.4,45.1,M,45.0,M,,*53
$GPGSV,3,1,12,09,78,330,34,23,56,052,36,06,54,275,32,07,46,176,39*70
$GPGSV,3,2,12,03,28,111,38,30,15,196,29,22,09,118,35,26,09,050,33*75
$GPGSV,3,3,12,19,08,241,27,16,10,076,35,04,,,29,02,26,311,*43
$GLGSV,3,1,09,69,55,041,36,79,46,095,39,70,39,306,19,85,36,280,33*69
$GLGSV,3,2,09,78,23,035,35,80,23,157,29,84,20,219,29,68,16,083,37*6B
$GLGSV,3,3,09,86,13,336,25*51
$GPGSA,A,3,03,06,07,09,19,22,23,26,30,,,,1.5,0.9,1.2*39
$GNGSA,A,3,03,06,07,09,19,22,23,26,30,,,,1.5,0.9,1.2*27
$GNGSA,A,3,68,69,70,79,80,84,85,86,,,,,1.5,0.9,1.2*2D
$QZGSA,A,3,,,,,,,,,,,,,1.5,0.9,1.2*20
$IMGSA,A,3,,,,,,,,,,,,,1.5,0.9,1.2*2F
$GPRMC,072620.00,A,4155.983008,N,01236.607432,E,002.5,158.6,060219,,,A*53
$GPGGA,072621.00,4155.982296,N,01236.607813,E,1,17,0.4,45.1,M,45.0,M,,*59
$GPGSV,3,1,12,09,78,330,34,23,56,052,35,06,54,275,34,07,46,176,38*74
$GPGSV,3,2,12,03,28,111,38,30,15,196,29,22,09,118,35,26,09,050,33*75
$GPGSV,3,3,12,19,08,241,27,16,10,076,35,04,,,29,02,26,311,*43
$GLGSV,3,1,09,69,55,041,36,79,46,095,39,70,39,306,21,85,36,280,32*63
$GLGSV,3,2,09,78,23,035,35,80,23,157,28,84,20,219,29,68,16,083,36*6B
$GLGSV,3,3,09,86,13,336,25*51
$GPGSA,A,3,03,06,07,09,19,22,23,26,30,,,,1.5,0.9,1.2*39
$GNGSA,A,3,03,06,07,09,19,22,23,26,30,,,,1.5,0.9,1.2*27
$GNGSA,A,3,68,69,70,79,80,84,85,86,,,,,1.5,0.9,1.2*2D
$QZGSA,A,3,,,,,,,,,,,,,1.5,0.9,1.2*20
$IMGSA,A,3,,,,,,,,,,,,,1.5,0.9,1.2*2F
$GPRMC,072621.00,A,4155.982296,N,01236.607813,E,002.5,178.1,060219,,,A*5C
$GPGGA,072622.00,4155.981167,N,01236.607438,E,1,17,0.4,45.2,M,45.0,M,,*52
$GPGSV,3,1,12,09,78,330,34,23,56,052,36,06,54,275,34,07,46,176,38*77
$GPGSV,3,2,12,03,28,111,38,30,15,196,28,22,09,118,34,26,09,050,33*75
$GPGSV,3,3,12,19,08,241,27,16,10,076,37,04,,,28,02,26,311,*40
$GLGSV,3,1,09,69,55,041,36,79,46,095,39,70,39,306,21,85,36,280,32*63
$GLGSV,3,2,09,78,23,035,35,80,23,157,28,84,20,219,28,68,16,083,36*6A
$GLGSV,3,3,09,86,13,336,25*51
$GPGSA,A,3,03,06,07,09,19,22,23,26,30,,,,1.5,0.9,1.2*39
$GNGSA,A,3,03,06,07,09,19,22,23,26,30,,,,1.5,0.9,1.2*27
$GNGSA,A,3,68,69,70,79,80,84,85,86,,,,,1.5,0.9,1.2*2D
$QZGSA,A,3,,,,,,,,,,,,,1.5,0.9,1.2*20
$IMGSA,A,3,,,,,,,,,,,,,1.5,0.9,1.2*2F
$GPRMC,072622.00,A,4155.981167,N,01236.607438,E,002.5,182.4,060219,,,A*54
$GPGGA,072623.00,4155.980477,N,01236.607502,E,1,17,0.4,45.3,M,45.0,M,,*5F
$GPGSV,3,1,12,09,78,330,34,23,56,052,36,06,54,275,34,07,46,176,38*77
$GPGSV,3,2,12,03,28,111,37,30,15,196,28,22,09,118,34,26,09,050,38*71
$GPGSV,3,3,12,19,08,241,28,16,10,076,37,04,,,30,02,26,311,*46
$GLGSV,3,1,09,69,55,041,35,79,46,095,39,70,39,306,20,85,36,280,32*61
$GLGSV,3,2,09,78,23,035,35,80,23,157,31,84,20,219,28,68,16,083,36*62
$GLGSV,3,3,09,86,13,336,25*51
$GPGSA,A,3,03,06,07,09,19,22,23,26,30,,,,1.5,0.9,1.2*39
$GNGSA,A,3,03,06,07,09,19,22,23,26,30,,,,1.5,0.9,1.2*27
$GNGSA,A,3,68,69,70,79,80,84,85,86,,,,,1.5,0.9,1.2*2D
$QZGSA,A,3,,,,,,,,,,,,,1.5,0.9,1.2*20
$IMGSA,A,3,,,,,,,,,,,,,1.5,0.9,1.2*2F
$GPRMC,072623.00,A,4155.980477,N,01236.607502,E,002.5,172.0,060219,,,A*53
$GPGGA,072624.00,4155.979716,N,01236.607771,E,1,17,0.4,45.3,M,45.0,M,,*5C
$GPGSV,3,1,12,09,78,330,34,23,56,052,36,06,54,275,34,07,46,176,39*76
$GPGSV,3,2,12,03,28,111,37,30,15,196,28,22,09,118,34,26,09,050,37*7E
$GPGSV,3,3,12,19,08,241,31,16,10,076,37,04,,,30,02,26,311,*4E
$GLGSV,3,1,09,69,55,041,35,79,46,095,38,70,39,306,20,85,36,280,32*60
$GLGSV,3,2,09,78,23,035,35,80,23,157,32,84,20,219,28,68,16,083,36*61
$GLGSV,3,3,09,86,13,336,25*51
$GPGSA,A,3,03,06,07,09,19,22,23,26,30,,,,1.5,0.9,1.2*39
$GNGSA,A,3,03,06,07,09,19,22,23,26,30,,,,1.5,0.9,1.2*27
$GNGSA,A,3,68,69,70,79,80,84,85,86,,,,,1.5,0.9,1.2*2D
$QZGSA,A,3,,,,,,,,,,,,,1.5,0.9,1.2*20
$IMGSA,A,3,,,,,,,,,,,,,1.5,0.9,1.2*2F
$GPRMC,072624.00,A,4155.979716,N,01236.607771,E,002.6,168.5,060219,,,A*5D
$GPGGA,072625.00,4155.978659,N,01236.607740,E,1,17,0.3,45.4,M,45.0,M,,*54
$GPGSV,3,1,12,09,78,330,34,23,56,052,35,06,54,275,34,07,46,176,39*75
$GPGSV,3,2,12,03,28,111,37,30,15,196,27,22,09,118,34,26,09,050,37*71
$GPGSV,3,3,12,19,08,241,31,16,10,076,36,04,,,30,02,26,311,*4F
$GLGSV,3,1,09,69,55,041,35,79,46,095,38,70,39,306,19,85,36,280,32*6A
$GLGSV,3,2,09,78,23,035,35,80,23,157,31,84,20,219,28,68,16,083,35*61
$GLGSV,3,3,09,86,13,336,25*51
$GPGSA,A,3,03,06,07,09,19,22,23,26,30,,,,1.6,0.9,1.3*3B
$GNGSA,A,3,03,06,07,09,19,22,23,26,30,,,,1.6,0.9,1.3*25
$GNGSA,A,3,68,69,70,79,80,84,85,86,,,,,1.6,0.9,1.3*2F
$QZGSA,A,3,,,,,,,,,,,,,1.6,0.9,1.3*22
$IMGSA,A,3,,,,,,,,,,,,,1.6,0.9,1.3*2D
$GPRMC,072625.00,A,4155.978659,N,01236.607740,E,002.6,172.4,060219,,,A*5F
$GPGGA,072626.00,4155.977666,N,01236.607847,E,1,17,0.3,45.5,M,45.0,M,,*5D
$GPGSV,3,1,12,09,78,330,34,23,56,052,35,06,54,275,34,07,46,176,39*75
$GPGSV,3,2,12,03,28,111,37,30,15,196,27,22,09,118,34,26,09,050,37*71
$GPGSV,3,3,12,19,08,241,30,16,10,076,36,04,,,30,02,26,311,*4E
$GLGSV,3,1,09,69,55,041,35,79,46,095,38,70,39,306,19,85,36,280,32*6A
$GLGSV,3,2,09,78,23,035,35,80,23,157,31,84,20,219,29,68,16,083,35*60
$GLGSV,3,3,09,86,13,336,25*51
$GPGSA,A,3,03,06,07,09,19,22,23,26,30,,,,1.6,0.9,1.3*3B
$GNGSA,A,3,03,06,07,09,19,22,23,26,30,,,,1.6,0.9,1.3*25
$GNGSA,A,3,68,69,70,79,80,84,85,86,,,,,1.6,0.9,1.3*2F
$QZGSA,A,3,,,,,,,,,,,,,1.6,0.9,1.3*22
$IMGSA,A,3,,,,,,,,,,,,,1.6,0.9,1.3*2D
$GPRMC,072626.00,A,4155.977666,N,01236.607847,E,002.6,166.6,060219,,,A*50
$GPGGA,072627.00,4155.976996,N,01236.608341,E,1,17,0.3,45.6,M,45.0,M,,*5C
$GPGSV,3,1,12,09,78,330,35,23,56,052,36,06,54,275,35,07,46,176,39*76
$GPGSV,3,2,12,03,28,111,37,30,15,196,27,22,09,118,35,26,09,050,37*70
$GPGSV,3,3,12,19,08,241,28,16,10,076,36,04,,,31,02,26,311,*46
$GLGSV,3,1,09,69,55,041,35,79,46,095,39,70,39,306,21,85,36,280,31*63
$GLGSV,3,2,09,78,23,035,34,80,23,157,31,84,20,219,30,68,16,083,34*68
$GLGSV,3,3,09,86,13,336,25*51
$GPGSA,A,3,03,06,07,09,19,22,23,26,30,,,,1.6,0.9,1.3*3B
