$GPGGA,095945.70,,,,,0,00,999.9,,M,,M,,*65
$GPGSV,3,1,09,13,85,080,,15,56,303,,28,50,054,,17,25,118,*75
$GPGSV,3,2,09,24,25,276,,30,22,074,,05,21,199,,19,13,143,*78
$GPGSV,3,3,09,20,10,321,*43
$GLGSV,3,1,09,73,32,043,,72,72,235,,74,69,341,,65,41,319,*6F
$GLGSV,3,2,09,75,33,254,,71,30,171,,83,13,060,,82,06,013,*6F
$GLGSV,3,3,09,84,01,111,*50
$GPGSA,A,1,,,,,,,,,,,,,140.0,99.0,99.0*35
$GNGSA,A,1,,,,,,,,,,,,,140.0,99.0,99.0*2B
$GNGSA,A,1,,,,,,,,,,,,,140.0,99.0,99.0*2B
$QZGSA,A,1,,,,,,,,,,,,,140.0,99.0,99.0*29
$IMGSA,A,1,,,,,,,,,,,,,140.0,99.0,99.0*26
$GPRMC,095945.70,V,,,,,,,180319,,,N*7C
$GPGGA,095946.44,,,,,0,00,999.9,,M,,M,,*61
$GPGSV,3,1,09,17,25,118,38,13,85,080,,15,56,303,,28,50,054,*7E
$GPGSV,3,2,09,24,25,276,,30,22,074,,05,21,199,,19,13,143,*78
$GPGSV,3,3,09,20,10,321,*43
$GLGSV,3,1,09,73,32,043,,72,72,235,,74,69,341,,65,41,319,*6F
$GLGSV,3,2,09,75,33,254,,71,30,171,,83,13,060,,82,06,013,*6F
$GLGSV,3,3,09,84,01,111,*50
$GPGSA,A,1,,,,,,,,,,,,,140.0,99.0,99.0*35
$GNGSA,A,1,,,,,,,,,,,,,140.0,99.0,99.0*2B
$GNGSA,A,1,,,,,,,,,,,,,140.0,99.0,99.0*2B
$QZGSA,A,1,,,,,,,,,,,,,140.0,99.0,99.0*29
$IMGSA,A,1,,,,,,,,,,,,,140.0,99.0,99.0*26
$GPRMC,095946.44,V,,,,,,,180319,,,N*78
$GPGGA,095946.70,,,,,0,00,999.9,,M,,M,,*66
$GPGSV,3,1,09,28,50,054,29,17,25,118,38,30,22,074,30,19,13,143,25*7D
$GPGSV,3,2,09,13,85,080,,15,56,303,,24,25,276,,05,21,199,*74
$GPGSV,3,3,09,20,10,321,*43
$GLGSV,3,1,09,73,32,043,32,72,72,235,,74,69,341,,65,41,319,*6E
$GLGSV,3,2,09,75,33,254,,71,30,171,,83,13,060,,82,06,013,*6F
$GLGSV,3,3,09,84,01,111,*50
$GPGSA,A,1,,,,,,,,,,,,,140.0,99.0,99.0*35
$GNGSA,A,1,,,,,,,,,,,,,140.0,99.0,99.0*2B
$GNGSA,A,1,,,,,,,,,,,,,140.0,99.0,99.0*2B
$QZGSA,A,1,,,,,,,,,,,,,140.0,99.0,99.0*29
$IMGSA,A,1,,,,,,,,,,,,,140.0,99.0,99.0*26
$GPRMC,095946.70,V,,,,,,,180319,,,N*7F
$GPGGA,095947.64,4155.810951,N,01236.703263,E,1,05,3.2,60.6,M,45.0,M,,*59
$GPGSV,3,1,09,28,50,054,30,17,25,118,39,30,22,074,31,19,13,143,26*76
$GPGSV,3,2,09,13,85,080,,15,56,303,,24,25,276,,05,21,199,*74
$GPGSV,3,3,09,20,10,321,*43
$GLGSV,3,1,09,73,32,043,33,72,72,235,,74,69,341,,65,41,319,*6F
$GLGSV,3,2,09,75,33,254,,71,30,171,,83,13,060,,82,06,013,*6F
$GLGSV,3,3,09,84,01,111,*50
$GPGSA,A,3,17,19,28,30,,,,,,,,,8.2,6.9,4.4*30
$GNGSA,A,3,17,19,28,30,,,,,,,,,8.2,6.9,4.4*2E
$GNGSA,A,3,73,,,,,,,,,,,,8.2,6.9,4.4*2D
$QZGSA,A,3,,,,,,,,,,,,,8.2,6.9,4.4*2B
$IMGSA,A,3,,,,,,,,,,,,,8.2,6.9,4.4*24
$GPRMC,095947.64,A,4155.810951,N,01236.703263,E,001.6,,180319,,,A*75
$GPGGA,095948.64,4155.819127,N,01236.702873,E,1,07,3.2,111.7,M,45.0,M,,*68
$GPGSV,3,1,09,13,85,080,21,28,50,054,33,17,25,118,40,30,22,074,34*72
$GPGSV,3,2,09,05,21,199,23,19,13,143,27,15,56,303,,24,25,276,*7B
$GPGSV,3,3,09,20,10,321,*43
$GLGSV,3,1,09,73,32,043,34,82,06,013,28,72,72,235,,74,69,341,*61
$GLGSV,3,2,09,65,41,319,,75,33,254,,71,30,171,,83,13,060,*6C
$GLGSV,3,3,09,84,01,111,*50
$GPGSA,A,3,05,13,17,19,28,30,,,,,,,5.1,3.7,3.5*34
$GNGSA,A,3,05,13,17,19,28,30,,,,,,,5.1,3.7,3.5*2A
$GNGSA,A,3,73,,,,,,,,,,,,5.1,3.7,3.5*2E
$QZGSA,A,3,,,,,,,,,,,,,5.1,3.7,3.5*28
$IMGSA,A,3,,,,,,,,,,,,,5.1,3.7,3.5*27
$GPRMC,095948.64,A,4155.819127,N,01236.702873,E,002.2,,180319,,,A*77
$GPGGA,095949.80,4155.820803,N,01236.701796,E,1,07,3.2,192.2,M,45.0,M,,*6F
$GPGSV,3,1,09,13,85,080,21,28,50,054,33,17,25,118,41,30,22,074,33*74
$GPGSV,3,2,09,05,21,199,23,19,13,143,27,15,56,303,,24,25,276,*7B
$GPGSV,3,3,09,20,10,321,*43
$GLGSV,3,1,09,73,32,043,34,82,06,013,28,72,72,235,,74,69,341,*61
$GLGSV,3,2,09,65,41,319,,75,33,254,,71,30,171,,83,13,060,*6C
$GLGSV,3,3,09,84,01,111,*50
$GPGSA,A,3,05,13,17,19,28,30,,,,,,,5.1,3.7,3.5*34
$GNGSA,A,3,05,13,17,19,28,30,,,,,,,5.1,3.7,3.5*2A
$GNGSA,A,3,73,,,,,,,,,,,,5.1,3.7,3.5*2E
$QZGSA,A,3,,,,,,,,,,,,,5.1,3.7,3.5*28
$IMGSA,A,3,,,,,,,,,,,,,5.1,3.7,3.5*27
$GPRMC,095949.80,A,4155.820803,N,01236.701796,E,002.3,,180319,,,A*7F
$GPGGA,095950.80,4155.822526,N,01236.700427,E,1,07,3.2,220.7,M,45.0,M,,*68
$GPGSV,3,1,09,13,85,080,21,15,56,303,17,28,50,054,33,17,25,118,41*75
$GPGSV,3,2,09,30,22,074,33,05,21,199,23,19,13,143,27,24,25,276,*7C
$GPGSV,3,3,09,20,10,321,*43
$GLGSV,3,1,09,73,32,043,34,82,06,013,28,72,72,235,,74,69,341,*61
$GLGSV,3,2,09,65,41,319,,75,33,254,,71,30,171,,83,13,060,*6C
$GLGSV,3,3,09,84,01,111,*50
$GPGSA,A,3,05,13,17,19,28,30,,,,,,,5.1,3.7,3.5*34
$GNGSA,A,3,05,13,17,19,28,30,,,,,,,5.1,3.7,3.5*2A
$GNGSA,A,3,73,,,,,,,,,,,,5.1,3.7,3.5*2E
$QZGSA,A,3,,,,,,,,,,,,,5.1,3.7,3.5*28
$IMGSA,A,3,,,,,,,,,,,,,5.1,3.7,3.5*27
$GPRMC,095950.80,A,4155.822526,N,01236.700427,E,000.3,,180319,,,A*75
$GPGGA,095951.80,4155.823406,N,01236.699805,E,1,07,3.2,237.4,M,45.0,M,,*63
$GPGSV,3,1,09,13,85,081,21,15,56,303,19,28,50,054,33,17,25,118,41*7A
$GPGSV,3,2,09,24,25,276,15,30,22,074,34,05,21,199,23,19,13,143,27*7F
$GPGSV,3,3,09,20,10,321,15*47
$GLGSV,3,1,09,73,32,043,34,82,06,013,28,72,72,235,,74,69,341,*61
$GLGSV,3,2,09,65,41,319,,75,33,254,,71,30,171,,83,13,060,*6C
$GLGSV,3,3,09,84,01,111,*50
$GPGSA,A,3,05,13,17,19,28,30,,,,,,,5.1,3.7,3.5*34
$GNGSA,A,3,05,13,17,19,28,30,,,,,,,5.1,3.7,3.5*2A
$GNGSA,A,3,73,,,,,,,,,,,,5.1,3.7,3.5*2E
$QZGSA,A,3,,,,,,,,,,,,,5.1,3.7,3.5*28
$IMGSA,A,3,,,,,,,,,,,,,5.1,3.7,3.5*27
$GPRMC,095951.80,A,4155.823406,N,01236.699805,E,000.7,,180319,,,A*7F
$GPGGA,095952.69,4155.823295,N,01236.698954,E,1,08,3.2,264.1,M,45.0,M,,*63
$GPGSV,3,1,09,13,85,081,22,15,56,303,19,28,50,054,33,17,25,118,41*79
$GPGSV,3,2,09,24,25,276,18,30,22,074,34,05,21,199,23,19,13,143,27*72
$GPGSV,3,3,09,20,10,321,19*4B
$GLGSV,3,1,09,73,32,043,34,82,06,013,29,72,72,235,,74,69,341,*60
$GLGSV,3,2,09,65,41,319,,75,33,254,,71,30,171,,83,13,060,*6C
$GLGSV,3,3,09,84,01,111,*50
$GPGSA,A,3,05,13,15,17,19,28,30,,,,,,2.6,1.4,2.2*37
$GNGSA,A,3,05,13,15,17,19,28,30,,,,,,2.6,1.4,2.2*29
$GNGSA,A,3,73,,,,,,,,,,,,2.6,1.4,2.2*29
$QZGSA,A,3,,,,,,,,,,,,,2.6,1.4,2.2*2F
$IMGSA,A,3,,,,,,,,,,,,,2.6,1.4,2.2*20
$GPRMC,095952.69,A,4155.823295,N,01236.698954,E,000.9,,180319,,,A*7D
$GPGGA,095953.69,4155.816720,N,01236.705313,E,1,10,2.4,195.8,M,45.0,M,,*69
$GPGSV,3,1,09,13,85,081,23,15,56,303,19,28,50,054,33,17,25,118,41*78
$GPGSV,3,2,09,24,25,276,20,30,22,074,35,05,21,199,23,19,13,143,27*78
$GPGSV,3,3,09,20,10,321,19*4B
$GLGSV,3,1,09,73,32,043,34,82,06,013,29,72,72,235,,74,69,341,*60
$GLGSV,3,2,09,65,41,319,,75,33,254,,71,30,171,,83,13,060,*6C
$GLGSV,3,3,09,84,01,111,*50
$GPGSA,A,3,05,13,15,17,19,20,24,28,30,,,,4.2,1.1,4.1*31
$GNGSA,A,3,05,13,15,17,19,20,24,28,30,,,,4.2,1.1,4.1*2F
$GNGSA,A,3,73,,,,,,,,,,,,4.2,1.1,4.1*2B
$QZGSA,A,3,,,,,,,,,,,,,4.2,1.1,4.1*2D
$IMGSA,A,3,,,,,,,,,,,,,4.2,1.1,4.1*22
$GPRMC,095953.69,A,4155.816720,N,01236.705313,E,000.0,,180319,,,A*74
$GPGGA,095954.69,4155.816362,N,01236.710282,E,1,10,2.4,102.9,M,45.0,M,,*6E
$GPGSV,3,1,09,13,85,081,23,15,56,303,21,28,50,054,33,17,25,118,41*73
$GPGSV,3,2,09,24,25,276,20,30,22,074,35,05,21,199,23,19,13,143,26*79
$GPGSV,3,3,09,20,10,321,18*4A
$GLGSV,3,1,09,73,32,043,34,82,06,013,29,72,71,235,,74,69,341,*63
$GLGSV,3,2,09,65,41,319,,75,33,254,,71,30,171,,83,13,060,*6C
$GLGSV,3,3,09,84,01,111,*50
$GPGSA,A,3,05,13,15,17,19,20,24,28,30,,,,4.2,1.9,3.8*37
$GNGSA,A,3,05,13,15,17,19,20,24,28,30,,,,4.2,1.9,3.8*29
$GNGSA,A,3,73,,,,,,,,,,,,4.2,1.9,3.8*2D
$QZGSA,A,3,,,,,,,,,,,,,4.2,1.9,3.8*2B
$IMGSA,A,3,,,,,,,,,,,,,4.2,1.9,3.8*24
$GPRMC,095954.69,A,4155.816362,N,01236.710282,E,000.0,,180319,,,A*7C
$GPGGA,095956.00,4155.816796,N,01236.707522,E,1,10,2.4,91.2,M,45.0,M,,*57
$GPGSV,3,1,09,13,85,081,23,15,56,303,21,28,50,054,33,17,25,118,41*73
$GPGSV,3,2,09,24,25,276,20,30,22,074,35,05,21,199,23,19,13,143,26*79
$GPGSV,3,3,09,20,10,321,18*4A
$GLGSV,3,1,09,73,32,043,34,82,06,013,29,72,71,235,,74,69,341,*63
$GLGSV,3,2,09,65,41,319,,75,33,254,,71,30,171,,83,13,060,*6C
$GLGSV,3,3,09,84,01,111,*50
$GPGSA,A,3,05,13,15,17,19,20,24,28,30,,,,4.2,1.9,3.8*37
$GNGSA,A,3,05,13,15,17,19,20,24,28,30,,,,4.2,1.9,3.8*29
$GNGSA,A,3,73,,,,,,,,,,,,4.2,1.9,3.8*2D
$QZGSA,A,3,,,,,,,,,,,,,4.2,1.9,3.8*2B
$IMGSA,A,3,,,,,,,,,,,,,4.2,1.9,3.8*24
$GPRMC,095956.00,A,4155.816796,N,01236.707522,E,000.0,,180319,,,A*75
$GPGGA,095957.00,4155.817095,N,01236.706443,E,1,10,1.6,86.9,M,45.0,M,,*58
$GPGSV,3,1,09,13,85,081,23,15,56,303,21,28,50,054,33,17,25,118,41*73
$GPGSV,3,2,09,24,25,276,20,30,22,074,35,05,21,199,23,19,13,143,26*79
$GPGSV,3,3,09,20,10,321,18*4A
$GLGSV,3,1,09,73,32,043,34,82,06,013,29,72,71,235,,74,69,341,*63
$GLGSV,3,2,09,65,41,319,,75,33,254,,71,30,171,,83,13,060,*6C
$GLGSV,3,3,09,84,02,111,*53
$GPGSA,A,3,05,13,15,17,19,20,24,28,30,,,,4.2,1.9,3.8*37
$GNGSA,A,3,05,13,15,17,19,20,24,28,30,,,,4.2,1.9,3.8*29
$GNGSA,A,3,73,,,,,,,,,,,,4.2,1.9,3.8*2D
$QZGSA,A,3,,,,,,,,,,,,,4.2,1.9,3.8*2B
$IMGSA,A,3,,,,,,,,,,,,,4.2,1.9,3.8*24
$GPRMC,095957.00,A,4155.817095,N,01236.706443,E,000.0,,180319,,,A*76
$GPGGA,095958.00,4155.817367,N,01236.705395,E,1,10,1.6,84.1,M,45.0,M,,*5C
$GPGSV,3,1,09,13,85,081,22,15,56,303,21,28,50,054,33,17,25,118,41*72
$GPGSV,3,2,09,24,25,276,20,30,22,074,36,05,21,199,23,19,13,143,26*7A
$GPGSV,3,3,09,20,10,321,19*4B
$GLGSV,3,1,09,73,32,043,34,82,06,013,29,72,71,235,,74,69,341,*63
$GLGSV,3,2,09,65,41,319,,75,33,254,,71,30,171,,83,13,060,*6C
$GLGSV,3,3,09,84,02,111,*53
$GPGSA,A,3,05,13,15,17,19,20,24,28,30,,,,4.2,1.9,3.8*37
$GNGSA,A,3,05,13,15,17,19,20,24,28,30,,,,4.2,1.9,3.8*29
$GNGSA,A,3,73,,,,,,,,,,,,4.2,1.9,3.8*2D
$QZGSA,A,3,,,,,,,,,,,,,4.2,1.9,3.8*2B
$IMGSA,A,3,,,,,,,,,,,,,4.2,1.9,3.8*24
$GPRMC,095958.00,A,4155.817367,N,01236.705395,E,000.0,,180319,,,A*78
$GPGGA,095959.00,4155.817481,N,01236.704047,E,1,10,1.6,82.0,M,45.0,M,,*58
$GPGSV,3,1,09,13,85,081,22,15,56,303,22,28,50,054,33,17,25,118,41*71
$GPGSV,3,2,09,24,25,276,21,30,22,074,36,05,21,199,23,19,13,143,26*7B
$GPGSV,3,3,09,20,10,321,20*41
$GLGSV,3,1,09,73,32,043,34,82,06,013,29,72,71,235,,74,68,341,*62
$GLGSV,3,2,09,65,41,319,,75,33,254,,71,30,171,,83,13,060,*6C
$GLGSV,3,3,09,84,02,111,*53
$GPGSA,A,3,05,13,15,17,19,20,24,28,30,,,,4.2,1.9,3.8*37
$GNGSA,A,3,05,13,15,17,19,20,24,28,30,,,,4.2,1.9,3.8*29
$GNGSA,A,3,73,,,,,,,,,,,,4.2,1.9,3.8*2D
$QZGSA,A,3,,,,,,,,,,,,,4.2,1.9,3.8*2B
$IMGSA,A,3,,,,,,,,,,,,,4.2,1.9,3.8*24
$GPRMC,095959.00,A,4155.817481,N,01236.704047,E,000.0,,180319,,,A*7B
$GPGGA,100000.00,4155.817560,N,01236.702181,E,1,10,1.2,79.3,M,45.0,M,,*50
$GPGSV,3,1,09,13,85,081,22,15,56,303,22,28,50,054,33,17,25,118,41*71
$GPGSV,3,2,09,24,25,276,21,30,22,074,36,05,21,199,23,19,13,143,27*7A
$GPGSV,3,3,09,20,10,321,20*41
$GLGSV,3,1,09,73,32,043,34,82,06,013,29,72,71,235,,74,68,341,*62
$GLGSV,3,2,09,65,41,319,,75,33,254,,71,30,171,,83,13,060,*6C
$GLGSV,3,3,09,84,02,111,*53
$GPGSA,A,3,05,13,15,17,19,20,24,28,30,,,,2.6,1.0,2.4*31
$GNGSA,A,3,05,13,15,17,19,20,24,28,30,,,,2.6,1.0,2.4*2F
$GNGSA,A,3,73,,,,,,,,,,,,2.6,1.0,2.4*2B
$QZGSA,A,3,,,,,,,,,,,,,2.6,1.0,2.4*2D
$IMGSA,A,3,,,,,,,,,,,,,2.6,1.0,2.4*22
$GPRMC,100000.00,A,4155.817560,N,01236.702181,E,000.0,,180319,,,A*70
$GPGGA,100001.00,4155.817830,N,01236.701591,E,1,10,1.2,78.0,M,45.0,M,,*5D
$GPGSV,3,1,09,13,85,081,22,15,56,303,22,28,50,054,33,17,25,118,41*71
$GPGSV,3,2,09,24,25,276,21,30,22,074,36,05,21,199,23,19,13,143,27*7A
$GPGSV,3,3,09,20,10,321,20*41
$GLGSV,3,1,09,73,32,043,34,82,06,013,29,72,71,235,,74,68,341,*62
$GLGSV,3,2,09,65,41,319,,75,33,254,,71,30,171,,83,13,060,*6C
$GLGSV,3,3,09,84,02,111,*53
$GPGSA,A,3,05,13,15,17,19,20,24,28,30,,,,2.6,1.0,2.4*31
$GNGSA,A,3,05,13,15,17,19,20,24,28,30,,,,2.6,1.0,2.4*2F
$GNGSA,A,3,73,,,,,,,,,,,,2.6,1.0,2.4*2B
$QZGSA,A,3,,,,,,,,,,,,,2.6,1.0,2.4*2D
$IMGSA,A,3,,,,,,,,,,,,,2.6,1.0,2.4*22
$GPRMC,100001.00,A,4155.817830,N,01236.701591,E,000.0,,180319,,,A*7F
$GPGGA,100002.00,4155.817919,N,01236.701055,E,1,10,3.2,76.7,M,45.0,M,,*52
$GPGSV,3,1,09,13,85,081,22,15,56,303,22,28,50,054,33,17,25,118,41*71
$GPGSV,3,2,09,24,25,276,21,30,22,074,36,05,21,199,23,19,13,143,27*7A
$GPGSV,3,3,09,20,10,321,20*41
$GLGSV,3,1,09,73,32,043,34,71,30,171,27,82,06,013,29,72,71,235,*6E
$GLGSV,3,2,09,74,68,341,,65,41,319,,75,33,254,,83,13,060,*65
$GLGSV,3,3,09,84,02,111,*53
$GPGSA,A,3,05,13,15,17,19,20,24,28,30,,,,2.6,1.0,2.4*31
$GNGSA,A,3,05,13,15,17,19,20,24,28,30,,,,2.6,1.0,2.4*2F
$GNGSA,A,3,73,,,,,,,,,,,,2.6,1.0,2.4*2B
$QZGSA,A,3,,,,,,,,,,,,,2.6,1.0,2.4*2D
$IMGSA,A,3,,,,,,,,,,,,,2.6,1.0,2.4*22
$GPRMC,100002.00,A,4155.817919,N,01236.701055,E,000.0,,180319,,,A*7B
$GPGGA,100003.00,4155.817936,N,01236.700257,E,1,10,3.2,75.4,M,45.0,M,,*5F
$GPGSV,3,1,09,13,85,081,22,15,56,303,22,28,50,054,33,17,25,118,41*71
$GPGSV,3,2,09,24,25,276,21,30,22,074,36,05,21,199,22,19,13,143,28*74
$GPGSV,3,3,09,20,10,321,20*41
$GLGSV,3,1,09,73,32,043,34,71,30,171,27,82,06,013,29,72,71,235,*6E
$GLGSV,3,2,09,74,68,341,,65,41,319,,75,33,254,,83,13,060,*65
$GLGSV,3,3,09,84,02,111,*53
$GPGSA,A,3,05,13,15,17,19,20,24,28,30,,,,2.6,1.0,2.4*31
$GNGSA,A,3,05,13,15,17,19,20,24,28,30,,,,2.6,1.0,2.4*2F
$GNGSA,A,3,73,,,,,,,,,,,,2.6,1.0,2.4*2B
$QZGSA,A,3,,,,,,,,,,,,,2.6,1.0,2.4*2D
$IMGSA,A,3,,,,,,,,,,,,,2.6,1.0,2.4*22
$GPRMC,100003.00,A,4155.817936,N,01236.700257,E,000.0,,180319,,,A*76
$GPGGA,100004.00,4155.817729,N,01236.698710,E,1,10,3.2,73.7,M,45.0,M,,*5B
$GPGSV,3,1,09,13,85,081,22,15,56,303,21,28,50,054,33,17,25,118,41*72
$GPGSV,3,2,09,24,25,276,21,30,22,074,36,05,21,199,22,19,13,143,28*74
$GPGSV,3,3,09,20,10,321,20*41
$GLGSV,3,1,09,73,32,043,34,71,30,171,27,83,13,060,21,82,06,013,29*65
$GLGSV,3,2,09,72,71,235,,74,68,341,,65,41,319,,75,33,254,*6D
$GLGSV,3,3,09,84,02,111,*53
$GPGSA,A,3,05,13,15,17,19,20,24,28,30,,,,2.6,1.0,2.4*31
$GNGSA,A,3,05,13,15,17,19,20,24,28,30,,,,2.6,1.0,2.4*2F
$GNGSA,A,3,73,,,,,,,,,,,,2.6,1.0,2.4*2B
$QZGSA,A,3,,,,,,,,,,,,,2.6,1.0,2.4*2D
$IMGSA,A,3,,,,,,,,,,,,,2.6,1.0,2.4*22
$GPRMC,100004.00,A,4155.817729,N,01236.698710,E,000.0,,180319,,,A*77
$GPGGA,100005.00,4155.817649,N,01236.697501,E,1,10,3.2,72.5,M,45.0,M,,*53
$GPGSV,3,1,09,13,85,082,21,15,56,303,21,28,50,054,33,17,25,118,41*72
$GPGSV,3,2,09,24,25,276,21,30,22,074,36,05,21,199,22,19,13,143,29*75
$GPGSV,3,3,09,20,10,321,20*41
$GLGSV,3,1,09,73,32,043,34,71,30,171,27,83,13,060,25,82,06,013,29*61
$GLGSV,3,2,09,72,71,235,,74,68,341,,65,41,319,,75,33,254,*6D
$GLGSV,3,3,09,84,02,111,*53
$GPGSA,A,3,05,13,15,17,19,20,24,28,30,,,,2.6,1.0,2.4*31
$GNGSA,A,3,05,13,15,17,19,20,24,28,30,,,,2.6,1.0,2.4*2F
$GNGSA,A,3,73,,,,,,,,,,,,2.6,1.0,2.4*2B
$QZGSA,A,3,,,,,,,,,,,,,2.6,1.0,2.4*2D
$IMGSA,A,3,,,,,,,,,,,,,2.6,1.0,2.4*22
$GPRMC,100005.00,A,4155.817649,N,01236.697501,E,000.0,,180319,,,A*7C
$GPGGA,100006.00,4155.817613,N,01236.696306,E,1,10,3.2,71.3,M,45.0,M,,*5A
$GPGSV,3,1,09,13,85,082,21,15,56,303,21,28,50,054,33,17,25,118,41*72
$GPGSV,3,2,09,24,25,276,21,30,22,074,36,05,21,199,22,19,13,143,30*7D
$GPGSV,3,3,09,20,10,321,20*41
$GLGSV,3,1,09,73,32,043,34,71,30,171,28,83,13,060,25,82,06,013,29*6E
$GLGSV,3,2,09,72,71,235,,74,68,341,,65,41,319,,75,33,254,*6D
$GLGSV,3,3,09,84,02,111,*53
$GPGSA,A,3,05,13,15,17,19,20,24,28,30,,,,2.6,1.0,2.4*31
$GNGSA,A,3,05,13,15,17,19,20,24,28,30,,,,2.6,1.0,2.4*2F
$GNGSA,A,3,73,,,,,,,,,,,,2.6,1.0,2.4*2B
$QZGSA,A,3,,,,,,,,,,,,,2.6,1.0,2.4*2D
$IMGSA,A,3,,,,,,,,,,,,,2.6,1.0,2.4*22
$GPRMC,100006.00,A,4155.817613,N,01236.696306,E,000.0,,180319,,,A*70
$GPGGA,100007.00,4155.817455,N,01236.694935,E,1,10,3.2,69.9,M,45.0,M,,*50
$GPGSV,3,1,09,13,85,082,21,15,56,303,21,28,50,054,33,17,25,118,41*72
$GPGSV,3,2,09,24,25,276,21,30,22,074,36,05,21,199,22,19,13,143,30*7D
$GPGSV,3,3,09,20,10,321,20*41
$GLGSV,3,1,09,73,32,043,34,71,30,171,28,83,13,060,25,82,06,013,29*6E
$GLGSV,3,2,09,72,71,235,,74,68,341,,65,41,319,,75,33,254,*6D
$GLGSV,3,3,09,84,02,111,*53
$GPGSA,A,3,05,13,15,17,19,20,24,28,30,,,,2.6,1.0,2.4*31
$GNGSA,A,3,05,13,15,17,19,20,24,28,30,,,,2.6,1.0,2.4*2F
$GNGSA,A,3,73,,,,,,,,,,,,2.6,1.0,2.4*2B
$QZGSA,A,3,,,,,,,,,,,,,2.6,1.0,2.4*2D
$IMGSA,A,3,,,,,,,,,,,,,2.6,1.0,2.4*22
$GPRMC,100007.00,A,4155.817455,N,01236.694935,E,000.0,,180319,,,A*79
$GPGGA,100008.00,4155.817435,N,01236.694422,E,1,10,3.2,69.1,M,45.0,M,,*5A
$GPGSV,3,1,09,13,85,082,21,15,56,303,21,28,50,054,33,17,25,118,41*72
$GPGSV,3,2,09,24,25,276,21,30,22,074,36,05,21,199,21,19,13,143,31*7F
$GPGSV,3,3,09,20,10,321,20*41
$GLGSV,3,1,09,73,32,043,34,71,30,171,27,83,13,060,25,82,06,013,29*61
$GLGSV,3,2,09,72,71,234,,74,68,341,,65,41,319,,75,33,254,*6C
$GLGSV,3,3,09,84,02,111,*53
$GPGSA,A,3,05,13,15,17,19,20,24,28,30,,,,2.6,1.0,2.4*31
$GNGSA,A,3,05,13,15,17,19,20,24,28,30,,,,2.6,1.0,2.4*2F
$GNGSA,A,3,73,,,,,,,,,,,,2.6,1.0,2.4*2B
$QZGSA,A,3,,,,,,,,,,,,,2.6,1.0,2.4*2D
$IMGSA,A,3,,,,,,,,,,,,,2.6,1.0,2.4*22
$GPRMC,100008.00,A,4155.817435,N,01236.694422,E,000.0,,180319,,,A*7B
$GPGGA,100009.00,4155.817468,N,01236.693892,E,1,10,3.2,68.5,M,45.0,M,,*56
$GPGSV,3,1,09,13,85,082,21,15,56,303,21,28,50,054,33,17,25,118,41*72
$GPGSV,3,2,09,24,25,276,21,30,22,074,36,05,21,199,21,19,13,143,31*7F
$GPGSV,3,3,09,20,10,321,20*41
$GLGSV,3,1,09,73,32,043,34,71,30,171,27,83,13,060,25,82,06,013,29*61
$GLGSV,3,2,09,72,71,234,,74,68,341,,65,41,319,,75,33,254,*6C
$GLGSV,3,3,09,84,02,111,*53
$GPGSA,A,3,05,13,15,17,19,20,24,28,30,,,,2.6,1.0,2.4*31
$GNGSA,A,3,05,13,15,17,19,20,24,28,30,,,,2.6,1.0,2.4*2F
$GNGSA,A,3,73,,,,,,,,,,,,2.6,1.0,2.4*2B
$QZGSA,A,3,,,,,,,,,,,,,2.6,1.0,2.4*2D
$IMGSA,A,3,,,,,,,,,,,,,2.6,1.0,2.4*22
$GPRMC,100009.00,A,4155.817468,N,01236.693892,E,000.0,,180319,,,A*72
$GPGGA,100010.00,4155.817306,N,01236.692282,E,1,10,3.2,67.1,M,45.0,M,,*50
$GPGSV,3,1,09,13,85,082,22,15,56,303,21,28,50,054,33,17,25,118,41*71
$GPGSV,3,2,09,24,25,276,21,30,22,074,36,05,21,199,21,19,13,143,32*7C
$GPGSV,3,3,09,20,10,321,20*41
$GLGSV,3,1,09,73,32,043,34,71,30,171,27,83,13,060,25,82,06,013,29*61
$GLGSV,3,2,09,72,71,234,,74,68,341,,65,41,319,,75,33,254,*6C
$GLGSV,3,3,09,84,02,111,*53
$GPGSA,A,3,05,13,15,17,19,20,24,28,30,,,,3.3,1.7,2.8*3E
$GNGSA,A,3,05,13,15,17,19,20,24,28,30,,,,3.3,1.7,2.8*20
$GNGSA,A,3,73,,,,,,,,,,,,3.3,1.7,2.8*24
$QZGSA,A,3,,,,,,,,,,,,,3.3,1.7,2.8*22
$IMGSA,A,3,,,,,,,,,,,,,3.3,1.7,2.8*2D
$GPRMC,100010.00,A,4155.817306,N,01236.692282,E,000.0,,180319,,,A*7F
$GPGGA,100011.00,4155.817063,N,01236.690641,E,1,10,3.2,65.7,M,45.0,M,,*5C
$GPGSV,3,1,09,13,85,082,22,15,56,303,21,28,50,054,33,17,25,118,41*71
$GPGSV,3,2,09,24,25,276,21,30,22,074,37,05,21,199,21,19,13,143,32*7D
$GPGSV,3,3,09,20,10,321,20*41
$GLGSV,3,1,09,73,32,043,34,71,30,171,27,83,13,060,25,82,06,013,29*61
$GLGSV,3,2,09,72,71,234,,74,68,341,,65,41,319,,75,33,254,*6C
$GLGSV,3,3,09,84,02,111,*53
$GPGSA,A,3,05,13,15,17,19,20,24,28,30,,,,3.3,1.7,2.8*3E
$GNGSA,A,3,05,13,15,17,19,20,24,28,30,,,,3.3,1.7,2.8*20
$GNGSA,A,3,73,,,,,,,,,,,,3.3,1.7,2.8*24
$QZGSA,A,3,,,,,,,,,,,,,3.3,1.7,2.8*22
$IMGSA,A,3,,,,,,,,,,,,,3.3,1.7,2.8*2D
$GPRMC,100011.00,A,4155.817063,N,01236.690641,E,000.0,,180319,,,A*77
$GPGGA,100012.00,4155.816880,N,01236.689199,E,1,10,3.2,65.6,M,45.0,M,,*50
$GPGSV,3,1,09,13,85,082,22,15,56,303,21,28,50,054,33,17,25,118,41*71
$GPGSV,3,2,09,24,25,276,21,30,22,074,37,05,21,199,20,19,13,143,32*7C
$GPGSV,3,3,09,20,10,321,20*41
$GLGSV,3,1,09,73,32,043,33,71,30,171,27,83,13,060,25,82,06,013,29*66
$GLGSV,3,2,09,72,71,234,,74,68,341,,65,41,319,,75,33,254,*6C
$GLGSV,3,3,09,84,02,111,*53
$GPGSA,A,3,05,13,15,17,19,20,24,28,30,,,,3.3,1.7,2.8*3E
$GNGSA,A,3,05,13,15,17,19,20,24,28,30,,,,3.3,1.7,2.8*20
$GNGSA,A,3,73,,,,,,,,,,,,3.3,1.7,2.8*24
$QZGSA,A,3,,,,,,,,,,,,,3.3,1.7,2.8*22
$IMGSA,A,3,,,,,,,,,,,,,3.3,1.7,2.8*2D
$GPRMC,100012.00,A,4155.816880,N,01236.689199,E,000.0,,180319,,,A*7A
$GPGGA,100013.00,4155.816721,N,01236.687989,E,1,10,3.2,64.4,M,45.0,M,,*51
$GPGSV,3,1,09,13,85,082,22,15,56,303,21,28,50,054,33,17,25,118,41*71
$GPGSV,3,2,09,24,25,276,21,30,22,074,37,05,21,199,20,19,13,143,33*7D
$GPGSV,3,3,09,20,10,321,20*41
$GLGSV,3,1,09,73,32,043,34,71,30,171,27,83,13,060,25,82,06,013,29*61
$GLGSV,3,2,09,72,71,234,,74,68,341,,65,41,319,,75,33,254,*6C
$GLGSV,3,3,09,84,02,111,*53
$GPGSA,A,3,05,13,15,17,19,20,24,28,30,,,,3.3,1.7,2.8*3E
$GNGSA,A,3,05,13,15,17,19,20,24,28,30,,,,3.3,1.7,2.8*20
$GNGSA,A,3,73,,,,,,,,,,,,3.3,1.7,2.8*24
$QZGSA,A,3,,,,,,,,,,,,,3.3,1.7,2.8*22
$IMGSA,A,3,,,,,,,,,,,,,3.3,1.7,2.8*2D
$GPRMC,100013.00,A,4155.816721,N,01236.687989,E,000.0,,180319,,,A*78
$GPGGA,100014.00,4155.816582,N,01236.686839,E,1,10,3.2,63.2,M,45.0,M,,*57
$GPGSV,3,1,09,13,85,082,22,15,56,303,21,28,50,054,33,17,25,118,40*70
$GPGSV,3,2,09,24,25,276,21,30,22,074,37,05,21,199,19,19,13,143,33*77
$GPGSV,3,3,09,20,10,321,20*41
$GLGSV,3,1,09,73,32,043,34,71,30,171,27,83,13,060,25,82,06,013,29*61
$GLGSV,3,2,09,72,71,234,,74,68,341,,65,41,319,,75,33,254,*6C
$GLGSV,3,3,09,84,02,111,*53
$GPGSA,A,3,05,13,15,17,19,20,24,28,30,,,,3.3,1.6,2.8*3F
$GNGSA,A,3,05,13,15,17,19,20,24,28,30,,,,3.3,1.6,2.8*21
$GNGSA,A,3,73,,,,,,,,,,,,3.3,1.6,2.8*25
$QZGSA,A,3,,,,,,,,,,,,,3.3,1.6,2.8*23
$IMGSA,A,3,,,,,,,,,,,,,3.3,1.6,2.8*2C
$GPRMC,100014.00,A,4155.816582,N,01236.686839,E,000.0,,180319,,,A*7F
$GPGGA,100015.00,4155.816482,N,01236.685769,E,1,10,3.2,62.1,M,45.0,M,,*5C
$GPGSV,3,1,09,13,85,082,23,15,56,303,21,28,50,054,33,17,25,118,40*71
$GPGSV,3,2,09,24,25,276,21,30,22,074,37,05,21,199,19,19,13,143,33*77
$GPGSV,3,3,09,20,10,321,20*41
$GLGSV,3,1,09,73,32,043,33,71,30,171,26,83,13,060,25,82,06,013,29*67
$GLGSV,3,2,09,72,71,234,,74,68,341,,65,41,319,,75,33,254,*6C
$GLGSV,3,3,09,84,02,111,*53
$GPGSA,A,3,05,13,15,17,19,20,24,28,30,,,,3.3,1.6,2.8*3F
$GNGSA,A,3,05,13,15,17,19,20,24,28,30,,,,3.3,1.6,2.8*21
$GNGSA,A,3,73,,,,,,,,,,,,3.3,1.6,2.8*25
$QZGSA,A,3,,,,,,,,,,,,,3.3,1.6,2.8*23
$IMGSA,A,3,,,,,,,,,,,,,3.3,1.6,2.8*2C
$GPRMC,100015.00,A,4155.816482,N,01236.685769,E,000.0,,180319,,,A*76
$GPGGA,100016.00,4155.816482,N,01236.685769,E,1,10,3.2,61.1,M,45.0,M,,*5C
$GPGSV,3,1,09,13,85,083,23,15,56,303,20,28,50,054,33,17,25,118,40*71
$GPGSV,3,2,09,24,25,276,21,30,22,074,37,05,21,199,18,19,13,143,33*76
$GPGSV,3,3,09,20,10,321,20*41
$GLGSV,3,1,09,73,32,043,33,71,30,171,26,83,13,060,25,82,06,013,29*67
$GLGSV,3,2,09,72,71,234,,74,68,342,,65,41,319,,75,33,254,*6F
$GLGSV,3,3,09,84,02,111,*53
$GPGSA,A,3,05,13,15,17,19,20,24,28,30,,,,3.3,1.6,2.8*3F
$GNGSA,A,3,05,13,15,17,19,20,24,28,30,,,,3.3,1.6,2.8*21
$GNGSA,A,3,73,,,,,,,,,,,,3.3,1.6,2.8*25
$QZGSA,A,3,,,,,,,,,,,,,3.3,1.6,2.8*23
$IMGSA,A,3,,,,,,,,,,,,,3.3,1.6,2.8*2C
$GPRMC,100016.00,A,4155.816482,N,01236.685769,E,000.0,,180319,,,A*75
$GPGGA,100017.00,4155.816482,N,01236.685769,E,1,10,3.2,60.1,M,45.0,M,,*5C
$GPGSV,3,1,09,13,85,083,23,15,56,303,20,28,50,054,33,17,25,118,40*71
$GPGSV,3,2,09,24,25,276,21,30,22,074,37,05,21,199,17,19,13,143,33*79
$GPGSV,3,3,09,20,10,321,20*41
$GLGSV,3,1,09,73,32,043,33,71,30,171,26,83,13,060,25,82,06,013,29*67
$GLGSV,3,2,09,72,71,234,,74,68,342,,65,41,319,,75,33,254,*6F
$GLGSV,3,3,09,84,02,111,*53
$GPGSA,A,3,05,13,15,17,19,20,24,28,30,,,,3.3,1.6,2.8*3F
$GNGSA,A,3,05,13,15,17,19,20,24,28,30,,,,3.3,1.6,2.8*21
$GNGSA,A,3,73,,,,,,,,,,,,3.3,1.6,2.8*25
$QZGSA,A,3,,,,,,,,,,,,,3.3,1.6,2.8*23
$IMGSA,A,3,,,,,,,,,,,,,3.3,1.6,2.8*2C
$GPRMC,100017.00,A,4155.816482,N,01236.685769,E,000.0,,180319,,,A*74
$GPGGA,100018.00,4155.816482,N,01236.685769,E,1,09,3.2,59.3,M,45.0,M,,*53
$GPGSV,3,1,09,13,85,083,23,15,56,303,20,28,50,054,33,17,25,118,40*71
$GPGSV,3,2,09,24,25,276,21,30,22,074,37,05,21,199,17,19,13,143,33*79
$GPGSV,3,3,09,20,10,321,20*41
$GLGSV,3,1,09,73,32,043,33,71,30,171,26,83,13,060,25,82,06,013,29*67
$GLGSV,3,2,09,72,71,234,,74,68,342,,65,41,319,,75,33,254,*6F
$GLGSV,3,3,09,84,02,111,*53
$GPGSA,A,3,13,15,17,19,20,24,28,30,,,,,3.3,1.6,2.8*3A
$GNGSA,A,3,13,15,17,19,20,24,28,30,,,,,3.3,1.6,2.8*24
$GNGSA,A,3,73,,,,,,,,,,,,3.3,1.6,2.8*25
$QZGSA,A,3,,,,,,,,,,,,,3.3,1.6,2.8*23
$IMGSA,A,3,,,,,,,,,,,,,3.3,1.6,2.8*2C
$GPRMC,100018.00,A,4155.816482,N,01236.685769,E,000.0,,180319,,,A*7B
$GPGGA,100019.00,4155.816482,N,01236.685769,E,1,09,3.2,58.5,M,45.0,M,,*55
$GPGSV,3,1,09,13,85,083,23,15,56,303,20,28,50,054,32,17,25,118,40*70
$GPGSV,3,2,09,24,25,276,21,30,22,074,37,05,21,199,16,19,13,143,33*78
$GPGSV,3,3,09,20,10,321,20*41
$GLGSV,3,1,09,73,32,043,33,71,30,171,26,83,13,060,25,82,06,013,28*66
$GLGSV,3,2,09,72,71,234,,74,68,342,,65,41,319,,75,33,254,*6F
$GLGSV,3,3,09,84,02,111,*53
$GPGSA,A,3,13,15,17,19,20,24,28,30,,,,,3.3,1.6,2.8*3A
$GNGSA,A,3,13,15,17,19,20,24,28,30,,,,,3.3,1.6,2.8*24
$GNGSA,A,3,73,,,,,,,,,,,,3.3,1.6,2.8*25
$QZGSA,A,3,,,,,,,,,,,,,3.3,1.6,2.8*23
$IMGSA,A,3,,,,,,,,,,,,,3.3,1.6,2.8*2C
$GPRMC,100019.00,A,4155.816482,N,01236.685769,E,000.0,,180319,,,A*7A
$GPGGA,100020.00,4155.816482,N,01236.685769,E,1,09,3.2,57.7,M,45.0,M,,*52
$GPGSV,3,1,09,13,85,083,23,15,56,303,20,28,50,054,32,17,25,118,41*71
$GPGSV,3,2,09,24,25,276,21,30,22,074,37,05,21,199,16,19,13,143,33*78
$GPGSV,3,3,09,20,10,321,20*41
$GLGSV,3,1,09,73,32,043,33,71,30,171,25,83,13,060,25,82,06,013,28*65
$GLGSV,3,2,09,72,71,234,,74,68,342,,65,41,319,,75,33,254,*6F
$GLGSV,3,3,09,84,02,111,*53
$GPGSA,A,3,13,15,17,19,20,24,28,30,,,,,3.3,1.6,2.8*3A
$GNGSA,A,3,13,15,17,19,20,24,28,30,,,,,3.3,1.6,2.8*24
$GNGSA,A,3,73,,,,,,,,,,,,3.3,1.6,2.8*25
$QZGSA,A,3,,,,,,,,,,,,,3.3,1.6,2.8*23
$IMGSA,A,3,,,,,,,,,,,,,3.3,1.6,2.8*2C
$GPRMC,100020.00,A,4155.816482,N,01236.685769,E,000.0,,180319,,,A*70
$GPGGA,100021.00,4155.816482,N,01236.685769,E,1,09,3.2,56.9,M,45.0,M,,*5C
$GPGSV,3,1,09,13,85,083,23,15,56,303,20,28,50,054,32,17,25,118,41*71
$GPGSV,3,2,09,24,25,276,21,30,22,074,37,05,21,199,15,19,13,143,33*7B
$GPGSV,3,3,09,20,10,321,21*40
$GLGSV,3,1,09,73,32,043,34,71,30,171,25,83,13,060,25,82,06,013,28*62
$GLGSV,3,2,09,72,71,234,,74,68,342,,65,41,319,,75,33,254,*6F
$GLGSV,3,3,09,84,02,111,*53
$GPGSA,A,3,13,15,17,19,20,24,28,30,,,,,3.3,1.6,2.8*3A
$GNGSA,A,3,13,15,17,19,20,24,28,30,,,,,3.3,1.6,2.8*24
$GNGSA,A,3,73,,,,,,,,,,,,3.3,1.6,2.8*25
$QZGSA,A,3,,,,,,,,,,,,,3.3,1.6,2.8*23
$IMGSA,A,3,,,,,,,,,,,,,3.3,1.6,2.8*2C
$GPRMC,100021.00,A,4155.816482,N,01236.685769,E,000.0,,180319,,,A*71
$GPGGA,100022.00,4155.816482,N,01236.685769,E,1,10,3.2,56.3,M,45.0,M,,*5D
$GPGSV,3,1,09,13,85,083,23,15,56,303,20,28,50,054,32,17,25,118,41*71
$GPGSV,3,2,09,24,25,276,20,30,22,074,37,05,21,199,15,19,13,143,33*7A
$GPGSV,3,3,09,20,10,321,21*40
$GLGSV,3,1,09,73,32,043,34,71,30,171,25,83,13,060,25,82,06,013,28*62
$GLGSV,3,2,09,72,71,234,,74,68,342,,65,41,319,,75,33,254,*6F
$GLGSV,3,3,09,84,02,111,*53
$GPGSA,A,3,05,13,15,17,19,20,24,28,30,,,,3.3,1.6,2.8*3F
$GNGSA,A,3,05,13,15,17,19,20,24,28,30,,,,3.3,1.6,2.8*21
$GNGSA,A,3,73,,,,,,,,,,,,3.3,1.6,2.8*25
$QZGSA,A,3,,,,,,,,,,,,,3.3,1.6,2.8*23
$IMGSA,A,3,,,,,,,,,,,,,3.3,1.6,2.8*2C
$GPRMC,100022.00,A,4155.816482,N,01236.685769,E,000.0,,180319,,,A*72
$GPGGA,100023.00,4155.816482,N,01236.685769,E,1,09,3.2,56.3,M,45.0,M,,*54
$GPGSV,3,1,09,13,85,083,23,15,56,303,20,28,50,054,32,17,25,118,41*71
$GPGSV,3,2,09,24,25,276,20,30,22,074,37,05,21,199,15,19,13,143,33*7A
$GPGSV,3,3,09,20,10,321,21*40
$GLGSV,3,1,09,73,32,043,34,71,29,171,25,83,13,060,25,82,06,013,29*6B
$GLGSV,3,2,09,72,71,234,,74,68,342,,65,41,319,,75,33,254,*6F
$GLGSV,3,3,09,84,02,111,*53
$GPGSA,A,3,13,15,17,19,20,24,28,30,,,,,3.3,1.6,2.8*3A
$GNGSA,A,3,13,15,17,19,20,24,28,30,,,,,3.3,1.6,2.8*24
$GNGSA,A,3,73,,,,,,,,,,,,3.3,1.6,2.8*25
$QZGSA,A,3,,,,,,,,,,,,,3.3,1.6,2.8*23
$IMGSA,A,3,,,,,,,,,,,,,3.3,1.6,2.8*2C
$GPRMC,100023.00,A,4155.816482,N,01236.685769,E,000.0,,180319,,,A*73
$GPGGA,100024.00,4155.815764,N,01236.678525,E,1,10,3.2,56.3,M,45.0,M,,*5B
$GPGSV,3,1,09,13,85,083,23,15,56,303,20,28,50,054,32,17,25,118,41*71
$GPGSV,3,2,09,24,25,276,20,30,22,074,37,05,21,199,14,19,13,143,33*7B
$GPGSV,3,3,09,20,10,321,22*43
$GLGSV,3,1,09,73,32,043,34,71,29,171,25,83,13,060,26,82,06,013,30*60
$GLGSV,3,2,09,72,71,234,,74,68,342,,65,41,319,,75,33,254,*6F
$GLGSV,3,3,09,84,02,111,*53
$GPGSA,A,3,05,13,15,17,19,20,24,28,30,,,,3.3,1.6,2.8*3F
$GNGSA,A,3,05,13,15,17,19,20,24,28,30,,,,3.3,1.6,2.8*21
$GNGSA,A,3,73,,,,,,,,,,,,3.3,1.6,2.8*25
$QZGSA,A,3,,,,,,,,,,,,,3.3,1.6,2.8*23
$IMGSA,A,3,,,,,,,,,,,,,3.3,1.6,2.8*2C
$GPRMC,100024.00,A,4155.815764,N,01236.678525,E,000.0,,180319,,,A*74
$GPGGA,100025.00,4155.815764,N,01236.678525,E,1,10,3.2,56.2,M,45.0,M,,*5B
$GPGSV,3,1,09,13,85,083,23,15,56,303,20,28,50,054,31,17,25,118,41*72
$GPGSV,3,2,09,24,25,276,20,30,22,074,37,05,21,199,14,19,13,143,33*7B
$GPGSV,3,3,09,20,10,321,21*40
$GLGSV,3,1,09,73,32,043,34,71,29,171,24,83,13,060,26,82,06,013,30*61
$GLGSV,3,2,09,72,71,234,,74,68,342,,65,41,319,,75,33,254,*6F
$GLGSV,3,3,09,84,02,111,*53
$GPGSA,A,3,05,13,15,17,19,20,24,28,30,,,,3.3,1.6,2.8*3F
$GNGSA,A,3,05,13,15,17,19,20,24,28,30,,,,3.3,1.6,2.8*21
$GNGSA,A,3,73,,,,,,,,,,,,3.3,1.6,2.8*25
$QZGSA,A,3,,,,,,,,,,,,,3.3,1.6,2.8*23
$IMGSA,A,3,,,,,,,,,,,,,3.3,1.6,2.8*2C
$GPRMC,100025.00,A,4155.815764,N,01236.678525,E,000.0,,180319,,,A*75
$GPGGA,100026.00,4155.815764,N,01236.678525,E,1,10,3.2,56.2,M,45.0,M,,*58
$GPGSV,3,1,09,13,85,083,23,15,56,303,20,28,50,054,31,17,25,118,41*72
$GPGSV,3,2,09,24,25,276,19,30,22,074,38,05,21,199,14,19,13,143,33*7E
$GPGSV,3,3,09,20,10,321,22*43
$GLGSV,3,1,09,73,32,043,34,71,29,171,24,83,13,059,26,82,06,013,30*6B
$GLGSV,3,2,09,72,71,234,,74,68,342,,65,41,319,,75,33,254,*6F
$GLGSV,3,3,09,84,02,111,*53
$GPGSA,A,3,05,13,15,17,19,20,24,28,30,,,,3.3,1.6,2.8*3F
$GNGSA,A,3,05,13,15,17,19,20,24,28,30,,,,3.3,1.6,2.8*21
$GNGSA,A,3,73,,,,,,,,,,,,3.3,1.6,2.8*25
$QZGSA,A,3,,,,,,,,,,,,,3.3,1.6,2.8*23
$IMGSA,A,3,,,,,,,,,,,,,3.3,1.6,2.8*2C
$GPRMC,100026.00,A,4155.815764,N,01236.678525,E,000.0,,180319,,,A*76
$GPGGA,100027.00,4155.815764,N,01236.678525,E,1,10,3.2,56.2,M,45.0,M,,*59
$GPGSV,3,1,09,13,85,083,23,15,56,303,20,28,50,054,31,17,25,118,41*72
$GPGSV,3,2,09,24,25,276,19,30,22,074,37,05,21,199,14,19,14,143,33*76
$GPGSV,3,3,09,20,10,321,22*43
$GLGSV,3,1,09,73,32,043,34,71,29,171,24,83,13,059,27,82,06,013,31*6B
$GLGSV,3,2,09,72,71,234,,74,68,342,,65,41,319,,75,33,254,*6F
$GLGSV,3,3,09,84,02,111,*53
$GPGSA,A,3,05,13,15,17,19,20,24,28,30,,,,3.3,1.6,2.8*3F
$GNGSA,A,3,05,13,15,17,19,20,24,28,30,,,,3.3,1.6,2.8*21
$GNGSA,A,3,73,,,,,,,,,,,,3.3,1.6,2.8*25
$QZGSA,A,3,,,,,,,,,,,,,3.3,1.6,2.8*23
$IMGSA,A,3,,,,,,,,,,,,,3.3,1.6,2.8*2C
$GPRMC,100027.00,A,4155.815764,N,01236.678525,E,000.0,,180319,,,A*77
$GPGGA,100028.00,4155.815764,N,01236.678525,E,1,10,3.2,56.2,M,45.0,M,,*56
$GPGSV,3,1,09,13,85,084,22,15,56,303,20,28,50,054,31,17,25,118,41*74
$GPGSV,3,2,09,24,25,276,18,30,22,074,37,05,21,199,14,19,14,143,32*76
$GPGSV,3,3,09,20,10,321,22*43
$GLGSV,3,1,09,73,32,043,35,71,29,171,24,83,13,059,28,82,06,013,31*65
$GLGSV,3,2,09,72,71,234,,74,68,342,,65,41,319,,75,33,254,*6F
$GLGSV,3,3,09,84,02,111,*53
$GPGSA,A,3,05,13,15,17,19,20,24,28,30,,,,3.3,1.6,2.8*3F
$GNGSA,A,3,05,13,15,17,19,20,24,28,30,,,,3.3,1.6,2.8*21
$GNGSA,A,3,73,,,,,,,,,,,,3.3,1.6,2.8*25
$QZGSA,A,3,,,,,,,,,,,,,3.3,1.6,2.8*23
$IMGSA,A,3,,,,,,,,,,,,,3.3,1.6,2.8*2C
$GPRMC,100028.00,A,4155.815764,N,01236.678525,E,000.0,,180319,,,A*78
$GPGGA,100029.00,4155.815764,N,01236.678525,E,1,10,3.2,56.2,M,45.0,M,,*57
$GPGSV,3,1,09,13,85,084,22,15,56,303,20,28,50,054,31,17,25,118,41*74
$GPGSV,3,2,09,24,25,276,18,30,22,074,37,05,21,199,14,19,14,143,32*76
$GPGSV,3,3,09,20,10,321,22*43
$GLGSV,3,1,09,73,32,043,34,71,29,171,24,83,13,059,28,82,06,013,31*64
$GLGSV,3,2,09,72,71,234,,74,68,342,,65,41,319,,75,33,254,*6F
$GLGSV,3,3,09,84,02,111,*53
$GPGSA,A,3,05,13,15,17,19,20,24,28,30,,,,3.3,1.6,2.8*3F
$GNGSA,A,3,05,13,15,17,19,20,24,28,30,,,,3.3,1.6,2.8*21
$GNGSA,A,3,73,,,,,,,,,,,,3.3,1.6,2.8*25
$QZGSA,A,3,,,,,,,,,,,,,3.3,1.6,2.8*23
$IMGSA,A,3,,,,,,,,,,,,,3.3,1.6,2.8*2C
$GPRMC,100029.00,A,4155.815764,N,01236.678525,E,000.0,,180319,,,A*79
$GPGGA,100030.00,4155.815764,N,01236.678525,E,1,10,3.2,56.2,M,45.0,M,,*5F
$GPGSV,3,1,09,13,85,084,22,15,56,303,20,28,50,054,31,17,25,118,41*74
$GPGSV,3,2,09,24,25,276,17,30,22,074,37,05,21,199,14,19,14,143,32*79
$GPGSV,3,3,09,20,10,321,22*43
$GLGSV,3,1,09,73,32,043,34,71,29,171,23,83,13,059,28,82,06,013,31*63
$GLGSV,3,2,09,72,71,234,,74,68,342,,65,41,319,,75,33,254,*6F
$GLGSV,3,3,09,84,02,111,*53
$GPGSA,A,3,05,13,15,17,19,20,24,28,30,,,,3.3,1.6,2.8*3F
$GNGSA,A,3,05,13,15,17,19,20,24,28,30,,,,3.3,1.6,2.8*21
$GNGSA,A,3,73,,,,,,,,,,,,3.3,1.6,2.8*25
$QZGSA,A,3,,,,,,,,,,,,,3.3,1.6,2.8*23
$IMGSA,A,3,,,,,,,,,,,,,3.3,1.6,2.8*2C
$GPRMC,100030.00,A,4155.815764,N,01236.678525,E,000.0,,180319,,,A*71
$GPGGA,100031.00,4155.815764,N,01236.678525,E,1,10,3.2,56.2,M,45.0,M,,*5E
$GPGSV,3,1,09,13,85,084,22,15,56,303,19,28,50,054,31,17,25,118,41*7E
$GPGSV,3,2,09,24,25,276,17,30,22,074,37,05,21,199,14,19,14,143,32*79
$GPGSV,3,3,09,20,10,321,21*40
$GLGSV,3,1,09,73,32,043,34,71,29,171,23,83,13,059,28,82,06,013,30*62
$GLGSV,3,2,09,72,71,234,,74,68,342,,65,41,319,,75,33,254,*6F
$GLGSV,3,3,09,84,02,111,*53
$GPGSA,A,3,05,13,15,17,19,20,24,28,30,,,,3.3,1.6,2.8*3F
$GNGSA,A,3,05,13,15,17,19,20,24,28,30,,,,3.3,1.6,2.8*21
$GNGSA,A,3,73,,,,,,,,,,,,3.3,1.6,2.8*25
$QZGSA,A,3,,,,,,,,,,,,,3.3,1.6,2.8*23
$IMGSA,A,3,,,,,,,,,,,,,3.3,1.6,2.8*2C
$GPRMC,100031.00,A,4155.815764,N,01236.678525,E,000.0,,180319,,,A*70
$GPGGA,100032.00,4155.815764,N,01236.678525,E,1,10,3.2,56.2,M,45.0,M,,*5D
$GPGSV,3,1,09,13,85,084,22,15,56,303,19,28,50,054,30,17,25,118,41*7F
$GPGSV,3,2,09,24,25,276,16,30,22,074,37,05,21,199,14,19,14,143,32*78
$GPGSV,3,3,09,20,10,321,21*40
$GLGSV,3,1,09,73,32,043,34,71,29,171,23,83,13,059,29,82,06,013,30*63
$GLGSV,3,2,09,72,71,234,,74,68,342,,65,41,319,,75,33,254,*6F
$GLGSV,3,3,09,84,02,111,*53
$GPGSA,A,3,05,13,15,17,19,20,24,28,30,,,,3.3,1.6,2.8*3F
$GNGSA,A,3,05,13,15,17,19,20,24,28,30,,,,3.3,1.6,2.8*21
$GNGSA,A,3,73,,,,,,,,,,,,3.3,1.6,2.8*25
$QZGSA,A,3,,,,,,,,,,,,,3.3,1.6,2.8*23
$IMGSA,A,3,,,,,,,,,,,,,3.3,1.6,2.8*2C
$GPRMC,100032.00,A,4155.815764,N,01236.678525,E,000.0,,180319,,,A*73
$GPGGA,100033.00,4155.815764,N,01236.678525,E,1,10,3.2,56.2,M,45.0,M,,*5C
$GPGSV,3,1,09,13,85,084,22,15,56,303,19,28,50,054,30,17,25,118,41*7F
$GPGSV,3,2,09,24,25,276,16,30,22,074,37,05,21,199,14,19,14,143,31*7B
$GPGSV,3,3,09,20,10,321,21*40
$GLGSV,3,1,09,73,32,043,34,71,29,171,23,83,13,059,29,82,06,013,30*63
$GLGSV,3,2,09,72,71,234,,74,68,342,,65,41,319,,75,33,254,*6F
$GLGSV,3,3,09,84,02,111,*53
$GPGSA,A,3,05,13,15,17,19,20,24,28,30,,,,3.3,1.6,2.8*3F
$GNGSA,A,3,05,13,15,17,19,20,24,28,30,,,,3.3,1.6,2.8*21
$GNGSA,A,3,73,,,,,,,,,,,,3.3,1.6,2.8*25
$QZGSA,A,3,,,,,,,,,,,,,3.3,1.6,2.8*23
$IMGSA,A,3,,,,,,,,,,,,,3.3,1.6,2.8*2C
$GPRMC,100033.00,A,4155.815764,N,01236.678525,E,000.0,,180319,,,A*72
$GPGGA,100034.00,4155.815764,N,01236.678525,E,1,10,3.2,56.2,M,45.0,M,,*5B
$GPGSV,3,1,09,13,85,084,22,15,56,303,19,28,50,054,30,17,25,118,41*7F
$GPGSV,3,2,09,24,25,276,16,30,22,074,37,05,21,199,15,19,14,143,31*7A
$GPGSV,3,3,09,20,10,321,21*40
$GLGSV,3,1,09,73,32,043,34,71,29,171,23,83,13,059,29,82,06,013,30*63
$GLGSV,3,2,09,72,71,234,,74,68,342,,65,41,319,,75,33,254,*6F
$GLGSV,3,3,09,84,02,111,*53
$GPGSA,A,3,05,13,15,17,19,20,24,28,30,,,,3.3,1.6,2.8*3F
$GNGSA,A,3,05,13,15,17,19,20,24,28,30,,,,3.3,1.6,2.8*21
$GNGSA,A,3,73,,,,,,,,,,,,3.3,1.6,2.8*25
$QZGSA,A,3,,,,,,,,,,,,,3.3,1.6,2.8*23
$IMGSA,A,3,,,,,,,,,,,,,3.3,1.6,2.8*2C
$GPRMC,100034.00,A,4155.815764,N,01236.678525,E,000.0,,180319,,,A*75
$GPGGA,100035.00,4155.815764,N,01236.678525,E,1,10,3.2,56.2,M,45.0,M,,*5A
$GPGSV,3,1,09,13,85,084,22,15,56,303,19,28,50,054,31,17,25,118,41*7E
$GPGSV,3,2,09,24,25,276,15,30,22,074,37,05,21,199,16,19,14,143,30*7B
$GPGSV,3,3,09,20,10,321,21*40
$GLGSV,3,1,09,73,32,043,34,71,29,171,23,83,13,059,29,82,06,013,30*63
$GLGSV,3,2,09,72,71,234,,74,68,342,,65,41,319,,75,33,254,*6F
$GLGSV,3,3,09,84,02,111,*53
$GPGSA,A,3,05,13,15,17,19,20,24,28,30,,,,3.3,1.6,2.8*3F
$GNGSA,A,3,05,13,15,17,19,20,24,28,30,,,,3.3,1.6,2.8*21
$GNGSA,A,3,73,,,,,,,,,,,,3.3,1.6,2.8*25
$QZGSA,A,3,,,,,,,,,,,,,3.3,1.6,2.8*23
$IMGSA,A,3,,,,,,,,,,,,,3.3,1.6,2.8*2C
$GPRMC,100035.00,A,4155.815764,N,01236.678525,E,000.0,,180319,,,A*74
$GPGGA,100036.00,4155.815764,N,01236.678525,E,1,10,3.2,56.2,M,45.0,M,,*59
$GPGSV,3,1,09,13,85,084,21,15,56,303,19,28,50,054,31,17,25,118,41*7D
$GPGSV,3,2,09,24,25,276,15,30,22,074,37,05,21,199,18,19,14,143,30*75
$GPGSV,3,3,09,20,10,321,21*40
$GLGSV,3,1,09,73,32,043,34,71,29,171,23,83,13,059,30,82,06,013,29*63
$GLGSV,3,2,09,72,71,234,,74,68,342,,65,41,319,,75,33,254,*6F
$GLGSV,3,3,09,84,02,111,*53
$GPGSA,A,3,05,13,15,17,19,20,24,28,30,,,,3.3,1.6,2.8*3F
$GNGSA,A,3,05,13,15,17,19,20,24,28,30,,,,3.3,1.6,2.8*21
$GNGSA,A,3,73,,,,,,,,,,,,3.3,1.6,2.8*25
$QZGSA,A,3,,,,,,,,,,,,,3.3,1.6,2.8*23
$IMGSA,A,3,,,,,,,,,,,,,3.3,1.6,2.8*2C
$GPRMC,100036.00,A,4155.815764,N,01236.678525,E,000.0,,180319,,,A*77
$GPGGA,100037.00,4155.815764,N,01236.678525,E,1,09,3.2,56.1,M,45.0,M,,*53
$GPGSV,3,1,09,13,85,084,21,15,56,303,19,28,50,054,31,17,25,118,41*7D
$GPGSV,3,2,09,24,25,276,15,30,22,074,37,05,21,199,20,19,14,143,29*76
$GPGSV,3,3,09,20,10,321,20*41
$GLGSV,3,1,09,73,32,043,34,71,29,171,23,83,13,059,30,82,06,013,29*63
$GLGSV,3,2,09,72,71,234,,74,68,342,,65,41,319,,75,33,254,*6F
$GLGSV,3,3,09,84,02,111,*53
$GPGSA,A,3,05,13,15,17,19,20,28,30,,,,,3.3,1.6,2.8*39
$GNGSA,A,3,05,13,15,17,19,20,28,30,,,,,3.3,1.6,2.8*27
$GNGSA,A,3,73,,,,,,,,,,,,3.3,1.6,2.8*25
$QZGSA,A,3,,,,,,,,,,,,,3.3,1.6,2.8*23
$IMGSA,A,3,,,,,,,,,,,,,3.3,1.6,2.8*2C
$GPRMC,100037.00,A,4155.815764,N,01236.678525,E,000.0,,180319,,,A*76
$GPGGA,100038.00,4155.815764,N,01236.678525,E,1,10,3.2,56.1,M,45.0,M,,*54
$GPGSV,3,1,09,13,85,084,22,15,56,303,19,28,50,054,31,17,25,118,40*7F
$GPGSV,3,2,09,24,25,276,14,30,22,074,37,05,21,199,20,19,14,143,29*77
$GPGSV,3,3,09,20,10,321,20*41
$GLGSV,3,1,09,73,32,043,34,71,29,171,23,83,13,059,30,82,06,013,29*63
$GLGSV,3,2,09,72,71,234,,74,68,342,,65,41,319,,75,33,254,*6F
$GLGSV,3,3,09,84,02,111,*53
$GPGSA,A,3,05,13,15,17,19,20,28,30,,,,,3.3,1.6,2.8*39
$GNGSA,A,3,05,13,15,17,19,20,28,30,,,,,3.3,1.6,2.8*27
$GNGSA,A,3,73,82,,,,,,,,,,,3.3,1.6,2.8*2F
$QZGSA,A,3,,,,,,,,,,,,,3.3,1.6,2.8*23
$IMGSA,A,3,,,,,,,,,,,,,3.3,1.6,2.8*2C
$GPRMC,100038.00,A,4155.815764,N,01236.678525,E,000.0,,180319,,,A*79
$GPGGA,100039.00,4155.815764,N,01236.678525,E,1,10,3.2,56.1,M,45.0,M,,*55
$GPGSV,3,1,09,13,85,085,22,15,56,303,18,28,50,054,31,17,25,118,40*7F
$GPGSV,3,2,09,24,25,276,14,30,22,074,37,05,21,199,21,19,14,143,28*77
$GPGSV,3,3,09,20,10,321,20*41
$GLGSV,3,1,09,73,32,043,34,82,06,013,30,71,29,171,23,83,13,059,31*6A
$GLGSV,3,2,09,72,71,234,,74,68,342,,65,41,319,,75,33,254,*6F
$GLGSV,3,3,09,84,02,111,*53
$GPGSA,A,3,05,13,15,17,19,20,28,30,,,,,3.3,1.6,2.8*39
$GNGSA,A,3,05,13,15,17,19,20,28,30,,,,,3.3,1.6,2.8*27
$GNGSA,A,3,73,82,,,,,,,,,,,3.3,1.6,2.8*2F
$QZGSA,A,3,,,,,,,,,,,,,3.3,1.6,2.8*23
$IMGSA,A,3,,,,,,,,,,,,,3.3,1.6,2.8*2C
$GPRMC,100039.00,A,4155.815764,N,01236.678525,E,000.0,,180319,,,A*78
$GPGGA,100040.00,4155.815764,N,01236.678525,E,1,10,3.2,56.1,M,45.0,M,,*5B
$GPGSV,3,1,09,13,85,085,21,15,56,303,18,28,50,054,31,17,25,118,40*7C
$GPGSV,3,2,09,24,25,276,14,30,22,074,37,05,21,199,21,19,14,143,27*78
$GPGSV,3,3,09,20,10,321,20*41
$GLGSV,3,1,09,73,32,043,34,82,06,013,30,71,29,171,23,83,13,059,31*6A
$GLGSV,3,2,09,72,71,234,,74,68,342,,65,41,319,,75,33,254,*6F
$GLGSV,3,3,09,84,02,111,*53
$GPGSA,A,3,05,13,15,17,19,20,28,30,,,,,3.3,1.6,2.8*39
$GNGSA,A,3,05,13,15,17,19,20,28,30,,,,,3.3,1.6,2.8*27
$GNGSA,A,3,73,82,,,,,,,,,,,3.3,1.6,2.8*2F
$QZGSA,A,3,,,,,,,,,,,,,3.3,1.6,2.8*23
$IMGSA,A,3,,,,,,,,,,,,,3.3,1.6,2.8*2C
$GPRMC,100040.00,A,4155.815764,N,01236.678525,E,000.0,,180319,,,A*76
$GPGGA,100041.00,4155.815764,N,01236.678525,E,1,10,3.2,56.1,M,45.0,M,,*5A
$GPGSV,3,1,09,13,85,085,21,15,56,303,18,28,50,054,31,17,25,118,40*7C
$GPGSV,3,2,09,24,25,276,13,30,22,074,37,05,21,199,21,19,14,143,26*7E
$GPGSV,3,3,09,20,10,321,20*41
$GLGSV,3,1,09,73,32,043,33,82,06,013,30,71,29,171,22,83,13,059,31*6C
$GLGSV,3,2,09,72,71,234,,74,68,342,,65,41,319,,75,33,254,*6F
$GLGSV,3,3,09,84,02,111,*53
$GPGSA,A,3,05,13,15,17,19,20,28,30,,,,,3.3,1.6,2.8*39
$GNGSA,A,3,05,13,15,17,19,20,28,30,,,,,3.3,1.6,2.8*27
$GNGSA,A,3,73,82,,,,,,,,,,,3.3,1.6,2.8*2F
$QZGSA,A,3,,,,,,,,,,,,,3.3,1.6,2.8*23
$IMGSA,A,3,,,,,,,,,,,,,3.3,1.6,2.8*2C
$GPRMC,100041.00,A,4155.815764,N,01236.678525,E,000.0,,180319,,,A*77
$GPGGA,100042.00,4155.815764,N,01236.678525,E,1,10,3.2,56.1,M,45.0,M,,*59
$GPGSV,3,1,09,13,85,085,21,15,56,303,18,28,50,054,31,17,25,118,40*7C
$GPGSV,3,2,09,24,25,276,13,30,22,074,37,05,21,199,22,19,14,143,26*7D
$GPGSV,3,3,09,20,10,321,20*41
$GLGSV,3,1,09,73,32,043,33,82,06,013,30,71,29,171,23,83,13,059,31*6D
$GLGSV,3,2,09,72,71,234,,74,68,342,,65,41,319,,75,33,254,*6F
$GLGSV,3,3,09,84,02,111,*53
$GPGSA,A,3,05,13,15,17,19,20,28,30,,,,,3.5,2.0,2.9*3B
$GNGSA,A,3,05,13,15,17,19,20,28,30,,,,,3.5,2.0,2.9*25
$GNGSA,A,3,73,82,,,,,,,,,,,3.5,2.0,2.9*2D
$QZGSA,A,3,,,,,,,,,,,,,3.5,2.0,2.9*21
$IMGSA,A,3,,,,,,,,,,,,,3.5,2.0,2.9*2E
$GPRMC,100042.00,A,4155.815764,N,01236.678525,E,000.0,,180319,,,A*74
$GPGGA,100043.00,4155.815764,N,01236.678525,E,1,10,3.2,56.1,M,45.0,M,,*58
$GPGSV,3,1,09,13,85,085,21,15,56,303,18,28,50,054,31,17,25,118,40*7C
$GPGSV,3,2,09,24,25,276,13,30,22,074,37,05,21,199,23,19,14,143,25*7F
$GPGSV,3,3,09,20,10,321,19*4B
$GLGSV,3,1,09,73,32,043,33,82,06,013,30,71,29,171,22,83,13,059,31*6C
$GLGSV,3,2,09,72,71,234,,74,68,342,,65,41,319,,75,33,254,*6F
$GLGSV,3,3,09,84,02,111,*53
$GPGSA,A,3,05,13,15,17,19,20,28,30,,,,,3.3,1.6,2.8*39
$GNGSA,A,3,05,13,15,17,19,20,28,30,,,,,3.3,1.6,2.8*27
$GNGSA,A,3,73,82,,,,,,,,,,,3.3,1.6,2.8*2F
$QZGSA,A,3,,,,,,,,,,,,,3.3,1.6,2.8*23
$IMGSA,A,3,,,,,,,,,,,,,3.3,1.6,2.8*2C
$GPRMC,100043.00,A,4155.815764,N,01236.678525,E,000.0,,180319,,,A*75
$GPGGA,100044.00,4155.815764,N,01236.678525,E,1,11,3.2,55.9,M,45.0,M,,*55
$GPGSV,3,1,09,13,85,085,21,15,56,303,18,28,50,054,31,17,25,118,40*7C
$GPGSV,3,2,09,24,25,276,13,30,22,074,37,05,21,199,23,19,14,143,25*7F
$GPGSV,3,3,09,20,10,321,19*4B
$GLGSV,3,1,09,73,32,043,33,82,06,013,30,71,29,171,22,83,13,059,31*6C
$GLGSV,3,2,09,72,71,234,,74,68,342,,65,41,319,,75,33,254,*6F
$GLGSV,3,3,09,84,02,111,*53
$GPGSA,A,3,05,13,15,17,19,20,24,28,30,,,,3.3,1.6,2.8*3F
$GNGSA,A,3,05,13,15,17,19,20,24,28,30,,,,3.3,1.6,2.8*21
$GNGSA,A,3,73,82,,,,,,,,,,,3.3,1.6,2.8*2F
$QZGSA,A,3,,,,,,,,,,,,,3.3,1.6,2.8*23
$IMGSA,A,3,,,,,,,,,,,,,3.3,1.6,2.8*2C
$GPRMC,100044.00,A,4155.815764,N,01236.678525,E,000.0,,180319,,,A*72
$GPGGA,100045.00,4155.815764,N,01236.678525,E,1,11,3.2,55.9,M,45.0,M,,*54
$GPGSV,3,1,09,13,85,085,21,15,56,303,18,28,50,054,31,17,25,118,40*7C
$GPGSV,3,2,09,24,25,276,13,30,22,074,37,05,21,199,23,19,14,143,24*7E
$GPGSV,3,3,09,20,10,321,19*4B
$GLGSV,3,1,09,73,32,043,32,82,06,013,30,71,29,171,22,83,13,059,31*6D
$GLGSV,3,2,09,72,71,234,,74,68,342,,65,41,319,,75,33,254,*6F
$GLGSV,3,3,09,84,02,111,*53
$GPGSA,A,3,05,13,15,17,19,20,24,28,30,,,,3.3,1.6,2.8*3F
$GNGSA,A,3,05,13,15,17,19,20,24,28,30,,,,3.3,1.6,2.8*21
$GNGSA,A,3,73,82,,,,,,,,,,,3.3,1.6,2.8*2F
$QZGSA,A,3,,,,,,,,,,,,,3.3,1.6,2.8*23
$IMGSA,A,3,,,,,,,,,,,,,3.3,1.6,2.8*2C
$GPRMC,100045.00,A,4155.815764,N,01236.678525,E,000.0,,180319,,,A*73
$GPGGA,100046.00,4155.815764,N,01236.678525,E,1,10,3.2,55.9,M,45.0,M,,*56
$GPGSV,3,1,09,13,85,085,21,15,56,303,18,28,50,054,32,17,25,118,40*7F
$GPGSV,3,2,09,24,25,276,13,30,22,074,37,05,21,199,23,19,14,143,24*7E
$GPGSV,3,3,09,20,10,321,18*4A
$GLGSV,3,1,09,73,32,043,32,82,06,013,30,71,29,171,22,83,13,059,31*6D
$GLGSV,3,2,09,72,71,234,,74,68,342,,65,41,319,,75,33,254,*6F
$GLGSV,3,3,09,84,02,111,*53
$GPGSA,A,3,05,13,15,17,19,20,28,30,,,,,3.3,1.6,2.8*39
$GNGSA,A,3,05,13,15,17,19,20,28,30,,,,,3.3,1.6,2.8*27
$GNGSA,A,3,73,82,,,,,,,,,,,3.3,1.6,2.8*2F
$QZGSA,A,3,,,,,,,,,,,,,3.3,1.6,2.8*23
$IMGSA,A,3,,,,,,,,,,,,,3.3,1.6,2.8*2C
$GPRMC,100046.00,A,4155.815764,N,01236.678525,E,000.0,,180319,,,A*70
$GPGGA,100047.00,4155.815764,N,01236.678525,E,1,11,3.2,55.9,M,45.0,M,,*56
$GPGSV,3,1,09,13,85,085,21,15,56,303,17,28,50,054,32,17,25,118,40*70
$GPGSV,3,2,09,24,25,276,13,30,22,074,37,05,21,199,23,19,14,143,23*79
$GPGSV,3,3,09,20,10,320,18*4B
$GLGSV,3,1,09,73,32,043,32,82,06,013,30,71,29,171,22,83,13,059,31*6D
$GLGSV,3,2,09,72,71,233,,74,68,342,,65,41,319,,75,33,254,*68
$GLGSV,3,3,09,84,02,111,*53
$GPGSA,A,3,05,13,15,17,19,20,24,28,30,,,,3.3,1.6,2.8*3F
$GNGSA,A,3,05,13,15,17,19,20,24,28,30,,,,3.3,1.6,2.8*21
$GNGSA,A,3,73,82,,,,,,,,,,,3.3,1.6,2.8*2F
$QZGSA,A,3,,,,,,,,,,,,,3.3,1.6,2.8*23
$IMGSA,A,3,,,,,,,,,,,,,3.3,1.6,2.8*2C
$GPRMC,100047.00,A,4155.815764,N,01236.678525,E,000.0,,180319,,,A*71
$GPGGA,100048.00,4155.815764,N,01236.678525,E,1,11,3.2,55.9,M,45.0,M,,*59
$GPGSV,3,1,09,13,85,085,21,15,56,303,17,28,50,054,32,17,25,118,40*70
$GPGSV,3,2,09,24,25,276,13,30,22,074,37,05,21,199,24,19,14,143,23*7E
$GPGSV,3,3,09,20,10,320,18*4B
$GLGSV,3,1,09,73,32,043,32,82,06,013,29,71,29,171,22,83,13,059,31*65
$GLGSV,3,2,09,72,71,233,,74,68,342,,65,41,319,,75,33,254,*68
$GLGSV,3,3,09,84,02,111,*53
$GPGSA,A,3,05,13,15,17,19,20,24,28,30,,,,2.6,1.0,2.4*31
$GNGSA,A,3,05,13,15,17,19,20,24,28,30,,,,2.6,1.0,2.4*2F
$GNGSA,A,3,73,82,,,,,,,,,,,2.6,1.0,2.4*21
$QZGSA,A,3,,,,,,,,,,,,,2.6,1.0,2.4*2D
$IMGSA,A,3,,,,,,,,,,,,,2.6,1.0,2.4*22
$GPRMC,100048.00,A,4155.815764,N,01236.678525,E,000.0,,180319,,,A*7E
$GPGGA,100049.00,4155.815764,N,01236.678525,E,1,11,3.2,55.9,M,45.0,M,,*58
$GPGSV,3,1,09,13,85,085,21,15,57,303,17,28,50,054,32,17,25,118,40*71
$GPGSV,3,2,09,24,25,276,13,30,22,074,37,05,21,199,24,19,14,143,23*7E
$GPGSV,3,3,09,20,10,320,17*44
$GLGSV,3,1,09,73,32,043,32,82,06,013,29,71,29,171,22,83,13,059,31*65
$GLGSV,3,2,09,72,71,233,,74,68,342,,65,41,319,,75,33,254,*68
$GLGSV,3,3,09,84,02,111,*53
$GPGSA,A,3,05,13,15,17,19,20,24,28,30,,,,2.6,1.0,2.4*31
$GNGSA,A,3,05,13,15,17,19,20,24,28,30,,,,2.6,1.0,2.4*2F
$GNGSA,A,3,73,82,,,,,,,,,,,2.6,1.0,2.4*21
$QZGSA,A,3,,,,,,,,,,,,,2.6,1.0,2.4*2D
$IMGSA,A,3,,,,,,,,,,,,,2.6,1.0,2.4*22
$GPRMC,100049.00,A,4155.815764,N,01236.678525,E,000.0,,180319,,,A*7F
$GPGGA,100050.00,4155.815764,N,01236.678525,E,1,11,3.2,55.9,M,45.0,M,,*50
$GPGSV,3,1,09,13,85,085,21,15,57,303,17,28,50,054,32,17,26,118,40*72
$GPGSV,3,2,09,24,25,276,13,30,22,074,37,05,21,199,24,19,14,143,24*79
$GPGSV,3,3,09,20,10,320,17*44
$GLGSV,3,1,09,73,32,043,32,82,06,013,29,71,29,171,22,83,13,059,31*65
$GLGSV,3,2,09,72,71,233,,74,68,342,,65,41,319,,75,33,254,*68
$GLGSV,3,3,09,84,02,111,*53
$GPGSA,A,3,05,13,15,17,19,20,24,28,30,,,,4.2,1.8,3.7*39
$GNGSA,A,3,05,13,15,17,19,20,24,28,30,,,,4.2,1.8,3.7*27
$GNGSA,A,3,73,82,,,,,,,,,,,4.2,1.8,3.7*29
$QZGSA,A,3,,,,,,,,,,,,,4.2,1.8,3.7*25
$IMGSA,A,3,,,,,,,,,,,,,4.2,1.8,3.7*2A
$GPRMC,100050.00,A,4155.815764,N,01236.678525,E,000.0,,180319,,,A*77
$GPGGA,100051.00,4155.815764,N,01236.678525,E,1,11,3.2,55.9,M,45.0,M,,*51
$GPGSV,3,1,09,13,85,086,22,15,57,303,17,28,50,054,31,17,26,118,40*71
$GPGSV,3,2,09,24,25,276,13,30,22,074,37,05,21,199,24,19,14,143,24*79
$GPGSV,3,3,09,20,10,320,17*44
$GLGSV,3,1,09,73,32,043,32,82,06,013,29,71,29,171,21,83,13,059,30*67
$GLGSV,3,2,09,72,71,233,,74,68,342,,65,41,319,,75,33,254,*68
$GLGSV,3,3,09,84,02,111,*53
$GPGSA,A,3,05,13,15,17,19,20,24,28,30,,,,5.6,3.8,4.1*3F
$GNGSA,A,3,05,13,15,17,19,20,24,28,30,,,,5.6,3.8,4.1*21
$GNGSA,A,3,73,82,,,,,,,,,,,5.6,3.8,4.1*2F
$QZGSA,A,3,,,,,,,,,,,,,5.6,3.8,4.1*23
$IMGSA,A,3,,,,,,,,,,,,,5.6,3.8,4.1*2C
$GPRMC,100051.00,A,4155.815764,N,01236.678525,E,000.0,,180319,,,A*76
$GPGGA,100052.00,4155.815764,N,01236.678525,E,1,11,3.2,55.8,M,45.0,M,,*53
$GPGSV,3,1,09,13,85,086,22,15,57,303,17,28,50,054,32,17,26,118,40*72
$GPGSV,3,2,09,24,25,276,13,30,22,074,37,05,21,199,23,19,14,143,25*7F
$GPGSV,3,3,09,20,10,320,16*45
$GLGSV,3,1,09,73,32,043,32,82,06,013,28,71,29,171,21,83,13,059,30*66
$GLGSV,3,2,09,72,71,233,,74,68,342,,65,41,319,,75,33,254,*68
$GLGSV,3,3,09,84,02,111,*53
$GPGSA,A,3,05,13,15,17,19,20,24,28,30,,,,5.6,3.8,4.1*3F
$GNGSA,A,3,05,13,15,17,19,20,24,28,30,,,,5.6,3.8,4.1*21
$GNGSA,A,3,73,82,,,,,,,,,,,5.6,3.8,4.1*2F
$QZGSA,A,3,,,,,,,,,,,,,5.6,3.8,4.1*23
$IMGSA,A,3,,,,,,,,,,,,,5.6,3.8,4.1*2C
$GPRMC,100052.00,A,4155.815764,N,01236.678525,E,000.0,,180319,,,A*75
$GPGGA,100053.00,4155.815764,N,01236.678525,E,1,11,3.2,55.8,M,45.0,M,,*52
$GPGSV,3,1,09,13,85,086,22,15,57,303,17,28,50,054,32,17,26,118,40*72
$GPGSV,3,2,09,24,25,276,13,30,22,074,38,05,21,199,23,19,14,143,26*73
$GPGSV,3,3,09,20,10,320,16*45
$GLGSV,3,1,09,73,32,043,32,82,06,013,28,71,29,171,21,83,13,059,31*67
$GLGSV,3,2,09,72,71,233,,74,68,342,,65,41,319,,75,33,254,*68
$GLGSV,3,3,09,84,02,111,*53
$GPGSA,A,3,05,13,15,17,19,20,24,28,30,,,,5.6,3.8,4.1*3F
$GNGSA,A,3,05,13,15,17,19,20,24,28,30,,,,5.6,3.8,4.1*21
$GNGSA,A,3,73,82,,,,,,,,,,,5.6,3.8,4.1*2F
$QZGSA,A,3,,,,,,,,,,,,,5.6,3.8,4.1*23
$IMGSA,A,3,,,,,,,,,,,,,5.6,3.8,4.1*2C
$GPRMC,100053.00,A,4155.815764,N,01236.678525,E,000.0,,180319,,,A*74
$GPGGA,100054.00,4155.815764,N,01236.678525,E,1,11,3.2,55.8,M,45.0,M,,*55
$GPGSV,3,1,09,13,85,086,22,15,57,303,16,28,50,054,32,17,26,118,40*73
$GPGSV,3,2,09,24,25,276,13,30,22,074,38,05,21,199,23,19,14,143,26*73
$GPGSV,3,3,09,20,10,320,16*45
$GLGSV,3,1,09,73,32,043,33,82,06,013,28,71,29,171,21,83,13,059,31*66
$GLGSV,3,2,09,72,71,233,,74,68,342,,65,41,319,,75,33,254,*68
$GLGSV,3,3,09,84,02,111,*53
$GPGSA,A,3,05,13,15,17,19,20,24,28,30,,,,5.6,3.8,4.1*3F
$GNGSA,A,3,05,13,15,17,19,20,24,28,30,,,,5.6,3.8,4.1*21
$GNGSA,A,3,73,82,,,,,,,,,,,5.6,3.8,4.1*2F
$QZGSA,A,3,,,,,,,,,,,,,5.6,3.8,4.1*23
$IMGSA,A,3,,,,,,,,,,,,,5.6,3.8,4.1*2C
$GPRMC,100054.00,A,4155.815764,N,01236.678525,E,000.0,,180319,,,A*73
$GPGGA,100055.00,4155.815764,N,01236.678525,E,1,10,3.2,55.8,M,45.0,M,,*55
$GPGSV,3,1,09,13,85,086,22,15,57,303,16,28,50,054,32,17,26,117,40*7C
$GPGSV,3,2,09,24,25,276,13,30,22,074,38,05,21,199,23,19,14,143,26*73
$GPGSV,3,3,09,20,10,320,15*46
$GLGSV,3,1,09,73,32,043,32,82,06,013,28,71,29,171,21,83,13,059,31*67
$GLGSV,3,2,09,72,71,233,,74,68,342,,65,41,319,,75,33,254,*68
$GLGSV,3,3,09,84,02,111,*53
$GPGSA,A,3,05,13,15,17,19,24,28,30,,,,,5.6,3.8,4.1*3D
$GNGSA,A,3,05,13,15,17,19,24,28,30,,,,,5.6,3.8,4.1*23
$GNGSA,A,3,73,82,,,,,,,,,,,5.6,3.8,4.1*2F
$QZGSA,A,3,,,,,,,,,,,,,5.6,3.8,4.1*23
$IMGSA,A,3,,,,,,,,,,,,,5.6,3.8,4.1*2C
$GPRMC,100055.00,A,4155.815764,N,01236.678525,E,000.0,,180319,,,A*72
$GPGGA,100056.00,4155.815764,N,01236.678525,E,1,10,3.2,55.7,M,45.0,M,,*59
$GPGSV,3,1,09,13,85,086,22,15,57,303,16,28,50,054,32,17,26,117,40*7C
$GPGSV,3,2,09,24,25,276,13,30,22,074,38,05,21,199,24,19,14,143,26*74
$GPGSV,3,3,09,20,10,320,15*46
$GLGSV,3,1,09,73,32,043,32,82,06,013,28,71,29,171,20,83,13,059,30*67
$GLGSV,3,2,09,72,71,233,,74,68,342,,65,41,319,,75,33,254,*68
$GLGSV,3,3,09,84,02,111,*53
$GPGSA,A,3,05,13,15,17,19,24,28,30,,,,,5.6,3.8,4.1*3D
$GNGSA,A,3,05,13,15,17,19,24,28,30,,,,,5.6,3.8,4.1*23
$GNGSA,A,3,73,82,,,,,,,,,,,5.6,3.8,4.1*2F
$QZGSA,A,3,,,,,,,,,,,,,5.6,3.8,4.1*23
$IMGSA,A,3,,,,,,,,,,,,,5.6,3.8,4.1*2C
$GPRMC,100056.00,A,4155.815764,N,01236.678525,E,000.0,,180319,,,A*71
$GPGGA,100057.00,4155.815764,N,01236.678525,E,1,10,3.2,55.7,M,45.0,M,,*58
$GPGSV,3,1,09,13,85,086,22,15,57,303,16,28,50,054,32,17,26,117,40*7C
$GPGSV,3,2,09,24,25,276,13,30,22,074,38,05,21,199,25,19,14,143,25*76
$GPGSV,3,3,09,20,10,320,15*46
$GLGSV,3,1,09,73,32,043,32,82,06,013,29,71,29,171,20,83,13,059,30*66
$GLGSV,3,2,09,72,71,233,,74,68,342,,65,41,319,,75,33,254,*68
$GLGSV,3,3,09,84,02,111,*53
$GPGSA,A,3,05,13,15,17,19,24,28,30,,,,,5.6,3.8,4.1*3D
$GNGSA,A,3,05,13,15,17,19,24,28,30,,,,,5.6,3.8,4.1*23
$GNGSA,A,3,73,82,,,,,,,,,,,5.6,3.8,4.1*2F
$QZGSA,A,3,,,,,,,,,,,,,5.6,3.8,4.1*23
$IMGSA,A,3,,,,,,,,,,,,,5.6,3.8,4.1*2C
$GPRMC,100057.00,A,4155.815764,N,01236.678525,E,000.0,,180319,,,A*70
$GPGGA,100058.00,4155.815764,N,01236.678525,E,1,09,3.2,55.7,M,45.0,M,,*5F
$GPGSV,3,1,09,13,85,086,22,15,57,303,18,28,50,054,31,17,26,117,40*71
$GPGSV,3,2,09,24,25,276,13,30,22,074,38,05,21,199,26,19,14,143,25*75
$GPGSV,3,3,09,20,10,320,14*47
$GLGSV,3,1,09,73,32,043,32,82,06,013,29,71,29,171,20,83,13,059,31*67
$GLGSV,3,2,09,72,71,233,,74,68,342,,65,41,319,,75,33,254,*68
$GLGSV,3,3,09,84,02,111,*53
$GPGSA,A,3,05,13,15,17,19,28,30,,,,,,5.6,3.8,4.1*3B
$GNGSA,A,3,05,13,15,17,19,28,30,,,,,,5.6,3.8,4.1*25
$GNGSA,A,3,73,82,,,,,,,,,,,5.6,3.8,4.1*2F
$QZGSA,A,3,,,,,,,,,,,,,5.6,3.8,4.1*23
$IMGSA,A,3,,,,,,,,,,,,,5.6,3.8,4.1*2C
$GPRMC,100058.00,A,4155.815764,N,01236.678525,E,000.0,,180319,,,A*7F
$GPGGA,100059.00,4155.815764,N,01236.678525,E,1,10,3.2,55.6,M,45.0,M,,*57
$GPGSV,3,1,09,13,85,086,22,15,57,303,18,28,50,054,31,17,26,117,40*71
$GPGSV,3,2,09,24,25,276,13,30,22,074,38,05,21,199,26,19,14,143,25*75
$GPGSV,3,3,09,20,10,320,14*47
$GLGSV,3,1,09,73,32,043,32,82,06,013,29,71,29,171,20,83,13,059,31*67
$GLGSV,3,2,09,72,71,233,,74,68,343,,65,41,319,,75,33,254,*69
$GLGSV,3,3,09,84,02,111,*53
$GPGSA,A,3,05,13,15,17,19,20,28,30,,,,,5.6,3.8,4.1*39
$GNGSA,A,3,05,13,15,17,19,20,28,30,,,,,5.6,3.8,4.1*27
$GNGSA,A,3,73,82,,,,,,,,,,,5.6,3.8,4.1*2F
$QZGSA,A,3,,,,,,,,,,,,,5.6,3.8,4.1*23
$IMGSA,A,3,,,,,,,,,,,,,5.6,3.8,4.1*2C
$GPRMC,100059.00,A,4155.815764,N,01236.678525,E,000.0,,180319,,,A*7E
$GPGGA,100100.00,4155.815656,N,01236.679159,E,1,10,3.2,55.5,M,45.0,M,,*57
$GPGSV,3,1,09,13,85,086,22,15,57,303,18,28,50,054,31,17,26,117,40*71
$GPGSV,3,2,09,24,25,276,13,30,22,074,38,05,21,199,26,19,14,143,25*75
$GPGSV,3,3,09,20,10,320,14*47
$GLGSV,3,1,09,73,32,043,32,82,06,013,29,71,29,171,22,83,13,059,31*65
$GLGSV,3,2,09,72,71,233,,74,68,343,,65,41,319,,75,33,254,*69
$GLGSV,3,3,09,84,02,111,*53
$GPGSA,A,3,05,13,15,17,19,24,28,30,,,,,4.2,1.8,3.7*3B
$GNGSA,A,3,05,13,15,17,19,24,28,30,,,,,4.2,1.8,3.7*25
$GNGSA,A,3,73,82,,,,,,,,,,,4.2,1.8,3.7*29
$QZGSA,A,3,,,,,,,,,,,,,4.2,1.8,3.7*25
$IMGSA,A,3,,,,,,,,,,,,,4.2,1.8,3.7*2A
$GPRMC,100100.00,A,4155.815656,N,01236.679159,E,000.9,,180319,,,A*74
$GPGGA,100101.00,4155.815656,N,01236.679159,E,1,10,3.2,55.5,M,45.0,M,,*56
$GPGSV,3,1,09,13,85,086,22,15,57,303,18,28,50,054,31,17,26,117,40*71
$GPGSV,3,2,09,24,25,276,13,30,22,074,38,05,21,199,26,19,14,143,25*75
$GPGSV,3,3,09,20,10,320,13*40
$GLGSV,3,1,09,73,32,043,32,82,06,013,29,71,29,171,22,83,13,059,30*64
$GLGSV,3,2,09,72,71,233,,74,68,343,,65,41,319,,75,33,254,*69
$GLGSV,3,3,09,84,02,111,*53
$GPGSA,A,3,05,13,15,17,19,24,28,30,,,,,4.2,1.8,3.7*3B
$GNGSA,A,3,05,13,15,17,19,24,28,30,,,,,4.2,1.8,3.7*25
$GNGSA,A,3,73,82,,,,,,,,,,,4.2,1.8,3.7*29
$QZGSA,A,3,,,,,,,,,,,,,4.2,1.8,3.7*25
$IMGSA,A,3,,,,,,,,,,,,,4.2,1.8,3.7*2A
$GPRMC,100101.00,A,4155.815656,N,01236.679159,E,000.0,,180319,,,A*7C
$GPGGA,100102.00,4155.815656,N,01236.679159,E,1,10,3.2,55.4,M,45.0,M,,*54
$GPGSV,3,1,09,13,85,086,22,15,57,303,20,28,50,054,31,17,26,117,40*7A
$GPGSV,3,2,09,24,25,276,13,30,22,074,38,05,21,199,26,19,14,143,25*75
$GPGSV,3,3,09,20,10,320,13*40
$GLGSV,3,1,09,73,32,043,32,82,06,013,29,71,29,171,21,83,13,059,30*67
$GLGSV,3,2,09,72,71,233,,74,68,343,,65,41,319,,75,33,254,*69
$GLGSV,3,3,09,84,02,111,*53
$GPGSA,A,3,05,13,15,17,19,24,28,30,,,,,4.2,1.8,3.7*3B
$GNGSA,A,3,05,13,15,17,19,24,28,30,,,,,4.2,1.8,3.7*25
$GNGSA,A,3,73,82,,,,,,,,,,,4.2,1.8,3.7*29
$QZGSA,A,3,,,,,,,,,,,,,4.2,1.8,3.7*25
$IMGSA,A,3,,,,,,,,,,,,,4.2,1.8,3.7*2A
$GPRMC,100102.00,A,4155.815656,N,01236.679159,E,000.0,,180319,,,A*7F
$GPGGA,100103.00,4155.816940,N,01236.686637,E,1,09,3.2,55.4,M,45.0,M,,*59
$GPGSV,3,1,09,13,85,086,22,15,57,303,20,28,50,054,31,17,26,117,40*7A
$GPGSV,3,2,09,24,25,276,12,30,22,074,38,05,21,199,27,19,14,143,25*75
$GPGSV,3,3,09,20,10,320,13*40
$GLGSV,3,1,09,73,32,043,32,82,06,013,29,71,29,171,21,83,13,059,30*67
$GLGSV,3,2,09,72,71,233,,74,68,343,,65,41,319,,75,33,254,*69
$GLGSV,3,3,09,84,02,111,*53
$GPGSA,A,3,05,13,15,17,19,28,30,,,,,,4.2,1.8,3.7*3D
$GNGSA,A,3,05,13,15,17,19,28,30,,,,,,4.2,1.8,3.7*23
$GNGSA,A,3,73,82,,,,,,,,,,,4.2,1.8,3.7*29
$QZGSA,A,3,,,,,,,,,,,,,4.2,1.8,3.7*25
$IMGSA,A,3,,,,,,,,,,,,,4.2,1.8,3.7*2A
$GPRMC,100103.00,A,4155.816940,N,01236.686637,E,000.0,,180319,,,A*7A
$GPGGA,100104.00,4155.816940,N,01236.686637,E,1,09,3.2,55.4,M,45.0,M,,*5E
$GPGSV,3,1,09,13,85,087,22,15,57,303,20,28,50,054,31,17,26,117,40*7B
$GPGSV,3,2,09,24,25,276,12,30,22,074,38,05,21,199,26,19,14,143,24*75
$GPGSV,3,3,09,20,10,320,13*40
$GLGSV,3,1,09,73,32,043,32,82,06,013,29,71,29,171,21,83,13,059,30*67
$GLGSV,3,2,09,72,71,233,,74,68,343,,65,41,319,,75,33,254,*69
$GLGSV,3,3,09,84,02,111,*53
$GPGSA,A,3,05,13,15,17,19,28,30,,,,,,4.2,1.8,3.7*3D
$GNGSA,A,3,05,13,15,17,19,28,30,,,,,,4.2,1.8,3.7*23
$GNGSA,A,3,73,82,,,,,,,,,,,4.2,1.8,3.7*29
$QZGSA,A,3,,,,,,,,,,,,,4.2,1.8,3.7*25
$IMGSA,A,3,,,,,,,,,,,,,4.2,1.8,3.7*2A
$GPRMC,100104.00,A,4155.816940,N,01236.686637,E,000.0,,180319,,,A*7D
$GPGGA,100105.00,4155.816940,N,01236.686637,E,1,09,3.2,55.4,M,45.0,M,,*5F
$GPGSV,3,1,09,13,85,087,22,15,57,303,20,28,50,054,31,17,26,117,40*7B
$GPGSV,3,2,09,24,25,276,12,30,22,074,39,05,21,199,26,19,14,143,24*74
$GPGSV,3,3,09,20,10,320,13*40
$GLGSV,3,1,09,73,32,043,32,82,06,013,28,71,29,171,21,83,13,059,30*66
$GLGSV,3,2,09,72,71,233,,74,68,343,,65,42,319,,75,33,254,*6A
$GLGSV,3,3,09,84,02,111,*53
$GPGSA,A,3,05,13,15,17,19,28,30,,,,,,2.6,1.0,2.4*35
$GNGSA,A,3,05,13,15,17,19,28,30,,,,,,2.6,1.0,2.4*2B
$GNGSA,A,3,73,82,,,,,,,,,,,2.6,1.0,2.4*21
$QZGSA,A,3,,,,,,,,,,,,,2.6,1.0,2.4*2D
$IMGSA,A,3,,,,,,,,,,,,,2.6,1.0,2.4*22
$GPRMC,100105.00,A,4155.816940,N,01236.686637,E,000.0,,180319,,,A*7C
$GPGGA,100106.00,4155.816940,N,01236.686637,E,1,09,3.2,55.4,M,45.0,M,,*5C
$GPGSV,3,1,09,13,85,087,22,15,57,303,20,28,50,054,31,17,26,117,40*7B
$GPGSV,3,2,09,24,25,276,12,30,22,074,38,05,21,199,26,19,14,143,24*75
$GPGSV,3,3,09,20,10,320,13*40
$GLGSV,3,1,09,73,32,043,33,82,06,013,28,71,29,171,21,83,13,059,30*67
$GLGSV,3,2,09,72,71,233,,74,68,343,,65,42,319,,75,33,254,*6A
$GLGSV,3,3,09,84,02,111,*53
$GPGSA,A,3,05,13,15,17,19,28,30,,,,,,2.6,1.0,2.4*35
$GNGSA,A,3,05,13,15,17,19,28,30,,,,,,2.6,1.0,2.4*2B
$GNGSA,A,3,73,82,,,,,,,,,,,2.6,1.0,2.4*21
$QZGSA,A,3,,,,,,,,,,,,,2.6,1.0,2.4*2D
$IMGSA,A,3,,,,,,,,,,,,,2.6,1.0,2.4*22
$GPRMC,100106.00,A,4155.816940,N,01236.686637,E,000.0,,180319,,,A*7F
$GPGGA,100107.00,4155.816940,N,01236.686637,E,1,10,3.2,55.4,M,45.0,M,,*55
$GPGSV,3,1,09,13,85,087,22,15,57,303,20,28,50,054,31,17,26,117,40*7B
$GPGSV,3,2,09,24,25,276,12,30,22,074,39,05,21,199,27,19,14,143,23*72
$GPGSV,3,3,09,20,10,320,13*40
$GLGSV,3,1,09,73,32,043,33,82,06,013,28,71,29,171,20,83,13,059,30*66
$GLGSV,3,2,09,84,02,111,,72,71,233,,74,68,343,,65,42,319,*64
$GLGSV,3,3,09,75,33,254,*5D
$GPGSA,A,3,05,13,15,17,19,20,28,30,,,,,4.2,1.8,3.7*3F
$GNGSA,A,3,05,13,15,17,19,20,28,30,,,,,4.2,1.8,3.7*21
$GNGSA,A,3,73,82,,,,,,,,,,,4.2,1.8,3.7*29
$QZGSA,A,3,,,,,,,,,,,,,4.2,1.8,3.7*25
$IMGSA,A,3,,,,,,,,,,,,,4.2,1.8,3.7*2A
$GPRMC,100107.00,A,4155.816940,N,01236.686637,E,000.0,,180319,,,A*7E
$GPGGA,100108.00,4155.815446,N,01236.694943,E,1,10,3.2,55.5,M,45.0,M,,*5C
$GPGSV,3,1,09,13,85,087,22,15,57,302,20,28,50,054,31,17,26,117,40*7A
$GPGSV,3,2,09,24,25,276,12,30,22,074,38,05,21,199,27,19,14,143,23*73
$GPGSV,3,3,09,20,10,320,13*40
$GLGSV,3,1,09,73,32,043,33,82,06,013,28,71,29,171,20,83,13,059,30*66
$GLGSV,3,2,09,84,02,111,,72,71,233,,74,68,343,,65,42,319,*64
$GLGSV,3,3,09,75,33,254,*5D
$GPGSA,A,3,05,13,15,17,19,20,28,30,,,,,2.6,1.0,2.4*37
$GNGSA,A,3,05,13,15,17,19,20,28,30,,,,,2.6,1.0,2.4*29
$GNGSA,A,3,73,82,,,,,,,,,,,2.6,1.0,2.4*21
$QZGSA,A,3,,,,,,,,,,,,,2.6,1.0,2.4*2D
$IMGSA,A,3,,,,,,,,,,,,,2.6,1.0,2.4*22
$GPRMC,100108.00,A,4155.815446,N,01236.694943,E,000.0,,180319,,,A*76
$GPGGA,100109.00,4155.815446,N,01236.694943,E,1,10,3.2,55.7,M,45.0,M,,*5F
$GPGSV,3,1,09,13,85,087,22,15,57,302,20,28,50,054,30,17,26,117,39*75
$GPGSV,3,2,09,24,25,276,12,30,22,074,38,05,21,199,27,19,14,143,23*73
$GPGSV,3,3,09,20,10,320,13*40
$GLGSV,3,1,09,73,32,043,33,82,06,013,27,71,29,171,20,83,13,059,30*69
$GLGSV,3,2,09,84,02,111,,72,71,233,,74,68,343,,65,42,319,*64
$GLGSV,3,3,09,75,33,254,*5D
$GPGSA,A,3,05,13,15,17,19,20,28,30,,,,,3.3,1.6,2.8*39
$GNGSA,A,3,05,13,15,17,19,20,28,30,,,,,3.3,1.6,2.8*27
$GNGSA,A,3,73,82,,,,,,,,,,,3.3,1.6,2.8*2F
$QZGSA,A,3,,,,,,,,,,,,,3.3,1.6,2.8*23
$IMGSA,A,3,,,,,,,,,,,,,3.3,1.6,2.8*2C
$GPRMC,100109.00,A,4155.815446,N,01236.694943,E,000.0,,180319,,,A*77
$GPGGA,100110.00,4155.815446,N,01236.694943,E,1,11,3.2,55.7,M,45.0,M,,*56
$GPGSV,3,1,09,13,85,087,22,15,57,302,20,28,50,054,30,17,26,117,39*75
