$GPGGA,120752.50,,,,,0,00,999.9,,M,,M,,*60
$GPGSV,3,1,10,13,80,343,,28,58,065,,15,45,306,,05,32,204,*72
$GPGSV,3,2,10,30,31,067,,17,18,125,,24,18,269,,19,05,150,*7B
$GPGSV,3,3,10,20,04,327,,07,01,075,*7C
$GLGSV,2,1,08,67,73,283,,77,70,298,,66,41,167,,76,31,041,*65
$GLGSV,2,2,08,78,26,244,,68,22,327,,85,08,027,,86,06,079,*6A
$GPGSA,A,1,,,,,,,,,,,,,140.0,99.0,99.0*35
$GNGSA,A,1,,,,,,,,,,,,,140.0,99.0,99.0*2B
$GNGSA,A,1,,,,,,,,,,,,,140.0,99.0,99.0*2B
$QZGSA,A,1,,,,,,,,,,,,,140.0,99.0,99.0*29
$IMGSA,A,1,,,,,,,,,,,,,140.0,99.0,99.0*26
$GPRMC,120752.50,V,,,,,,,090219,,,N*78
$GPGGA,120753.50,,,,,0,00,999.9,,M,,M,,*61
$GPGSV,3,1,10,13,80,343,,28,58,065,,15,45,306,,05,32,204,*72
$GPGSV,3,2,10,30,31,067,,17,18,125,,24,18,269,,19,05,150,*7B
$GPGSV,3,3,10,20,04,327,,07,01,075,*7C
$GLGSV,2,1,08,67,73,283,,77,70,298,,66,41,167,,76,31,041,*65
$GLGSV,2,2,08,78,26,244,,68,22,327,,85,08,027,,86,06,079,*6A
$GPGSA,A,1,,,,,,,,,,,,,140.0,99.0,99.0*35
$GNGSA,A,1,,,,,,,,,,,,,140.0,99.0,99.0*2B
$GNGSA,A,1,,,,,,,,,,,,,140.0,99.0,99.0*2B
$QZGSA,A,1,,,,,,,,,,,,,140.0,99.0,99.0*29
$IMGSA,A,1,,,,,,,,,,,,,140.0,99.0,99.0*26
$GPRMC,120753.50,V,,,,,,,090219,,,N*79
$GPGGA,120754.50,,,,,0,00,999.9,,M,,M,,*66
$GPGSV,3,1,10,15,45,306,39,05,32,204,43,30,31,067,38,24,18,269,39*76
$GPGSV,3,2,10,17,18,125,41,19,05,150,42,20,04,327,,07,01,075,41*7B
$GPGSV,3,3,10,13,80,343,,28,58,065,*72
$GLGSV,2,1,08,67,73,283,,77,70,298,,66,41,167,,76,31,041,*65
$GLGSV,2,2,08,78,26,244,,68,22,327,,85,08,027,,86,07,079,*6B
$GPGSA,A,1,,,,,,,,,,,,,140.0,99.0,99.0*35
$GNGSA,A,1,,,,,,,,,,,,,140.0,99.0,99.0*2B
$GNGSA,A,1,,,,,,,,,,,,,140.0,99.0,99.0*2B
$QZGSA,A,1,,,,,,,,,,,,,140.0,99.0,99.0*29
$IMGSA,A,1,,,,,,,,,,,,,140.0,99.0,99.0*26
$GPRMC,120754.50,V,,,,,,,090219,,,N*7E
$GPGGA,120755.50,,,,,0,00,999.9,,M,,M,,*67
$GPGSV,3,1,10,13,80,343,49,28,58,065,40,15,45,306,51,05,32,204,50*7A
$GPGSV,3,2,10,30,31,067,50,17,18,125,50,24,18,269,50,19,05,150,49*73
$GPGSV,3,3,10,20,04,327,,07,01,075,49*71
$GLGSV,2,1,08,67,73,283,,77,70,298,,66,41,167,,76,31,041,*65
$GLGSV,2,2,08,78,26,244,,68,22,327,,85,08,027,,86,07,079,*6B
$GPGSA,A,1,,,,,,,,,,,,,140.0,99.0,99.0*35
$GNGSA,A,1,,,,,,,,,,,,,140.0,99.0,99.0*2B
$GNGSA,A,1,,,,,,,,,,,,,140.0,99.0,99.0*2B
$QZGSA,A,1,,,,,,,,,,,,,140.0,99.0,99.0*29
$IMGSA,A,1,,,,,,,,,,,,,140.0,99.0,99.0*26
$GPRMC,120755.50,V,,,,,,,090219,,,N*7F
$GPGGA,120756.50,,,,,0,00,999.9,,M,,M,,*64
$GPGSV,3,1,10,13,80,343,51,28,58,065,40,15,45,306,51,05,32,204,51*72
$GPGSV,3,2,10,30,31,067,51,17,18,125,50,24,18,269,50,19,05,150,49*72
$GPGSV,3,3,10,20,04,327,,07,01,075,49*71
$GLGSV,2,1,08,67,73,283,,77,70,298,,66,41,167,,76,31,041,*65
$GLGSV,2,2,08,78,26,244,,68,22,327,,85,08,027,,86,07,079,*6B
$GPGSA,A,1,,,,,,,,,,,,,140.0,99.0,99.0*35
$GNGSA,A,1,,,,,,,,,,,,,140.0,99.0,99.0*2B
$GNGSA,A,1,,,,,,,,,,,,,140.0,99.0,99.0*2B
$QZGSA,A,1,,,,,,,,,,,,,140.0,99.0,99.0*29
$IMGSA,A,1,,,,,,,,,,,,,140.0,99.0,99.0*26
$GPRMC,120756.50,V,,,,,,,090219,,,N*7C
$GPGGA,120757.50,,,,,0,00,999.9,,M,,M,,*65
$GPGSV,3,1,10,13,80,343,51,28,58,065,40,15,45,306,51,05,32,204,51*72
$GPGSV,3,2,10,30,31,067,51,17,18,125,50,24,18,269,50,19,05,150,49*72
$GPGSV,3,3,10,20,04,327,,07,01,075,49*71
$GLGSV,2,1,08,67,73,283,,77,70,298,,66,41,167,,76,31,041,*65
$GLGSV,2,2,08,78,26,244,,68,22,327,,85,08,027,,86,07,079,*6B
$GPGSA,A,1,,,,,,,,,,,,,140.0,99.0,99.0*35
$GNGSA,A,1,,,,,,,,,,,,,140.0,99.0,99.0*2B
$GNGSA,A,1,,,,,,,,,,,,,140.0,99.0,99.0*2B
$QZGSA,A,1,,,,,,,,,,,,,140.0,99.0,99.0*29
$IMGSA,A,1,,,,,,,,,,,,,140.0,99.0,99.0*26
$GPRMC,120757.50,V,,,,,,,090219,,,N*7D
$GPGGA,120758.50,,,,,0,00,999.9,,M,,M,,*6A
$GPGSV,3,1,10,13,80,344,51,28,58,065,49,15,45,306,51,05,31,204,51*7F
$GPGSV,3,2,10,30,31,067,51,17,18,125,50,24,18,269,50,19,05,150,49*72
$GPGSV,3,3,10,20,04,327,,07,01,075,49*71
$GLGSV,2,1,08,67,73,283,,77,70,298,,66,41,167,,76,31,041,*65
$GLGSV,2,2,08,78,26,244,,68,22,327,,85,08,027,,86,07,079,*6B
$GPGSA,A,1,,,,,,,,,,,,,140.0,99.0,99.0*35
$GNGSA,A,1,,,,,,,,,,,,,140.0,99.0,99.0*2B
$GNGSA,A,1,,,,,,,,,,,,,140.0,99.0,99.0*2B
$QZGSA,A,1,,,,,,,,,,,,,140.0,99.0,99.0*29
$IMGSA,A,1,,,,,,,,,,,,,140.0,99.0,99.0*26
$GPRMC,120758.50,V,,,,,,,090219,,,N*72
$GPGGA,120759.50,,,,,0,00,999.9,,M,,M,,*6B
$GPGSV,3,1,10,13,80,344,51,28,58,065,51,15,45,306,51,05,31,204,51*76
$GPGSV,3,2,10,30,31,067,51,17,18,125,50,24,18,269,50,19,05,150,49*72
$GPGSV,3,3,10,20,04,327,,07,01,075,49*71
$GLGSV,2,1,08,67,73,283,,77,70,298,,66,41,167,,76,31,041,*65
$GLGSV,2,2,08,78,26,244,,68,22,327,,85,08,027,,86,07,079,*6B
$GPGSA,A,1,,,,,,,,,,,,,140.0,99.0,99.0*35
$GNGSA,A,1,,,,,,,,,,,,,140.0,99.0,99.0*2B
$GNGSA,A,1,,,,,,,,,,,,,140.0,99.0,99.0*2B
$QZGSA,A,1,,,,,,,,,,,,,140.0,99.0,99.0*29
$IMGSA,A,1,,,,,,,,,,,,,140.0,99.0,99.0*26
$GPRMC,120759.50,V,,,,,,,090219,,,N*73
$GPGGA,120800.50,,,,,0,00,999.9,,M,,M,,*68
$GPGSV,3,1,10,13,80,344,51,28,58,065,51,15,45,306,51,05,31,204,51*76
$GPGSV,3,2,10,30,31,067,51,17,18,125,50,24,18,269,50,19,05,150,49*72
$GPGSV,3,3,10,20,04,327,,07,01,075,49*71
$GLGSV,2,1,08,67,73,283,,77,70,298,,66,41,167,,76,31,041,*65
$GLGSV,2,2,08,78,26,244,,68,22,327,,85,08,027,,86,07,079,*6B
$GPGSA,A,1,,,,,,,,,,,,,140.0,99.0,99.0*35
$GNGSA,A,1,,,,,,,,,,,,,140.0,99.0,99.0*2B
$GNGSA,A,1,,,,,,,,,,,,,140.0,99.0,99.0*2B
$QZGSA,A,1,,,,,,,,,,,,,140.0,99.0,99.0*29
$IMGSA,A,1,,,,,,,,,,,,,140.0,99.0,99.0*26
$GPRMC,120800.50,V,,,,,,,090219,,,N*70
$GPGGA,120801.50,,,,,0,00,999.9,,M,,M,,*69
$GPGSV,3,1,10,13,80,344,51,28,58,065,51,15,45,306,51,05,31,204,51*76
$GPGSV,3,2,10,30,31,067,51,17,18,125,50,24,18,269,50,19,05,150,49*72
$GPGSV,3,3,10,20,04,327,,07,01,075,49*71
$GLGSV,2,1,08,67,73,283,,77,70,298,,66,41,167,,76,31,041,*65
$GLGSV,2,2,08,78,26,244,,68,22,327,,85,08,027,,86,07,079,*6B
$GPGSA,A,1,,,,,,,,,,,,,140.0,99.0,99.0*35
$GNGSA,A,1,,,,,,,,,,,,,140.0,99.0,99.0*2B
$GNGSA,A,1,,,,,,,,,,,,,140.0,99.0,99.0*2B
$QZGSA,A,1,,,,,,,,,,,,,140.0,99.0,99.0*29
$IMGSA,A,1,,,,,,,,,,,,,140.0,99.0,99.0*26
$GPRMC,120801.50,V,,,,,,,090219,,,N*71
$GPGGA,120802.50,,,,,0,00,999.9,,M,,M,,*6A
$GPGSV,3,1,10,13,80,344,51,28,58,065,51,15,45,306,51,05,31,204,51*76
$GPGSV,3,2,10,30,31,067,51,17,18,125,51,24,18,269,50,19,05,150,49*73
$GPGSV,3,3,10,20,04,327,,07,01,075,49*71
$GLGSV,2,1,08,67,73,283,,77,70,298,,66,41,167,,76,31,041,*65
$GLGSV,2,2,08,78,26,244,,68,22,327,,85,08,027,,86,07,079,*6B
$GPGSA,A,1,,,,,,,,,,,,,140.0,99.0,99.0*35
$GNGSA,A,1,,,,,,,,,,,,,140.0,99.0,99.0*2B
$GNGSA,A,1,,,,,,,,,,,,,140.0,99.0,99.0*2B
$QZGSA,A,1,,,,,,,,,,,,,140.0,99.0,99.0*29
$IMGSA,A,1,,,,,,,,,,,,,140.0,99.0,99.0*26
$GPRMC,120802.50,V,,,,,,,090219,,,N*72
$GPGGA,120803.50,,,,,0,00,999.9,,M,,M,,*6B
$GPGSV,3,1,10,13,80,344,52,28,58,065,51,15,45,306,51,05,31,204,51*75
$GPGSV,3,2,10,30,31,067,51,17,18,125,51,24,18,269,51,19,05,150,49*72
$GPGSV,3,3,10,20,04,327,,07,01,075,49*71
$GLGSV,2,1,08,67,73,283,,77,70,298,,66,41,167,,76,31,041,*65
$GLGSV,2,2,08,78,26,244,,68,22,327,,85,08,027,,86,07,079,*6B
$GPGSA,A,1,,,,,,,,,,,,,140.0,99.0,99.0*35
$GNGSA,A,1,,,,,,,,,,,,,140.0,99.0,99.0*2B
$GNGSA,A,1,,,,,,,,,,,,,140.0,99.0,99.0*2B
$QZGSA,A,1,,,,,,,,,,,,,140.0,99.0,99.0*29
$IMGSA,A,1,,,,,,,,,,,,,140.0,99.0,99.0*26
$GPRMC,120803.50,V,,,,,,,090219,,,N*73
$GPGGA,120804.50,,,,,0,00,999.9,,M,,M,,*6C
$GPGSV,3,1,10,13,80,344,52,28,58,065,51,15,45,306,51,05,31,204,51*75
$GPGSV,3,2,10,30,31,067,51,17,18,125,51,24,18,269,51,19,05,150,49*72
$GPGSV,3,3,10,20,04,327,,07,01,075,49*71
$GLGSV,2,1,08,67,73,283,,77,70,298,,66,41,167,,76,31,041,*65
$GLGSV,2,2,08,78,26,244,,68,22,327,,85,08,027,,86,07,079,*6B
$GPGSA,A,1,,,,,,,,,,,,,140.0,99.0,99.0*35
$GNGSA,A,1,,,,,,,,,,,,,140.0,99.0,99.0*2B
$GNGSA,A,1,,,,,,,,,,,,,140.0,99.0,99.0*2B
$QZGSA,A,1,,,,,,,,,,,,,140.0,99.0,99.0*29
$IMGSA,A,1,,,,,,,,,,,,,140.0,99.0,99.0*26
$GPRMC,120804.50,V,,,,,,,090219,,,N*74
$GPGGA,120805.50,,,,,0,00,999.9,,M,,M,,*6D
$GPGSV,3,1,10,13,80,344,52,28,58,065,51,15,45,306,51,05,31,204,51*75
$GPGSV,3,2,10,30,31,067,51,17,18,125,51,24,18,269,51,19,05,150,49*72
$GPGSV,3,3,10,20,04,327,,07,01,075,49*71
$GLGSV,2,1,08,67,73,283,,77,70,298,,66,41,167,,76,31,041,*65
$GLGSV,2,2,08,78,26,244,,68,22,327,,85,08,027,,86,07,079,*6B
$GPGSA,A,1,,,,,,,,,,,,,140.0,99.0,99.0*35
$GNGSA,A,1,,,,,,,,,,,,,140.0,99.0,99.0*2B
$GNGSA,A,1,,,,,,,,,,,,,140.0,99.0,99.0*2B
$QZGSA,A,1,,,,,,,,,,,,,140.0,99.0,99.0*29
$IMGSA,A,1,,,,,,,,,,,,,140.0,99.0,99.0*26
$GPRMC,120805.50,V,,,,,,,090219,,,N*75
$GPGGA,120806.50,,,,,0,00,999.9,,M,,M,,*6E
$GPGSV,3,1,10,13,80,344,51,28,58,065,51,15,45,306,51,05,31,204,51*76
$GPGSV,3,2,10,30,31,067,51,17,18,125,50,24,18,269,51,19,05,150,49*73
$GPGSV,3,3,10,20,04,327,,07,01,075,49*71
$GLGSV,2,1,08,67,73,283,,77,70,298,,66,41,167,,76,31,041,*65
$GLGSV,2,2,08,78,26,244,,68,22,327,,85,08,027,,86,07,079,*6B
$GPGSA,A,1,,,,,,,,,,,,,140.0,99.0,99.0*35
$GNGSA,A,1,,,,,,,,,,,,,140.0,99.0,99.0*2B
$GNGSA,A,1,,,,,,,,,,,,,140.0,99.0,99.0*2B
$QZGSA,A,1,,,,,,,,,,,,,140.0,99.0,99.0*29
$IMGSA,A,1,,,,,,,,,,,,,140.0,99.0,99.0*26
$GPRMC,120806.50,V,,,,,,,090219,,,N*76
$GPGGA,120807.50,,,,,0,00,999.9,,M,,M,,*6F
$GPGSV,3,1,10,13,80,344,51,28,58,065,51,15,45,306,51,05,31,204,51*76
$GPGSV,3,2,10,30,31,067,51,17,18,125,50,24,18,269,51,19,05,150,49*73
$GPGSV,3,3,10,20,04,327,,07,01,075,49*71
$GLGSV,2,1,08,67,73,283,,77,70,298,,66,41,167,,76,31,041,*65
$GLGSV,2,2,08,78,26,244,,68,22,327,,85,08,027,,86,07,079,*6B
$GPGSA,A,1,,,,,,,,,,,,,140.0,99.0,99.0*35
$GNGSA,A,1,,,,,,,,,,,,,140.0,99.0,99.0*2B
$GNGSA,A,1,,,,,,,,,,,,,140.0,99.0,99.0*2B
$QZGSA,A,1,,,,,,,,,,,,,140.0,99.0,99.0*29
$IMGSA,A,1,,,,,,,,,,,,,140.0,99.0,99.0*26
$GPRMC,120807.50,V,,,,,,,090219,,,N*77
$GPGGA,120808.50,,,,,0,00,999.9,,M,,M,,*60
$GPGSV,3,1,10,13,80,344,51,28,58,065,51,15,45,306,51,05,31,204,51*76
$GPGSV,3,2,10,30,31,067,51,17,18,125,51,24,18,269,51,19,05,150,49*72
$GPGSV,3,3,10,20,04,327,,07,01,075,49*71
$GLGSV,2,1,08,67,73,283,,77,70,298,,66,41,167,,76,31,041,*65
$GLGSV,2,2,08,78,26,244,,68,22,327,,85,08,027,,86,07,079,*6B
$GPGSA,A,1,,,,,,,,,,,,,140.0,99.0,99.0*35
$GNGSA,A,1,,,,,,,,,,,,,140.0,99.0,99.0*2B
$GNGSA,A,1,,,,,,,,,,,,,140.0,99.0,99.0*2B
$QZGSA,A,1,,,,,,,,,,,,,140.0,99.0,99.0*29
$IMGSA,A,1,,,,,,,,,,,,,140.0,99.0,99.0*26
$GPRMC,120808.50,V,,,,,,,090219,,,N*78
$GPGGA,120809.50,,,,,0,00,999.9,,M,,M,,*61
$GPGSV,3,1,10,13,80,344,52,28,58,065,51,15,45,306,51,05,31,204,51*75
$GPGSV,3,2,10,30,31,067,51,17,18,125,50,24,18,269,50,19,05,150,49*72
$GPGSV,3,3,10,20,04,327,,07,01,075,49*71
$GLGSV,2,1,08,67,73,283,,77,70,298,,66,41,167,,76,30,041,*64
$GLGSV,2,2,08,78,26,244,,68,22,327,,85,08,027,,86,07,079,*6B
$GPGSA,A,1,,,,,,,,,,,,,140.0,99.0,99.0*35
$GNGSA,A,1,,,,,,,,,,,,,140.0,99.0,99.0*2B
$GNGSA,A,1,,,,,,,,,,,,,140.0,99.0,99.0*2B
$QZGSA,A,1,,,,,,,,,,,,,140.0,99.0,99.0*29
$IMGSA,A,1,,,,,,,,,,,,,140.0,99.0,99.0*26
$GPRMC,120809.50,V,,,,,,,090219,,,N*79
$GPGGA,120810.50,,,,,0,00,999.9,,M,,M,,*69
$GPGSV,3,1,10,13,80,344,52,28,58,065,51,15,45,306,51,05,31,204,51*75
$GPGSV,3,2,10,30,31,067,51,17,18,125,50,24,18,269,50,19,05,150,49*72
$GPGSV,3,3,10,20,04,327,,07,01,075,49*71
$GLGSV,2,1,08,67,73,283,,77,70,298,,66,41,167,,76,30,041,*64
$GLGSV,2,2,08,78,26,244,,68,22,327,,85,08,027,,86,07,079,*6B
$GPGSA,A,1,,,,,,,,,,,,,140.0,99.0,99.0*35
$GNGSA,A,1,,,,,,,,,,,,,140.0,99.0,99.0*2B
$GNGSA,A,1,,,,,,,,,,,,,140.0,99.0,99.0*2B
$QZGSA,A,1,,,,,,,,,,,,,140.0,99.0,99.0*29
$IMGSA,A,1,,,,,,,,,,,,,140.0,99.0,99.0*26
$GPRMC,120810.50,V,,,,,,,090219,,,N*71
$GPGGA,120000.28,,,,,0,00,999.9,,M,,M,,*6F
$GPGSV,3,1,10,13,80,344,52,28,58,065,51,15,45,306,51,05,31,204,51*75
$GPGSV,3,2,10,30,31,067,51,17,18,125,50,24,18,269,50,19,05,150,49*72
$GPGSV,3,3,10,20,04,327,,07,01,075,49*71
$GLGSV,2,1,08,67,73,283,,77,70,298,,66,41,167,,76,30,041,*64
$GLGSV,2,2,08,78,26,244,,68,22,327,,85,08,027,,86,07,079,*6B
$GPGSA,A,1,,,,,,,,,,,,,140.0,99.0,99.0*35
$GNGSA,A,1,,,,,,,,,,,,,140.0,99.0,99.0*2B
$GNGSA,A,1,,,,,,,,,,,,,140.0,99.0,99.0*2B
$QZGSA,A,1,,,,,,,,,,,,,140.0,99.0,99.0*29
$IMGSA,A,1,,,,,,,,,,,,,140.0,99.0,99.0*26
$GPRMC,120000.28,V,,,,,,,100219,,,N*7F
$GPGGA,000000.00,,,,,0,00,999.9,,M,,M,,*66
$GPGSA,A,1,,,,,,,,,,,,,140.0,99.0,99.0*35
$GNGSA,A,1,,,,,,,,,,,,,140.0,99.0,99.0*2B
$GNGSA,A,1,,,,,,,,,,,,,140.0,99.0,99.0*2B
$QZGSA,A,1,,,,,,,,,,,,,140.0,99.0,99.0*29
$IMGSA,A,1,,,,,,,,,,,,,140.0,99.0,99.0*26
$GPRMC,000000.00,V,,,,,,,,,,N*7D
$GPGGA,000001.00,,,,,0,00,999.9,,M,,M,,*67
$GPGSA,A,1,,,,,,,,,,,,,140.0,99.0,99.0*35
$GNGSA,A,1,,,,,,,,,,,,,140.0,99.0,99.0*2B
$GNGSA,A,1,,,,,,,,,,,,,140.0,99.0,99.0*2B
$QZGSA,A,1,,,,,,,,,,,,,140.0,99.0,99.0*29
$IMGSA,A,1,,,,,,,,,,,,,140.0,99.0,99.0*26
$GPRMC,000001.00,V,,,,,,,,,,N*7C
$GPGGA,000001.00,,,,,0,00,999.9,,M,,M,,*67
$GPGSV,1,1,01,15,,,44*7C
$GPGSA,A,1,,,,,,,,,,,,,140.0,99.0,99.0*35
$GNGSA,A,1,,,,,,,,,,,,,140.0,99.0,99.0*2B
$GNGSA,A,1,,,,,,,,,,,,,140.0,99.0,99.0*2B
$QZGSA,A,1,,,,,,,,,,,,,140.0,99.0,99.0*29
$IMGSA,A,1,,,,,,,,,,,,,140.0,99.0,99.0*26
$GPRMC,000001.00,V,,,,,,,,,,N*7C
$GPGGA,000002.00,,,,,0,00,999.9,,M,,M,,*64
$GPGSV,1,1,01,15,,,44*7C
$GPGSA,A,1,,,,,,,,,,,,,140.0,99.0,99.0*35
$GNGSA,A,1,,,,,,,,,,,,,140.0,99.0,99.0*2B
$GNGSA,A,1,,,,,,,,,,,,,140.0,99.0,99.0*2B
$QZGSA,A,1,,,,,,,,,,,,,140.0,99.0,99.0*29
$IMGSA,A,1,,,,,,,,,,,,,140.0,99.0,99.0*26
$GPRMC,000002.00,V,,,,,,,,,,N*7F
$GPGGA,000003.00,,,,,0,00,999.9,,M,,M,,*65
$GPGSV,1,1,02,28,,,49,15,,,46*7A
$GPGSA,A,1,,,,,,,,,,,,,140.0,99.0,99.0*35
$GNGSA,A,1,,,,,,,,,,,,,140.0,99.0,99.0*2B
$GNGSA,A,1,,,,,,,,,,,,,140.0,99.0,99.0*2B
$QZGSA,A,1,,,,,,,,,,,,,140.0,99.0,99.0*29
$IMGSA,A,1,,,,,,,,,,,,,140.0,99.0,99.0*26
$GPRMC,000003.00,V,,,,,,,,,,N*7E
$GPGGA,000004.00,,,,,0,00,999.9,,M,,M,,*62
$GPGSV,1,1,04,13,,,44,05,,,49,28,,,51,15,,,50*78
$GPGSA,A,1,,,,,,,,,,,,,140.0,99.0,99.0*35
$GNGSA,A,1,,,,,,,,,,,,,140.0,99.0,99.0*2B
$GNGSA,A,1,,,,,,,,,,,,,140.0,99.0,99.0*2B
$QZGSA,A,1,,,,,,,,,,,,,140.0,99.0,99.0*29
$IMGSA,A,1,,,,,,,,,,,,,140.0,99.0,99.0*26
$GPRMC,000004.00,V,,,,,,,,,,N*79
$GPGGA,000005.00,,,,,0,00,999.9,,M,,M,,*63
$GPGSV,2,1,05,13,,,48,05,,,50,28,,,51,15,,,51*7F
$GPGSV,2,2,05,30,,,43*78
$GPGSA,A,1,,,,,,,,,,,,,140.0,99.0,99.0*35
$GNGSA,A,1,,,,,,,,,,,,,140.0,99.0,99.0*2B
$GNGSA,A,1,,,,,,,,,,,,,140.0,99.0,99.0*2B
$QZGSA,A,1,,,,,,,,,,,,,140.0,99.0,99.0*29
$IMGSA,A,1,,,,,,,,,,,,,140.0,99.0,99.0*26
$GPRMC,000005.00,V,,,,,,,,,,N*78
$GPGGA,000006.00,,,,,0,00,999.9,,M,,M,,*60
$GPGSV,2,1,07,13,,,50,05,,,50,19,,,47,15,,,51*71
$GPGSV,2,2,07,28,,,51,20,,,42,30,,,50*72
$GPGSA,A,1,,,,,,,,,,,,,140.0,99.0,99.0*35
$GNGSA,A,1,,,,,,,,,,,,,140.0,99.0,99.0*2B
$GNGSA,A,1,,,,,,,,,,,,,140.0,99.0,99.0*2B
$QZGSA,A,1,,,,,,,,,,,,,140.0,99.0,99.0*29
$IMGSA,A,1,,,,,,,,,,,,,140.0,99.0,99.0*26
$GPRMC,000006.00,V,,,,,,,,,,N*7B
$GPGGA,000007.00,,,,,0,00,999.9,,M,,M,,*61
$GPGSV,2,1,08,07,,,46,05,,,51,15,,,51,13,,,51*70
$GPGSV,2,2,08,20,,,48,19,,,48,30,,,50,28,,,51*73
$GPGSA,A,1,,,,,,,,,,,,,140.0,99.0,99.0*35
$GNGSA,A,1,,,,,,,,,,,,,140.0,99.0,99.0*2B
$GNGSA,A,1,,,,,,,,,,,,,140.0,99.0,99.0*2B
$QZGSA,A,1,,,,,,,,,,,,,140.0,99.0,99.0*29
$IMGSA,A,1,,,,,,,,,,,,,140.0,99.0,99.0*26
$GPRMC,000007.00,V,,,,,,,,,,N*7A
$GPGGA,000008.00,,,,,0,00,999.9,,M,,M,,*6E
$GPGSV,3,1,09,07,,,48,05,,,51,15,,,51,13,,,51*7E
$GPGSV,3,2,09,19,,,49,17,,,48,28,,,51,20,,,49*7F
$GPGSV,3,3,09,30,,,51*77
$GPGSA,A,1,,,,,,,,,,,,,140.0,99.0,99.0*35
$GNGSA,A,1,,,,,,,,,,,,,140.0,99.0,99.0*2B
$GNGSA,A,1,,,,,,,,,,,,,140.0,99.0,99.0*2B
$QZGSA,A,1,,,,,,,,,,,,,140.0,99.0,99.0*29
$IMGSA,A,1,,,,,,,,,,,,,140.0,99.0,99.0*26
$GPRMC,000008.00,V,,,,,,,,,,N*75
$GPGGA,000009.00,,,,,0,00,999.9,,M,,M,,*6F
$GPGSV,3,1,09,07,,,49,05,,,51,15,,,51,13,,,51*7F
$GPGSV,3,2,09,19,,,49,17,,,50,28,,,51,20,,,49*76
$GPGSV,3,3,09,30,,,51*77
$GPGSA,A,1,,,,,,,,,,,,,140.0,99.0,99.0*35
$GNGSA,A,1,,,,,,,,,,,,,140.0,99.0,99.0*2B
$GNGSA,A,1,,,,,,,,,,,,,140.0,99.0,99.0*2B
$QZGSA,A,1,,,,,,,,,,,,,140.0,99.0,99.0*29
$IMGSA,A,1,,,,,,,,,,,,,140.0,99.0,99.0*26
$GPRMC,000009.00,V,,,,,,,,,,N*74
$GPGGA,000010.00,,,,,0,00,999.9,,M,,M,,*67
$GPGSV,3,1,09,07,,,49,05,,,51,15,,,51,13,,,51*7F
$GPGSV,3,2,09,19,,,49,17,,,50,28,,,51,20,,,49*76
$GPGSV,3,3,09,30,,,51*77
$GPGSA,A,1,,,,,,,,,,,,,140.0,99.0,99.0*35
$GNGSA,A,1,,,,,,,,,,,,,140.0,99.0,99.0*2B
$GNGSA,A,1,,,,,,,,,,,,,140.0,99.0,99.0*2B
$QZGSA,A,1,,,,,,,,,,,,,140.0,99.0,99.0*29
$IMGSA,A,1,,,,,,,,,,,,,140.0,99.0,99.0*26
$GPRMC,000010.00,V,,,,,,,,,,N*7C
$GPGGA,000011.00,,,,,0,00,999.9,,M,,M,,*66
$GPGSV,3,1,10,07,,,49,05,,,51,15,,,51,13,,,51*77
$GPGSV,3,2,10,19,,,49,17,,,50,24,,,48,20,,,49*7A
$GPGSV,3,3,10,30,,,51,28,,,51*71
$GPGSA,A,1,,,,,,,,,,,,,140.0,99.0,99.0*35
$GNGSA,A,1,,,,,,,,,,,,,140.0,99.0,99.0*2B
$GNGSA,A,1,,,,,,,,,,,,,140.0,99.0,99.0*2B
$QZGSA,A,1,,,,,,,,,,,,,140.0,99.0,99.0*29
$IMGSA,A,1,,,,,,,,,,,,,140.0,99.0,99.0*26
$GPRMC,000011.00,V,,,,,,,,,,N*7D
$GPGGA,000012.00,,,,,0,00,999.9,,M,,M,,*65
$GPGSV,3,1,10,07,,,49,05,,,51,15,,,51,13,,,51*77
$GPGSV,3,2,10,19,,,49,17,,,50,24,,,50,20,,,49*73
$GPGSV,3,3,10,30,,,51,28,,,51*71
$GPGSA,A,1,,,,,,,,,,,,,140.0,99.0,99.0*35
$GNGSA,A,1,,,,,,,,,,,,,140.0,99.0,99.0*2B
$GNGSA,A,1,,,,,,,,,,,,,140.0,99.0,99.0*2B
$QZGSA,A,1,,,,,,,,,,,,,140.0,99.0,99.0*29
$IMGSA,A,1,,,,,,,,,,,,,140.0,99.0,99.0*26
$GPRMC,000012.00,V,,,,,,,,,,N*7E
$GPGGA,000013.00,,,,,0,00,999.9,,M,,M,,*64
$GPGSV,3,1,10,07,,,49,05,,,51,15,,,51,13,,,51*77
$GPGSV,3,2,10,19,,,49,17,,,50,24,,,50,20,,,49*73
$GPGSV,3,3,10,30,,,51,28,,,51*71
$GPGSA,A,1,,,,,,,,,,,,,140.0,99.0,99.0*35
$GNGSA,A,1,,,,,,,,,,,,,140.0,99.0,99.0*2B
$GNGSA,A,1,,,,,,,,,,,,,140.0,99.0,99.0*2B
$QZGSA,A,1,,,,,,,,,,,,,140.0,99.0,99.0*29
$IMGSA,A,1,,,,,,,,,,,,,140.0,99.0,99.0*26
$GPRMC,000013.00,V,,,,,,,,,,N*7F
$GPGGA,000014.00,,,,,0,00,999.9,,M,,M,,*63
$GPGSV,3,1,10,07,,,49,05,,,51,15,,,51,13,,,51*77
$GPGSV,3,2,10,19,,,49,17,,,50,24,,,50,20,,,49*73
$GPGSV,3,3,10,30,,,51,28,,,51*71
$GPGSA,A,1,,,,,,,,,,,,,140.0,99.0,99.0*35
$GNGSA,A,1,,,,,,,,,,,,,140.0,99.0,99.0*2B
$GNGSA,A,1,,,,,,,,,,,,,140.0,99.0,99.0*2B
$QZGSA,A,1,,,,,,,,,,,,,140.0,99.0,99.0*29
$IMGSA,A,1,,,,,,,,,,,,,140.0,99.0,99.0*26
$GPRMC,000014.00,V,,,,,,,,,,N*78
$GPGGA,000015.00,,,,,0,00,999.9,,M,,M,,*62
$GPGSV,3,1,10,07,,,49,05,,,51,15,,,51,13,,,51*77
$GPGSV,3,2,10,19,,,49,17,,,50,24,,,50,20,,,49*73
$GPGSV,3,3,10,30,,,51,28,,,51*71
$GPGSA,A,1,,,,,,,,,,,,,140.0,99.0,99.0*35
$GNGSA,A,1,,,,,,,,,,,,,140.0,99.0,99.0*2B
$GNGSA,A,1,,,,,,,,,,,,,140.0,99.0,99.0*2B
$QZGSA,A,1,,,,,,,,,,,,,140.0,99.0,99.0*29
$IMGSA,A,1,,,,,,,,,,,,,140.0,99.0,99.0*26
$GPRMC,000015.00,V,,,,,,,,,,N*79
$GPGGA,000016.00,,,,,0,00,999.9,,M,,M,,*61
$GPGSV,3,1,10,07,,,49,05,,,51,15,,,51,13,,,52*74
$GPGSV,3,2,10,19,,,49,17,,,50,24,,,50,20,,,49*73
$GPGSV,3,3,10,30,,,51,28,,,52*72
$GPGSA,A,1,,,,,,,,,,,,,140.0,99.0,99.0*35
$GNGSA,A,1,,,,,,,,,,,,,140.0,99.0,99.0*2B
$GNGSA,A,1,,,,,,,,,,,,,140.0,99.0,99.0*2B
$QZGSA,A,1,,,,,,,,,,,,,140.0,99.0,99.0*29
$IMGSA,A,1,,,,,,,,,,,,,140.0,99.0,99.0*26
$GPRMC,000016.00,V,,,,,,,,,,N*7A
$GPGGA,120018.39,,,,,0,00,999.9,,M,,M,,*66
$GPGSV,3,1,10,07,,,49,05,,,51,15,,,51,13,,,52*74
$GPGSV,3,2,10,19,,,49,17,,,50,24,,,50,20,,,49*73
$GPGSV,3,3,10,30,,,51,28,,,51*71
$GPGSA,A,1,,,,,,,,,,,,,140.0,99.0,99.0*35
$GNGSA,A,1,,,,,,,,,,,,,140.0,99.0,99.0*2B
$GNGSA,A,1,,,,,,,,,,,,,140.0,99.0,99.0*2B
$QZGSA,A,1,,,,,,,,,,,,,140.0,99.0,99.0*29
$IMGSA,A,1,,,,,,,,,,,,,140.0,99.0,99.0*26
$GPRMC,120018.39,V,,,,,,,100219,,,N*76
$GPGGA,120019.39,,,,,0,00,999.9,,M,,M,,*67
$GPGSV,3,1,10,07,,,49,05,,,51,15,,,51,13,,,52*74
$GPGSV,3,2,10,19,,,49,17,,,50,24,,,50,20,,,49*73
$GPGSV,3,3,10,30,,,51,28,,,51*71
$GPGSA,A,1,,,,,,,,,,,,,140.0,99.0,99.0*35
$GNGSA,A,1,,,,,,,,,,,,,140.0,99.0,99.0*2B
$GNGSA,A,1,,,,,,,,,,,,,140.0,99.0,99.0*2B
$QZGSA,A,1,,,,,,,,,,,,,140.0,99.0,99.0*29
$IMGSA,A,1,,,,,,,,,,,,,140.0,99.0,99.0*26
$GPRMC,120019.39,V,,,,,,,100219,,,N*77
$GPGGA,120020.39,,,,,0,00,999.9,,M,,M,,*6D
$GPGSV,3,1,10,07,,,49,05,,,51,15,,,51,13,,,52*74
$GPGSV,3,2,10,19,,,49,17,,,50,24,,,50,20,,,49*73
$GPGSV,3,3,10,30,,,51,28,,,51*71
$GPGSA,A,1,,,,,,,,,,,,,140.0,99.0,99.0*35
$GNGSA,A,1,,,,,,,,,,,,,140.0,99.0,99.0*2B
$GNGSA,A,1,,,,,,,,,,,,,140.0,99.0,99.0*2B
$QZGSA,A,1,,,,,,,,,,,,,140.0,99.0,99.0*29
$IMGSA,A,1,,,,,,,,,,,,,140.0,99.0,99.0*26
$GPRMC,120020.39,V,,,,,,,100219,,,N*7D
$GPGGA,120021.39,,,,,0,00,999.9,,M,,M,,*6C
$GPGSV,3,1,10,07,,,49,05,,,51,15,,,51,13,,,52*74
$GPGSV,3,2,10,19,,,49,17,,,50,24,,,50,20,,,49*73
$GPGSV,3,3,10,30,,,51,28,,,51*71
$GPGSA,A,1,,,,,,,,,,,,,140.0,99.0,99.0*35
$GNGSA,A,1,,,,,,,,,,,,,140.0,99.0,99.0*2B
$GNGSA,A,1,,,,,,,,,,,,,140.0,99.0,99.0*2B
$QZGSA,A,1,,,,,,,,,,,,,140.0,99.0,99.0*29
$IMGSA,A,1,,,,,,,,,,,,,140.0,99.0,99.0*26
$GPRMC,120021.39,V,,,,,,,100219,,,N*7C
$GPGGA,120022.39,,,,,0,00,999.9,,M,,M,,*6F
$GPGSV,3,1,10,07,,,49,05,,,51,15,,,51,13,,,51*77
$GPGSV,3,2,10,19,,,49,17,,,50,24,,,50,20,,,49*73
$GPGSV,3,3,10,30,,,51,28,,,51*71
$GPGSA,A,1,,,,,,,,,,,,,140.0,99.0,99.0*35
$GNGSA,A,1,,,,,,,,,,,,,140.0,99.0,99.0*2B
$GNGSA,A,1,,,,,,,,,,,,,140.0,99.0,99.0*2B
$QZGSA,A,1,,,,,,,,,,,,,140.0,99.0,99.0*29
$IMGSA,A,1,,,,,,,,,,,,,140.0,99.0,99.0*26
$GPRMC,120022.39,V,,,,,,,100219,,,N*7F
$GPGGA,120023.39,,,,,0,00,999.9,,M,,M,,*6E
$GPGSV,3,1,10,07,,,49,05,,,51,15,,,51,13,,,51*77
$GPGSV,3,2,10,19,,,49,17,,,51,24,,,50,20,,,49*72
$GPGSV,3,3,10,30,,,51,28,,,51*71
$GPGSA,A,1,,,,,,,,,,,,,140.0,99.0,99.0*35
$GNGSA,A,1,,,,,,,,,,,,,140.0,99.0,99.0*2B
$GNGSA,A,1,,,,,,,,,,,,,140.0,99.0,99.0*2B
$QZGSA,A,1,,,,,,,,,,,,,140.0,99.0,99.0*29
$IMGSA,A,1,,,,,,,,,,,,,140.0,99.0,99.0*26
$GPRMC,120023.39,V,,,,,,,100219,,,N*7E
$GPGGA,120024.39,,,,,0,00,999.9,,M,,M,,*69
$GPGSV,3,1,10,07,,,49,05,,,51,15,,,51,13,,,51*77
$GPGSV,3,2,10,19,,,49,17,,,51,24,,,50,20,,,49*72
$GPGSV,3,3,10,30,,,51,28,,,51*71
$GPGSA,A,1,,,,,,,,,,,,,140.0,99.0,99.0*35
$GNGSA,A,1,,,,,,,,,,,,,140.0,99.0,99.0*2B
$GNGSA,A,1,,,,,,,,,,,,,140.0,99.0,99.0*2B
$QZGSA,A,1,,,,,,,,,,,,,140.0,99.0,99.0*29
$IMGSA,A,1,,,,,,,,,,,,,140.0,99.0,99.0*26
$GPRMC,120024.39,V,,,,,,,100219,,,N*79
$GPGGA,120025.39,,,,,0,00,999.9,,M,,M,,*68
$GPGSV,3,1,10,07,,,49,05,,,51,15,,,51,13,,,52*74
$GPGSV,3,2,10,19,,,49,17,,,50,24,,,50,20,,,49*73
$GPGSV,3,3,10,30,,,51,28,,,51*71
$GPGSA,A,1,,,,,,,,,,,,,140.0,99.0,99.0*35
$GNGSA,A,1,,,,,,,,,,,,,140.0,99.0,99.0*2B
$GNGSA,A,1,,,,,,,,,,,,,140.0,99.0,99.0*2B
$QZGSA,A,1,,,,,,,,,,,,,140.0,99.0,99.0*29
$IMGSA,A,1,,,,,,,,,,,,,140.0,99.0,99.0*26
$GPRMC,120025.39,V,,,,,,,100219,,,N*78
$GPGGA,120026.39,,,,,0,00,999.9,,M,,M,,*6B
$GPGSV,3,1,10,07,,,49,05,,,51,15,,,51,13,,,52*74
$GPGSV,3,2,10,19,,,49,17,,,50,24,,,50,20,,,49*73
$GPGSV,3,3,10,30,,,51,28,,,51*71
$GPGSA,A,1,,,,,,,,,,,,,140.0,99.0,99.0*35
$GNGSA,A,1,,,,,,,,,,,,,140.0,99.0,99.0*2B
$GNGSA,A,1,,,,,,,,,,,,,140.0,99.0,99.0*2B
$QZGSA,A,1,,,,,,,,,,,,,140.0,99.0,99.0*29
$IMGSA,A,1,,,,,,,,,,,,,140.0,99.0,99.0*26
$GPRMC,120026.39,V,,,,,,,100219,,,N*7B
$GPGGA,120027.39,,,,,0,00,999.9,,M,,M,,*6A
$GPGSV,3,1,10,07,,,49,05,,,51,15,,,51,13,,,52*74
$GPGSV,3,2,10,19,,,49,17,,,50,24,,,50,20,,,49*73
$GPGSV,3,3,10,30,,,51,28,,,51*71
$GPGSA,A,1,,,,,,,,,,,,,140.0,99.0,99.0*35
$GNGSA,A,1,,,,,,,,,,,,,140.0,99.0,99.0*2B
$GNGSA,A,1,,,,,,,,,,,,,140.0,99.0,99.0*2B
$QZGSA,A,1,,,,,,,,,,,,,140.0,99.0,99.0*29
$IMGSA,A,1,,,,,,,,,,,,,140.0,99.0,99.0*26
$GPRMC,120027.39,V,,,,,,,100219,,,N*7A
$GPGGA,120028.39,,,,,0,00,999.9,,M,,M,,*65
$GPGSV,3,1,10,07,,,49,05,,,51,15,,,51,13,,,52*74
$GPGSV,3,2,10,19,,,49,17,,,50,24,,,50,20,,,49*73
$GPGSV,3,3,10,30,,,51,28,,,51*71
$GPGSA,A,1,,,,,,,,,,,,,140.0,99.0,99.0*35
$GNGSA,A,1,,,,,,,,,,,,,140.0,99.0,99.0*2B
$GNGSA,A,1,,,,,,,,,,,,,140.0,99.0,99.0*2B
$QZGSA,A,1,,,,,,,,,,,,,140.0,99.0,99.0*29
$IMGSA,A,1,,,,,,,,,,,,,140.0,99.0,99.0*26
$GPRMC,120028.39,V,,,,,,,100219,,,N*75
$GPGGA,120029.39,,,,,0,00,999.9,,M,,M,,*64
$GPGSV,3,1,10,07,,,49,05,,,51,15,,,51,13,,,52*74
$GPGSV,3,2,10,19,,,49,17,,,50,24,,,50,20,,,49*73
$GPGSV,3,3,10,30,,,51,28,,,51*71
$GPGSA,A,1,,,,,,,,,,,,,140.0,99.0,99.0*35
$GNGSA,A,1,,,,,,,,,,,,,140.0,99.0,99.0*2B
$GNGSA,A,1,,,,,,,,,,,,,140.0,99.0,99.0*2B
$QZGSA,A,1,,,,,,,,,,,,,140.0,99.0,99.0*29
$IMGSA,A,1,,,,,,,,,,,,,140.0,99.0,99.0*26
$GPRMC,120029.39,V,,,,,,,100219,,,N*74
$GPGGA,120030.39,4155.826672,N,01236.679112,E,1,04,1.2,0.0,M,45.0,M,,*66
$GPGSV,3,1,10,07,02,075,49,05,33,205,51,15,44,307,51,13,78,340,52*7F
$GPGSV,3,2,10,19,04,150,49,17,16,126,50,24,17,268,50,20,03,328,49*71
$GPGSV,3,3,10,30,32,066,51,28,59,067,51*7D
$GPGSA,A,3,05,15,17,30,,,,,,,,,11.0,2.8,10.6*3B
$GNGSA,A,3,05,15,17,30,,,,,,,,,11.0,2.8,10.6*25
$GNGSA,A,3,,,,,,,,,,,,,11.0,2.8,10.6*21
$QZGSA,A,3,,,,,,,,,,,,,11.0,2.8,10.6*23
$IMGSA,A,3,,,,,,,,,,,,,11.0,2.8,10.6*2C
$GPRMC,120030.39,A,4155.826672,N,01236.679112,E,000.9,,100219,,,A*7E
$GPGGA,120031.39,4155.826142,N,01236.679782,E,1,07,1.2,0.0,M,45.0,M,,*6F
$GPGSV,3,1,10,15,44,307,51,05,33,205,51,30,32,066,51,17,16,126,50*7F
$GPGSV,3,2,10,19,04,150,,20,03,328,,07,02,075,,13,78,340,52*73
$GPGSV,3,3,10,28,59,067,51,24,17,268,50*72
$GLGSV,2,1,08,68,72,292,,78,71,296,,67,43,167,,77,40,036,*6F
$GLGSV,2,2,08,79,25,243,,69,23,328,,86,08,032,,87,05,085,*66
$GPGSA,A,3,05,15,17,30,,,,,,,,,11.0,2.8,10.6*3B
$GNGSA,A,3,05,15,17,30,,,,,,,,,11.0,2.8,10.6*25
$GNGSA,A,3,,,,,,,,,,,,,11.0,2.8,10.6*21
$QZGSA,A,3,,,,,,,,,,,,,11.0,2.8,10.6*23
$IMGSA,A,3,,,,,,,,,,,,,11.0,2.8,10.6*2C
$GPRMC,120031.39,A,4155.826142,N,01236.679782,E,,,100219,,,A*53
$GPGGA,120032.39,4155.826142,N,01236.679782,E,1,07,1.2,0.0,M,45.0,M,,*6C
$GPGSV,3,1,10,15,44,307,51,05,33,205,51,30,32,066,51,17,16,126,50*7F
$GPGSV,3,2,10,19,04,150,,20,03,328,,07,02,075,,13,79,340,52*72
$GPGSV,3,3,10,28,59,067,51,24,17,268,50*72
$GLGSV,2,1,08,68,72,292,,78,71,296,,67,43,167,,77,40,036,*6F
$GLGSV,2,2,08,79,25,243,,69,23,328,,86,08,032,,87,05,085,*66
$GPGSA,A,3,05,15,17,30,,,,,,,,,11.0,2.8,10.7*3A
$GNGSA,A,3,05,15,17,30,,,,,,,,,11.0,2.8,10.7*24
$GNGSA,A,3,,,,,,,,,,,,,11.0,2.8,10.7*20
$QZGSA,A,3,,,,,,,,,,,,,11.0,2.8,10.7*22
$IMGSA,A,3,,,,,,,,,,,,,11.0,2.8,10.7*2D
$GPRMC,120032.39,A,4155.826142,N,01236.679782,E,,,100219,,,A*50
$GPGGA,120033.00,4155.826142,N,01236.679782,E,1,07,1.2,0.0,M,45.0,M,,*67
$GPGSV,3,1,10,15,44,307,51,05,33,205,51,30,32,066,51,17,16,126,50*7F
$GPGSV,3,2,10,19,04,150,,20,03,328,,07,02,075,,13,79,340,52*72
$GPGSV,3,3,10,28,59,067,51,24,17,268,50*72
$GLGSV,2,1,08,68,72,292,,78,71,296,,67,43,167,,77,40,036,*6F
$GLGSV,2,2,08,79,25,243,,69,23,327,,86,08,032,,87,05,085,*69
$GPGSA,A,3,05,15,17,30,,,,,,,,,11.0,2.8,10.7*3A
$GNGSA,A,3,05,15,17,30,,,,,,,,,11.0,2.8,10.7*24
$GNGSA,A,3,,,,,,,,,,,,,11.0,2.8,10.7*20
$QZGSA,A,3,,,,,,,,,,,,,11.0,2.8,10.7*22
$IMGSA,A,3,,,,,,,,,,,,,11.0,2.8,10.7*2D
$GPRMC,120033.00,A,4155.826142,N,01236.679782,E,,,100219,,,A*5B
$GPGGA,120034.00,4155.826142,N,01236.679782,E,1,07,1.2,0.0,M,45.0,M,,*60
$GPGSV,3,1,10,15,44,307,51,05,33,205,51,30,32,066,51,17,16,126,50*7F
$GPGSV,3,2,10,19,04,150,,20,03,328,,07,02,075,,13,79,340,52*72
$GPGSV,3,3,10,28,59,067,51,24,17,268,50*72
$GLGSV,2,1,08,68,72,292,,78,71,296,,67,43,167,,77,40,036,*6F
$GLGSV,2,2,08,79,25,243,,69,23,327,,86,08,032,,87,05,085,*69
$GPGSA,A,3,05,15,17,30,,,,,,,,,11.0,2.8,10.7*3A
$GNGSA,A,3,05,15,17,30,,,,,,,,,11.0,2.8,10.7*24
$GNGSA,A,3,,,,,,,,,,,,,11.0,2.8,10.7*20
$QZGSA,A,3,,,,,,,,,,,,,11.0,2.8,10.7*22
$IMGSA,A,3,,,,,,,,,,,,,11.0,2.8,10.7*2D
$GPRMC,120034.00,A,4155.826142,N,01236.679782,E,,,100219,,,A*5C
$GPGGA,120035.00,4155.826142,N,01236.679782,E,1,07,1.2,0.0,M,45.0,M,,*61
$GPGSV,3,1,10,15,44,307,51,05,33,205,51,30,32,066,51,17,16,126,50*7F
$GPGSV,3,2,10,19,04,150,,20,03,328,,07,02,075,,13,79,340,52*72
$GPGSV,3,3,10,28,59,067,51,24,17,268,51*73
$GLGSV,2,1,08,68,72,292,,78,71,296,,67,43,167,,77,40,036,*6F
$GLGSV,2,2,08,79,25,243,,69,23,327,,86,08,032,,87,05,085,*69
$GPGSA,A,3,05,15,17,30,,,,,,,,,11.1,2.8,10.7*3B
$GNGSA,A,3,05,15,17,30,,,,,,,,,11.1,2.8,10.7*25
$GNGSA,A,3,,,,,,,,,,,,,11.1,2.8,10.7*21
$QZGSA,A,3,,,,,,,,,,,,,11.1,2.8,10.7*23
$IMGSA,A,3,,,,,,,,,,,,,11.1,2.8,10.7*2C
$GPRMC,120035.00,A,4155.826142,N,01236.679782,E,,,100219,,,A*5D
$GPGGA,120036.00,4155.826142,N,01236.679782,E,1,07,1.2,0.0,M,45.0,M,,*62
$GPGSV,3,1,10,15,44,307,51,05,33,205,51,30,32,066,51,17,16,126,50*7F
$GPGSV,3,2,10,19,04,150,,20,03,328,,07,02,075,,13,79,340,52*72
$GPGSV,3,3,10,28,59,067,51,24,17,268,51*73
$GLGSV,2,1,08,68,72,292,,78,71,296,,67,43,167,,77,40,036,*6F
$GLGSV,2,2,08,79,25,243,,69,23,327,,86,08,032,,87,05,085,*69
$GPGSA,A,3,05,15,17,30,,,,,,,,,11.1,2.8,10.7*3B
$GNGSA,A,3,05,15,17,30,,,,,,,,,11.1,2.8,10.7*25
$GNGSA,A,3,,,,,,,,,,,,,11.1,2.8,10.7*21
$QZGSA,A,3,,,,,,,,,,,,,11.1,2.8,10.7*23
$IMGSA,A,3,,,,,,,,,,,,,11.1,2.8,10.7*2C
$GPRMC,120036.00,A,4155.826142,N,01236.679782,E,,,100219,,,A*5E
$GPGGA,120037.00,4155.826142,N,01236.679782,E,1,07,1.2,0.0,M,45.0,M,,*63
$GPGSV,3,1,10,15,44,307,51,05,33,205,51,30,32,066,51,17,16,126,50*7F
$GPGSV,3,2,10,19,04,150,,20,03,328,,07,02,075,,13,79,340,51*71
$GPGSV,3,3,10,28,59,067,51,24,17,268,51*73
$GLGSV,2,1,08,68,72,292,,78,71,296,,67,43,167,,77,40,036,*6F
$GLGSV,2,2,08,79,25,243,,69,23,327,,86,08,032,,87,05,085,*69
$GPGSA,A,3,05,15,17,30,,,,,,,,,11.1,2.8,10.7*3B
$GNGSA,A,3,05,15,17,30,,,,,,,,,11.1,2.8,10.7*25
$GNGSA,A,3,,,,,,,,,,,,,11.1,2.8,10.7*21
$QZGSA,A,3,,,,,,,,,,,,,11.1,2.8,10.7*23
$IMGSA,A,3,,,,,,,,,,,,,11.1,2.8,10.7*2C
$GPRMC,120037.00,A,4155.826142,N,01236.679782,E,,,100219,,,A*5F
$GPGGA,120038.00,,,,,0,07,20.0,0.0,M,45.0,M,,*6A
$GPGSV,3,1,10,15,44,307,52,05,33,205,51,30,32,066,51,17,16,126,50*7C
$GPGSV,3,2,10,19,04,150,,20,03,328,,07,02,075,,13,79,340,51*71
$GPGSV,3,3,10,28,59,067,51,24,17,268,51*73
$GLGSV,2,1,08,68,72,292,,78,71,296,,67,43,167,,77,40,036,*6F
$GLGSV,2,2,08,79,25,243,,69,23,327,,86,08,032,,87,05,085,*69
$GPGSA,A,1,,,,,,,,,,,,,140.0,99.0,99.0*35
$GNGSA,A,1,,,,,,,,,,,,,140.0,99.0,99.0*2B
$GNGSA,A,1,,,,,,,,,,,,,140.0,99.0,99.0*2B
$QZGSA,A,1,,,,,,,,,,,,,140.0,99.0,99.0*29
$IMGSA,A,1,,,,,,,,,,,,,140.0,99.0,99.0*26
$GPRMC,120038.00,V,,,,,,,100219,,,N*7E
$GPGGA,120039.00,,,,,0,07,20.0,0.0,M,45.0,M,,*6B
$GPGSV,3,1,10,15,44,307,52,05,33,205,51,30,32,066,51,17,16,126,50*7C
$GPGSV,3,2,10,19,04,150,,20,03,328,,07,02,075,,13,79,340,52*72
$GPGSV,3,3,10,28,59,067,51,24,17,268,51*73
$GLGSV,2,1,08,68,72,292,,78,71,296,,67,43,167,,77,40,036,*6F
$GLGSV,2,2,08,79,25,243,,69,23,327,,86,08,032,,87,05,085,*69
$GPGSA,A,1,,,,,,,,,,,,,140.0,99.0,99.0*35
$GNGSA,A,1,,,,,,,,,,,,,140.0,99.0,99.0*2B
$GNGSA,A,1,,,,,,,,,,,,,140.0,99.0,99.0*2B
$QZGSA,A,1,,,,,,,,,,,,,140.0,99.0,99.0*29
$IMGSA,A,1,,,,,,,,,,,,,140.0,99.0,99.0*26
$GPRMC,120039.00,V,,,,,,,100219,,,N*7F
$GPGGA,120040.00,4155.826142,N,01236.679782,E,1,07,1.6,0.0,M,45.0,M,,*67
$GPGSV,3,1,10,15,44,307,52,05,33,205,51,30,32,066,51,17,16,126,50*7C
$GPGSV,3,2,10,19,04,150,,20,03,328,,07,02,075,,13,79,340,52*72
$GPGSV,3,3,10,28,59,067,51,24,17,268,51*73
$GLGSV,2,1,08,68,72,292,,78,71,297,,67,43,167,,77,40,036,*6E
$GLGSV,2,2,08,79,25,243,,69,23,327,,86,08,032,,87,05,085,*69
$GPGSA,A,3,05,15,17,30,,,,,,,,,11.2,2.8,10.8*37
$GNGSA,A,3,05,15,17,30,,,,,,,,,11.2,2.8,10.8*29
$GNGSA,A,3,,,,,,,,,,,,,11.2,2.8,10.8*2D
$QZGSA,A,3,,,,,,,,,,,,,11.2,2.8,10.8*2F
$IMGSA,A,3,,,,,,,,,,,,,11.2,2.8,10.8*20
$GPRMC,120040.00,A,4155.826142,N,01236.679782,E,,,100219,,,A*5F
$GPGGA,120041.00,4155.826142,N,01236.679782,E,1,07,1.6,0.0,M,45.0,M,,*66
$GPGSV,3,1,10,15,44,307,52,05,33,205,51,30,32,066,51,17,16,126,50*7C
$GPGSV,3,2,10,19,04,150,,20,03,328,,07,02,075,,13,79,340,52*72
$GPGSV,3,3,10,28,59,067,51,24,17,268,51*73
$GLGSV,2,1,08,68,72,292,,78,71,297,,67,43,167,,77,40,036,*6E
$GLGSV,2,2,08,79,25,243,,69,23,327,,86,08,032,,87,05,085,*69
$GPGSA,A,3,05,15,17,30,,,,,,,,,11.2,2.8,10.8*37
$GNGSA,A,3,05,15,17,30,,,,,,,,,11.2,2.8,10.8*29
$GNGSA,A,3,,,,,,,,,,,,,11.2,2.8,10.8*2D
$QZGSA,A,3,,,,,,,,,,,,,11.2,2.8,10.8*2F
$IMGSA,A,3,,,,,,,,,,,,,11.2,2.8,10.8*20
$GPRMC,120041.00,A,4155.826142,N,01236.679782,E,,,100219,,,A*5E
$GPGGA,120042.00,4155.826142,N,01236.679782,E,1,07,1.6,0.0,M,45.0,M,,*65
$GPGSV,3,1,10,15,44,307,52,05,33,205,51,30,32,066,51,17,16,126,50*7C
$GPGSV,3,2,10,19,04,150,,20,03,328,,07,02,075,,13,79,340,52*72
$GPGSV,3,3,10,28,59,067,51,24,17,268,50*72
$GLGSV,2,1,08,68,72,292,,78,71,297,,67,43,167,,77,40,036,*6E
$GLGSV,2,2,08,79,25,243,,69,23,327,,86,08,032,,87,05,085,*69
$GPGSA,A,3,05,15,17,30,,,,,,,,,11.2,2.8,10.8*37
$GNGSA,A,3,05,15,17,30,,,,,,,,,11.2,2.8,10.8*29
$GNGSA,A,3,,,,,,,,,,,,,11.2,2.8,10.8*2D
$QZGSA,A,3,,,,,,,,,,,,,11.2,2.8,10.8*2F
$IMGSA,A,3,,,,,,,,,,,,,11.2,2.8,10.8*20
$GPRMC,120042.00,A,4155.826142,N,01236.679782,E,,,100219,,,A*5D
$GPGGA,120043.00,4155.826142,N,01236.679782,E,1,07,1.6,0.0,M,45.0,M,,*64
$GPGSV,3,1,10,15,44,307,52,05,33,205,51,30,32,066,51,17,17,126,50*7D
$GPGSV,3,2,10,19,04,150,,20,03,328,,07,02,075,,13,79,340,51*71
$GPGSV,3,3,10,28,59,067,51,24,17,268,50*72
$GLGSV,2,1,08,68,72,292,,78,71,297,,67,43,167,,77,40,036,*6E
$GLGSV,2,2,08,79,25,243,,69,23,327,,86,08,032,,87,05,085,*69
$GPGSA,A,3,05,15,17,30,,,,,,,,,11.2,2.8,10.9*36
$GNGSA,A,3,05,15,17,30,,,,,,,,,11.2,2.8,10.9*28
$GNGSA,A,3,,,,,,,,,,,,,11.2,2.8,10.9*2C
$QZGSA,A,3,,,,,,,,,,,,,11.2,2.8,10.9*2E
$IMGSA,A,3,,,,,,,,,,,,,11.2,2.8,10.9*21
$GPRMC,120043.00,A,4155.826142,N,01236.679782,E,,,100219,,,A*5C
$GPGGA,120044.00,4155.826142,N,01236.679782,E,1,07,1.6,0.0,M,45.0,M,,*63
$GPGSV,3,1,10,15,44,307,52,05,33,205,51,30,32,066,51,17,17,126,50*7D
$GPGSV,3,2,10,19,04,150,,20,03,328,,07,02,075,,13,79,340,51*71
$GPGSV,3,3,10,28,59,067,51,24,17,268,50*72
$GLGSV,2,1,08,68,72,292,,78,71,297,,67,43,167,,77,40,036,*6E
$GLGSV,2,2,08,79,25,243,,69,23,327,,86,08,032,,87,05,085,*69
$GPGSA,A,3,05,15,17,30,,,,,,,,,11.3,2.8,10.9*37
$GNGSA,A,3,05,15,17,30,,,,,,,,,11.3,2.8,10.9*29
$GNGSA,A,3,,,,,,,,,,,,,11.3,2.8,10.9*2D
$QZGSA,A,3,,,,,,,,,,,,,11.3,2.8,10.9*2F
$IMGSA,A,3,,,,,,,,,,,,,11.3,2.8,10.9*20
$GPRMC,120044.00,A,4155.826142,N,01236.679782,E,,,100219,,,A*5B
$GPGGA,120045.00,4155.826142,N,01236.679782,E,1,07,1.6,0.0,M,45.0,M,,*62
$GPGSV,3,1,10,15,44,307,51,05,33,205,51,30,32,066,51,17,17,126,50*7E
$GPGSV,3,2,10,19,04,150,,20,03,328,,07,02,075,,13,79,340,51*71
$GPGSV,3,3,10,28,59,067,51,24,17,268,50*72
$GLGSV,2,1,08,68,72,292,,78,71,297,,67,42,167,,77,40,036,*6F
$GLGSV,2,2,08,79,25,243,,69,23,327,,86,08,032,,87,05,085,*69
$GPGSA,A,3,05,15,17,30,,,,,,,,,11.3,2.8,10.9*37
$GNGSA,A,3,05,15,17,30,,,,,,,,,11.3,2.8,10.9*29
$GNGSA,A,3,,,,,,,,,,,,,11.3,2.8,10.9*2D
$QZGSA,A,3,,,,,,,,,,,,,11.3,2.8,10.9*2F
$IMGSA,A,3,,,,,,,,,,,,,11.3,2.8,10.9*20
$GPRMC,120045.00,A,4155.826142,N,01236.679782,E,,,100219,,,A*5A
$GPGGA,120046.00,4155.826142,N,01236.679782,E,1,07,1.6,0.0,M,45.0,M,,*61
$GPGSV,3,1,10,15,44,307,51,05,33,205,51,30,32,066,51,17,17,126,50*7E
$GPGSV,3,2,10,19,04,150,,20,03,328,,07,02,075,,13,79,340,51*71
$GPGSV,3,3,10,28,59,067,51,24,17,268,50*72
$GLGSV,2,1,08,68,72,292,,78,71,297,,67,42,167,,77,40,036,*6F
$GLGSV,2,2,08,79,25,243,,69,23,327,,86,08,032,,87,05,085,*69
$GPGSA,A,3,05,15,17,30,,,,,,,,,11.3,2.8,10.9*37
$GNGSA,A,3,05,15,17,30,,,,,,,,,11.3,2.8,10.9*29
$GNGSA,A,3,,,,,,,,,,,,,11.3,2.8,10.9*2D
$QZGSA,A,3,,,,,,,,,,,,,11.3,2.8,10.9*2F
$IMGSA,A,3,,,,,,,,,,,,,11.3,2.8,10.9*20
$GPRMC,120046.00,A,4155.826142,N,01236.679782,E,,,100219,,,A*59
$GPGGA,120047.00,4155.826142,N,01236.679782,E,1,07,1.6,0.0,M,45.0,M,,*60
$GPGSV,3,1,10,15,44,307,51,05,33,205,51,30,32,066,51,17,17,126,50*7E
$GPGSV,3,2,10,19,04,150,,20,03,328,,07,02,075,,13,79,340,51*71
$GPGSV,3,3,10,28,59,067,51,24,17,268,50*72
$GLGSV,2,1,08,68,72,292,,78,71,297,,67,42,167,,77,40,036,*6F
$GLGSV,2,2,08,79,25,243,,69,23,327,,86,08,032,,87,05,085,*69
$GPGSA,A,3,05,15,17,30,,,,,,,,,11.3,2.8,10.9*37
$GNGSA,A,3,05,15,17,30,,,,,,,,,11.3,2.8,10.9*29
$GNGSA,A,3,,,,,,,,,,,,,11.3,2.8,10.9*2D
$QZGSA,A,3,,,,,,,,,,,,,11.3,2.8,10.9*2F
$IMGSA,A,3,,,,,,,,,,,,,11.3,2.8,10.9*20
$GPRMC,120047.00,A,4155.826142,N,01236.679782,E,,,100219,,,A*58
$GPGGA,120048.00,4155.828017,N,01236.676024,E,1,07,1.6,0.0,M,45.0,M,,*64
$GPGSV,3,1,10,15,44,307,51,05,33,205,51,30,32,066,51,17,17,126,50*7E
$GPGSV,3,2,10,19,04,150,,20,03,328,,07,02,075,,13,79,340,51*71
$GPGSV,3,3,10,28,59,067,51,24,17,268,50*72
$GLGSV,2,1,08,68,72,292,,78,71,297,,67,42,167,,77,40,036,*6F
$GLGSV,2,2,08,79,25,243,,69,23,327,,86,08,032,,87,05,085,*69
$GPGSA,A,3,05,15,17,30,,,,,,,,,11.3,2.9,11.0*3E
$GNGSA,A,3,05,15,17,30,,,,,,,,,11.3,2.9,11.0*20
$GNGSA,A,3,,,,,,,,,,,,,11.3,2.9,11.0*24
$QZGSA,A,3,,,,,,,,,,,,,11.3,2.9,11.0*26
$IMGSA,A,3,,,,,,,,,,,,,11.3,2.9,11.0*29
$GPRMC,120048.00,A,4155.828017,N,01236.676024,E,001.7,,100219,,,A*74
$GPGGA,120049.00,4155.828194,N,01236.676877,E,1,07,1.6,0.0,M,45.0,M,,*61
$GPGSV,3,1,10,15,44,307,51,05,33,205,51,30,32,066,51,17,17,126,50*7E
$GPGSV,3,2,10,19,04,150,,20,03,328,,07,02,075,,13,79,340,51*71
$GPGSV,3,3,10,28,59,067,51,24,17,268,50*72
$GLGSV,2,1,08,68,72,292,,78,71,297,,67,42,167,,77,40,036,*6F
$GLGSV,2,2,08,79,25,243,,69,23,327,,86,08,032,,87,05,085,*69
$GPGSA,A,3,05,15,17,30,,,,,,,,,11.4,2.9,11.0*39
$GNGSA,A,3,05,15,17,30,,,,,,,,,11.4,2.9,11.0*27
$GNGSA,A,3,,,,,,,,,,,,,11.4,2.9,11.0*23
$QZGSA,A,3,,,,,,,,,,,,,11.4,2.9,11.0*21
$IMGSA,A,3,,,,,,,,,,,,,11.4,2.9,11.0*2E
$GPRMC,120049.00,A,4155.828194,N,01236.676877,E,,,100219,,,A*59
$GPGGA,120050.00,4155.827259,N,01236.678700,E,1,07,1.6,0.0,M,45.0,M,,*65
$GPGSV,3,1,10,15,44,307,51,05,33,205,51,30,32,066,51,17,17,126,50*7E
$GPGSV,3,2,10,19,04,150,,20,03,328,,07,02,075,,13,79,340,51*71
$GPGSV,3,3,10,28,59,067,51,24,17,268,50*72
$GLGSV,2,1,08,68,72,292,,78,71,297,,67,42,167,,77,40,036,*6F
$GLGSV,2,2,08,79,26,243,,69,23,327,,86,08,032,,87,05,085,*6A
$GPGSA,A,3,05,15,17,30,,,,,,,,,11.4,2.9,11.0*39
$GNGSA,A,3,05,15,17,30,,,,,,,,,11.4,2.9,11.0*27
$GNGSA,A,3,,,,,,,,,,,,,11.4,2.9,11.0*23
$QZGSA,A,3,,,,,,,,,,,,,11.4,2.9,11.0*21
$IMGSA,A,3,,,,,,,,,,,,,11.4,2.9,11.0*2E
$GPRMC,120050.00,A,4155.827259,N,01236.678700,E,001.6,,100219,,,A*74
$GPGGA,120051.00,,,,,0,07,20.0,0.0,M,45.0,M,,*65
$GPGSV,3,1,10,15,44,307,51,05,33,205,51,30,32,066,51,17,17,126,50*7E
$GPGSV,3,2,10,19,04,150,,20,03,328,,07,02,075,,13,79,340,51*71
$GPGSV,3,3,10,28,59,067,51,24,17,268,50*72
$GLGSV,2,1,08,68,72,292,,78,71,297,,67,42,167,,77,39,036,*61
$GLGSV,2,2,08,79,26,243,,69,23,327,,86,08,032,,87,05,085,*6A
$GPGSA,A,1,,,,,,,,,,,,,140.0,99.0,99.0*35
$GNGSA,A,1,,,,,,,,,,,,,140.0,99.0,99.0*2B
$GNGSA,A,1,,,,,,,,,,,,,140.0,99.0,99.0*2B
$QZGSA,A,1,,,,,,,,,,,,,140.0,99.0,99.0*29
$IMGSA,A,1,,,,,,,,,,,,,140.0,99.0,99.0*26
$GPRMC,120051.00,V,,,,,,,100219,,,N*71
$GPGGA,120052.00,4155.827351,N,01236.679237,E,1,07,1.6,0.0,M,45.0,M,,*6E
$GPGSV,3,1,10,15,44,307,51,05,33,205,51,30,32,066,51,17,17,126,50*7E
$GPGSV,3,2,10,19,04,150,,20,03,328,,07,02,075,,13,79,340,51*71
$GPGSV,3,3,10,28,59,067,51,24,17,268,50*72
$GLGSV,2,1,08,68,72,292,,78,71,297,,67,42,167,,77,39,036,*61
$GLGSV,2,2,08,79,26,243,,69,23,327,,86,08,032,,87,05,085,*6A
$GPGSA,A,3,05,15,17,30,,,,,,,,,11.4,2.9,11.1*38
$GNGSA,A,3,05,15,17,30,,,,,,,,,11.4,2.9,11.1*26
$GNGSA,A,3,,,,,,,,,,,,,11.4,2.9,11.1*22
$QZGSA,A,3,,,,,,,,,,,,,11.4,2.9,11.1*20
$IMGSA,A,3,,,,,,,,,,,,,11.4,2.9,11.1*2F
$GPRMC,120052.00,A,4155.827351,N,01236.679237,E,,,100219,,,A*56
$GPGGA,120053.00,4155.832909,N,01236.677514,E,1,07,1.6,0.0,M,45.0,M,,*64
$GPGSV,3,1,10,15,44,307,51,05,33,205,51,30,32,066,51,17,17,126,50*7E
$GPGSV,3,2,10,19,04,150,,20,03,328,,07,02,075,,13,79,340,51*71
$GPGSV,3,3,10,28,59,067,51,24,17,268,50*72
$GLGSV,2,1,08,68,72,292,,78,71,297,,67,42,167,,77,39,036,*61
$GLGSV,2,2,08,79,26,243,,69,23,327,,86,08,032,,87,05,085,*6A
$GPGSA,A,3,05,15,17,30,,,,,,,,,11.4,2.9,11.1*38
$GNGSA,A,3,05,15,17,30,,,,,,,,,11.4,2.9,11.1*26
$GNGSA,A,3,,,,,,,,,,,,,11.4,2.9,11.1*22
$QZGSA,A,3,,,,,,,,,,,,,11.4,2.9,11.1*20
$IMGSA,A,3,,,,,,,,,,,,,11.4,2.9,11.1*2F
$GPRMC,120053.00,A,4155.832909,N,01236.677514,E,009.0,,100219,,,A*7B
$GPGGA,120054.00,4155.833307,N,01236.675908,E,1,07,1.6,0.0,M,45.0,M,,*65
$GPGSV,3,1,10,15,44,307,51,05,33,205,51,30,32,066,51,17,17,126,50*7E
$GPGSV,3,2,10,19,04,150,,20,03,328,,07,02,075,,13,79,340,51*71
$GPGSV,3,3,10,28,59,067,51,24,17,268,50*72
$GLGSV,2,1,08,68,72,292,,78,71,297,,67,42,167,,77,39,036,*61
$GLGSV,2,2,08,79,26,243,,69,23,327,,86,08,032,,87,05,085,*6A
$GPGSA,A,3,05,15,17,30,,,,,,,,,11.5,2.9,11.1*39
$GNGSA,A,3,05,15,17,30,,,,,,,,,11.5,2.9,11.1*27
$GNGSA,A,3,,,,,,,,,,,,,11.5,2.9,11.1*23
$QZGSA,A,3,,,,,,,,,,,,,11.5,2.9,11.1*21
$IMGSA,A,3,,,,,,,,,,,,,11.5,2.9,11.1*2E
$GPRMC,120054.00,A,4155.833307,N,01236.675908,E,006.5,,100219,,,A*70
$GPGGA,120055.00,4155.831764,N,01236.676521,E,1,07,1.6,0.0,M,45.0,M,,*63
$GPGSV,3,1,10,15,44,307,51,05,33,205,51,30,32,066,51,17,17,126,50*7E
$GPGSV,3,2,10,19,04,150,,20,03,328,,07,02,075,,13,79,340,51*71
$GPGSV,3,3,10,28,59,067,51,24,17,268,50*72
$GLGSV,2,1,08,68,72,292,,78,71,297,,67,42,167,,77,39,036,*61
$GLGSV,2,2,08,79,26,243,,69,23,327,,86,08,032,,87,05,085,*6A
$GPGSA,A,3,05,15,17,30,,,,,,,,,11.5,2.9,11.1*39
$GNGSA,A,3,05,15,17,30,,,,,,,,,11.5,2.9,11.1*27
$GNGSA,A,3,,,,,,,,,,,,,11.5,2.9,11.1*23
$QZGSA,A,3,,,,,,,,,,,,,11.5,2.9,11.1*21
$IMGSA,A,3,,,,,,,,,,,,,11.5,2.9,11.1*2E
$GPRMC,120055.00,A,4155.831764,N,01236.676521,E,004.5,,100219,,,A*74
$GPGGA,120056.00,4155.831764,N,01236.676521,E,1,07,1.6,0.0,M,45.0,M,,*60
$GPGSV,3,1,10,15,44,307,51,05,33,205,51,30,32,066,51,17,17,126,50*7E
$GPGSV,3,2,10,19,04,150,,20,03,328,,07,02,075,,13,79,340,51*71
$GPGSV,3,3,10,28,59,067,51,24,17,268,50*72
$GLGSV,2,1,08,68,72,292,,78,71,297,,67,42,167,,77,39,036,*61
$GLGSV,2,2,08,79,26,243,,69,23,327,,86,08,032,,87,05,085,*6A
$GPGSA,A,3,05,15,17,30,,,,,,,,,11.5,2.9,11.1*39
$GNGSA,A,3,05,15,17,30,,,,,,,,,11.5,2.9,11.1*27
$GNGSA,A,3,,,,,,,,,,,,,11.5,2.9,11.1*23
$QZGSA,A,3,,,,,,,,,,,,,11.5,2.9,11.1*21
$IMGSA,A,3,,,,,,,,,,,,,11.5,2.9,11.1*2E
$GPRMC,120056.00,A,4155.831764,N,01236.676521,E,,,100219,,,A*58
$GPGGA,120057.00,4155.831764,N,01236.676521,E,1,07,1.6,0.0,M,45.0,M,,*61
$GPGSV,3,1,10,15,44,307,51,05,33,205,51,30,32,066,51,17,17,126,50*7E
$GPGSV,3,2,10,19,04,150,,20,03,328,,07,02,075,,13,79,340,51*71
$GPGSV,3,3,10,28,59,067,51,24,17,268,50*72
$GLGSV,2,1,08,68,72,292,,78,71,297,,67,42,167,,77,39,036,*61
$GLGSV,2,2,08,79,26,243,,69,23,327,,86,08,032,,87,05,085,*6A
$GPGSA,A,3,05,15,17,30,,,,,,,,,11.5,2.9,11.2*3A
$GNGSA,A,3,05,15,17,30,,,,,,,,,11.5,2.9,11.2*24
$GNGSA,A,3,,,,,,,,,,,,,11.5,2.9,11.2*20
$QZGSA,A,3,,,,,,,,,,,,,11.5,2.9,11.2*22
$IMGSA,A,3,,,,,,,,,,,,,11.5,2.9,11.2*2D
$GPRMC,120057.00,A,4155.831764,N,01236.676521,E,,,100219,,,A*59
$GPGGA,120058.00,4155.831764,N,01236.676521,E,1,07,1.6,0.0,M,45.0,M,,*6E
$GPGSV,3,1,10,15,44,307,51,05,33,205,51,30,32,066,51,17,17,126,50*7E
$GPGSV,3,2,10,19,04,150,,20,03,328,,07,02,075,,13,79,340,51*71
$GPGSV,3,3,10,28,59,067,51,24,17,268,50*72
$GLGSV,2,1,08,68,72,292,,78,71,297,,67,42,167,,77,39,036,*61
$GLGSV,2,2,08,79,26,243,,69,23,327,,86,08,032,,87,05,085,*6A
$GPGSA,A,3,05,15,17,30,,,,,,,,,11.6,2.9,11.2*39
$GNGSA,A,3,05,15,17,30,,,,,,,,,11.6,2.9,11.2*27
$GNGSA,A,3,,,,,,,,,,,,,11.6,2.9,11.2*23
$QZGSA,A,3,,,,,,,,,,,,,11.6,2.9,11.2*21
$IMGSA,A,3,,,,,,,,,,,,,11.6,2.9,11.2*2E
$GPRMC,120058.00,A,4155.831764,N,01236.676521,E,,,100219,,,A*56
$GPGGA,120059.00,4155.831764,N,01236.676521,E,1,07,1.6,0.0,M,45.0,M,,*6F
$GPGSV,3,1,10,15,44,307,51,05,33,205,51,30,32,066,51,17,17,126,50*7E
$GPGSV,3,2,10,19,04,150,,20,03,328,,07,02,075,,13,79,340,51*71
$GPGSV,3,3,10,28,59,067,51,24,17,268,50*72
$GLGSV,2,1,08,68,72,292,,78,71,297,,67,42,167,,77,39,036,*61
$GLGSV,2,2,08,79,26,243,,69,23,327,,86,08,032,,87,05,085,*6A
$GPGSA,A,3,05,15,17,30,,,,,,,,,11.6,2.9,11.2*39
$GNGSA,A,3,05,15,17,30,,,,,,,,,11.6,2.9,11.2*27
$GNGSA,A,3,,,,,,,,,,,,,11.6,2.9,11.2*23
$QZGSA,A,3,,,,,,,,,,,,,11.6,2.9,11.2*21
$IMGSA,A,3,,,,,,,,,,,,,11.6,2.9,11.2*2E
$GPRMC,120059.00,A,4155.831764,N,01236.676521,E,,,100219,,,A*57
$GPGGA,120100.00,4155.831764,N,01236.676521,E,1,07,1.6,0.0,M,45.0,M,,*62
$GPGSV,3,1,10,15,44,307,51,05,33,205,51,30,32,066,51,17,17,126,50*7E
$GPGSV,3,2,10,19,04,150,,20,03,328,,07,02,075,,13,79,340,51*71
$GPGSV,3,3,10,28,59,067,51,24,17,268,50*72
$GLGSV,2,1,08,68,72,292,,78,71,297,,67,42,167,,77,39,036,*61
$GLGSV,2,2,08,79,26,243,,69,23,327,,86,08,032,,87,05,085,*6A
$GPGSA,A,3,05,15,17,30,,,,,,,,,11.6,2.9,11.2*39
$GNGSA,A,3,05,15,17,30,,,,,,,,,11.6,2.9,11.2*27
$GNGSA,A,3,,,,,,,,,,,,,11.6,2.9,11.2*23
$QZGSA,A,3,,,,,,,,,,,,,11.6,2.9,11.2*21
$IMGSA,A,3,,,,,,,,,,,,,11.6,2.9,11.2*2E
$GPRMC,120100.00,A,4155.831764,N,01236.676521,E,,,100219,,,A*5A
$GPGGA,120101.00,4155.831764,N,01236.676521,E,1,07,1.6,0.0,M,45.0,M,,*63
$GPGSV,3,1,10,15,44,307,51,05,33,205,51,30,32,066,51,17,17,126,50*7E
$GPGSV,3,2,10,19,04,150,,20,03,328,,07,02,075,,13,79,340,51*71
$GPGSV,3,3,10,28,59,067,51,24,17,268,50*72
$GLGSV,2,1,08,68,72,292,,78,71,297,,67,42,167,,77,39,036,*61
$GLGSV,2,2,08,79,26,243,,69,23,327,,86,08,031,,87,05,085,*69
$GPGSA,A,3,05,15,17,30,,,,,,,,,11.6,2.9,11.2*39
$GNGSA,A,3,05,15,17,30,,,,,,,,,11.6,2.9,11.2*27
$GNGSA,A,3,,,,,,,,,,,,,11.6,2.9,11.2*23
$QZGSA,A,3,,,,,,,,,,,,,11.6,2.9,11.2*21
$IMGSA,A,3,,,,,,,,,,,,,11.6,2.9,11.2*2E
$GPRMC,120101.00,A,4155.831764,N,01236.676521,E,,,100219,,,A*5B
$GPGGA,120102.00,4155.831764,N,01236.676521,E,1,07,1.6,0.0,M,45.0,M,,*60
$GPGSV,3,1,10,15,44,307,51,05,33,205,51,30,32,066,51,17,17,126,50*7E
$GPGSV,3,2,10,19,04,150,,20,03,328,,07,02,075,,13,79,340,51*71
$GPGSV,3,3,10,28,59,067,51,24,17,268,50*72
$GLGSV,2,1,08,68,72,291,,78,71,297,,67,42,167,,77,39,036,*62
$GLGSV,2,2,08,79,26,243,,69,23,327,,86,08,031,,87,05,085,*69
$GPGSA,A,3,05,15,17,30,,,,,,,,,11.6,2.9,11.3*38
$GNGSA,A,3,05,15,17,30,,,,,,,,,11.6,2.9,11.3*26
$GNGSA,A,3,,,,,,,,,,,,,11.6,2.9,11.3*22
$QZGSA,A,3,,,,,,,,,,,,,11.6,2.9,11.3*20
$IMGSA,A,3,,,,,,,,,,,,,11.6,2.9,11.3*2F
$GPRMC,120102.00,A,4155.831764,N,01236.676521,E,,,100219,,,A*58
$GPGGA,120103.00,4155.828180,N,01236.677668,E,1,07,1.6,0.0,M,45.0,M,,*6A
$GPGSV,3,1,10,15,44,307,51,05,33,205,51,30,32,066,51,17,17,126,50*7E
$GPGSV,3,2,10,19,04,150,,20,03,328,,07,02,075,,13,79,340,51*71
$GPGSV,3,3,10,28,59,067,51,24,17,268,50*72
$GLGSV,2,1,08,68,72,291,,78,71,297,,67,42,167,,77,39,036,*62
$GLGSV,2,2,08,79,26,243,,69,23,327,,86,08,031,,87,05,085,*69
$GPGSA,A,3,05,15,17,30,,,,,,,,,11.7,2.9,11.3*39
$GNGSA,A,3,05,15,17,30,,,,,,,,,11.7,2.9,11.3*27
$GNGSA,A,3,,,,,,,,,,,,,11.7,2.9,11.3*23
$QZGSA,A,3,,,,,,,,,,,,,11.7,2.9,11.3*21
$IMGSA,A,3,,,,,,,,,,,,,11.7,2.9,11.3*2E
$GPRMC,120103.00,A,4155.828180,N,01236.677668,E,001.4,,100219,,,A*79
$GPGGA,120104.00,4155.828180,N,01236.677668,E,1,07,1.6,0.0,M,45.0,M,,*6D
$GPGSV,3,1,10,15,44,307,51,05,33,205,51,30,32,066,51,17,17,126,50*7E
$GPGSV,3,2,10,19,04,150,,20,03,328,,07,02,075,,13,79,340,51*71
$GPGSV,3,3,10,28,59,067,51,24,17,268,50*72
$GLGSV,2,1,08,68,72,291,,78,71,297,,67,42,167,,77,39,036,*62
$GLGSV,2,2,08,79,26,243,,69,23,327,,86,08,031,,87,05,085,*69
$GPGSA,A,3,05,15,17,30,,,,,,,,,11.7,2.9,11.3*39
$GNGSA,A,3,05,15,17,30,,,,,,,,,11.7,2.9,11.3*27
$GNGSA,A,3,,,,,,,,,,,,,11.7,2.9,11.3*23
$QZGSA,A,3,,,,,,,,,,,,,11.7,2.9,11.3*21
$IMGSA,A,3,,,,,,,,,,,,,11.7,2.9,11.3*2E
$GPRMC,120104.00,A,4155.828180,N,01236.677668,E,,,100219,,,A*55
$GPGGA,120105.00,4155.828180,N,01236.677668,E,1,07,1.6,0.0,M,45.0,M,,*6C
$GPGSV,3,1,10,15,44,307,51,05,33,205,51,30,32,066,51,17,17,126,50*7E
$GPGSV,3,2,10,19,04,150,,20,03,328,,07,02,075,,13,79,340,51*71
$GPGSV,3,3,10,28,58,067,51,24,17,268,50*73
$GLGSV,2,1,08,68,72,291,,78,71,297,,67,42,167,,77,39,036,*62
$GLGSV,2,2,08,79,26,243,,69,23,327,,86,08,031,,87,05,085,*69
$GPGSA,A,3,05,15,17,30,,,,,,,,,11.7,2.9,11.3*39
$GNGSA,A,3,05,15,17,30,,,,,,,,,11.7,2.9,11.3*27
$GNGSA,A,3,,,,,,,,,,,,,11.7,2.9,11.3*23
$QZGSA,A,3,,,,,,,,,,,,,11.7,2.9,11.3*21
$IMGSA,A,3,,,,,,,,,,,,,11.7,2.9,11.3*2E
$GPRMC,120105.00,A,4155.828180,N,01236.677668,E,,,100219,,,A*54
$GPGGA,120106.00,4155.828180,N,01236.677668,E,1,07,1.6,0.0,M,45.0,M,,*6F
$GPGSV,3,1,10,15,44,307,51,05,33,205,51,30,32,067,51,17,17,126,50*7F
$GPGSV,3,2,10,19,04,150,,20,03,328,,07,02,075,,13,79,340,51*71
$GPGSV,3,3,10,28,58,067,51,24,17,268,50*73
$GLGSV,2,1,08,68,72,291,,78,71,297,,67,42,167,,77,39,036,*62
$GLGSV,2,2,08,79,26,243,,69,23,327,,86,08,031,,87,05,085,*69
$GPGSA,A,3,05,15,17,30,,,,,,,,,11.7,2.9,11.4*3E
$GNGSA,A,3,05,15,17,30,,,,,,,,,11.7,2.9,11.4*20
$GNGSA,A,3,,,,,,,,,,,,,11.7,2.9,11.4*24
$QZGSA,A,3,,,,,,,,,,,,,11.7,2.9,11.4*26
$IMGSA,A,3,,,,,,,,,,,,,11.7,2.9,11.4*29
$GPRMC,120106.00,A,4155.828180,N,01236.677668,E,,,100219,,,A*57
$GPGGA,120107.00,4155.828180,N,01236.677668,E,1,07,1.6,0.0,M,45.0,M,,*6E
$GPGSV,3,1,10,15,44,307,51,05,33,205,51,30,32,067,51,17,17,126,50*7F
$GPGSV,3,2,10,19,04,150,,20,03,328,,07,02,075,,13,79,340,51*71
$GPGSV,3,3,10,28,58,067,51,24,17,268,50*73
$GLGSV,2,1,08,68,72,291,,78,71,297,,67,42,167,,77,39,036,*62
$GLGSV,2,2,08,79,26,243,,69,23,327,,86,08,031,,87,05,085,*69
$GPGSA,A,3,05,15,17,30,,,,,,,,,11.8,2.9,11.4*31
$GNGSA,A,3,05,15,17,30,,,,,,,,,11.8,2.9,11.4*2F
$GNGSA,A,3,,,,,,,,,,,,,11.8,2.9,11.4*2B
$QZGSA,A,3,,,,,,,,,,,,,11.8,2.9,11.4*29
$IMGSA,A,3,,,,,,,,,,,,,11.8,2.9,11.4*26
$GPRMC,120107.00,A,4155.828180,N,01236.677668,E,,,100219,,,A*56
$GPGGA,120108.00,4155.828180,N,01236.677668,E,1,07,1.6,0.0,M,45.0,M,,*61
$GPGSV,3,1,10,15,44,307,51,05,33,205,51,30,32,067,51,17,17,126,50*7F
$GPGSV,3,2,10,19,04,150,,20,03,328,,07,02,075,,13,79,340,51*71
$GPGSV,3,3,10,28,58,067,51,24,17,268,50*73
$GLGSV,2,1,08,68,72,291,,78,71,297,,67,42,167,,77,39,036,*62
$GLGSV,2,2,08,79,26,243,,69,23,327,,86,08,031,,87,05,085,*69
$GPGSA,A,3,05,15,17,30,,,,,,,,,11.8,3.0,11.4*39
$GNGSA,A,3,05,15,17,30,,,,,,,,,11.8,3.0,11.4*27
$GNGSA,A,3,,,,,,,,,,,,,11.8,3.0,11.4*23
$QZGSA,A,3,,,,,,,,,,,,,11.8,3.0,11.4*21
$IMGSA,A,3,,,,,,,,,,,,,11.8,3.0,11.4*2E
$GPRMC,120108.00,A,4155.828180,N,01236.677668,E,000.0,,100219,,,A*77
$GPGGA,120109.00,4155.829120,N,01236.675150,E,1,07,1.6,0.0,M,45.0,M,,*65
$GPGSV,3,1,10,15,44,307,51,05,33,205,51,30,32,067,51,17,17,126,50*7F
$GPGSV,3,2,10,19,04,150,,20,03,328,,07,02,075,,13,79,340,51*71
$GPGSV,3,3,10,28,58,067,51,24,17,268,50*73
$GLGSV,2,1,08,68,72,291,,78,71,297,,67,42,167,,77,39,036,*62
$GLGSV,2,2,08,79,26,243,,69,23,327,,86,08,031,,87,05,085,*69
$GPGSA,A,3,05,15,17,30,,,,,,,,,11.8,3.0,11.4*39
$GNGSA,A,3,05,15,17,30,,,,,,,,,11.8,3.0,11.4*27
$GNGSA,A,3,,,,,,,,,,,,,11.8,3.0,11.4*23
$QZGSA,A,3,,,,,,,,,,,,,11.8,3.0,11.4*21
$IMGSA,A,3,,,,,,,,,,,,,11.8,3.0,11.4*2E
$GPRMC,120109.00,A,4155.829120,N,01236.675150,E,001.6,,100219,,,A*74
$GPGGA,120110.00,4155.829120,N,01236.675150,E,1,07,1.6,0.0,M,45.0,M,,*6D
$GPGSV,3,1,10,15,44,307,51,05,33,205,51,30,32,067,51,17,17,126,50*7F
$GPGSV,3,2,10,19,04,150,,20,03,328,,07,02,075,,13,79,340,51*71
$GPGSV,3,3,10,28,58,067,51,24,17,268,50*73
$GLGSV,2,1,08,68,72,291,,78,71,297,,67,42,167,,77,39,036,*62
$GLGSV,2,2,08,79,26,243,,69,23,327,,86,08,031,,87,05,085,*69
$GPGSA,A,3,05,15,17,30,,,,,,,,,11.8,3.0,11.4*39
$GNGSA,A,3,05,15,17,30,,,,,,,,,11.8,3.0,11.4*27
$GNGSA,A,3,,,,,,,,,,,,,11.8,3.0,11.4*23
$QZGSA,A,3,,,,,,,,,,,,,11.8,3.0,11.4*21
$IMGSA,A,3,,,,,,,,,,,,,11.8,3.0,11.4*2E
$GPRMC,120110.00,A,4155.829120,N,01236.675150,E,,,100219,,,A*55
$GPGGA,120111.00,4155.829120,N,01236.675150,E,1,07,1.6,0.0,M,45.0,M,,*6C
$GPGSV,3,1,10,15,44,307,51,05,33,205,51,30,32,067,51,17,17,126,50*7F
$GPGSV,3,2,10,19,04,150,,20,03,328,,07,02,075,,13,79,340,51*71
$GPGSV,3,3,10,28,58,067,51,24,17,268,50*73
$GLGSV,2,1,08,68,72,291,,78,71,297,,67,42,167,,77,39,036,*62
$GLGSV,2,2,08,79,26,243,,69,23,327,,86,08,031,,87,05,085,*69
$GPGSA,A,3,05,15,17,30,,,,,,,,,11.8,3.0,11.5*38
$GNGSA,A,3,05,15,17,30,,,,,,,,,11.8,3.0,11.5*26
$GNGSA,A,3,,,,,,,,,,,,,11.8,3.0,11.5*22
$QZGSA,A,3,,,,,,,,,,,,,11.8,3.0,11.5*20
$IMGSA,A,3,,,,,,,,,,,,,11.8,3.0,11.5*2F
$GPRMC,120111.00,A,4155.829120,N,01236.675150,E,,,100219,,,A*54
$GPGGA,120112.00,4155.829120,N,01236.675150,E,1,07,1.6,0.0,M,45.0,M,,*6F
$GPGSV,3,1,10,15,44,307,51,05,33,205,51,30,32,067,51,17,17,126,50*7F
$GPGSV,3,2,10,19,04,150,,20,03,328,,07,02,075,,13,79,340,51*71
$GPGSV,3,3,10,28,58,067,51,24,17,268,50*73
$GLGSV,2,1,08,68,72,291,,78,71,297,,67,42,167,,77,39,036,*62
$GLGSV,2,2,08,79,26,243,,69,23,327,,86,08,031,,87,05,085,*69
$GPGSA,A,3,05,15,17,30,,,,,,,,,11.9,3.0,11.5*39
$GNGSA,A,3,05,15,17,30,,,,,,,,,11.9,3.0,11.5*27
$GNGSA,A,3,,,,,,,,,,,,,11.9,3.0,11.5*23
$QZGSA,A,3,,,,,,,,,,,,,11.9,3.0,11.5*21
$IMGSA,A,3,,,,,,,,,,,,,11.9,3.0,11.5*2E
$GPRMC,120112.00,A,4155.829120,N,01236.675150,E,,,100219,,,A*57
$GPGGA,120113.00,4155.829120,N,01236.675150,E,1,07,1.6,0.0,M,45.0,M,,*6E
$GPGSV,3,1,10,15,44,307,51,05,33,205,51,30,32,067,51,17,17,126,50*7F
$GPGSV,3,2,10,19,04,150,,20,03,328,,07,02,075,,13,79,340,51*71
$GPGSV,3,3,10,28,58,067,51,24,17,268,50*73
$GLGSV,2,1,08,68,72,291,,78,71,298,,67,42,167,,77,39,036,*6D
$GLGSV,2,2,08,79,26,243,,69,23,327,,86,08,031,,87,05,085,*69
$GPGSA,A,3,05,15,17,30,,,,,,,,,11.9,3.0,11.5*39
$GNGSA,A,3,05,15,17,30,,,,,,,,,11.9,3.0,11.5*27
$GNGSA,A,3,,,,,,,,,,,,,11.9,3.0,11.5*23
$QZGSA,A,3,,,,,,,,,,,,,11.9,3.0,11.5*21
$IMGSA,A,3,,,,,,,,,,,,,11.9,3.0,11.5*2E
$GPRMC,120113.00,A,4155.829120,N,01236.675150,E,,,100219,,,A*56
$GPGGA,120114.00,4155.829120,N,01236.675150,E,1,07,1.6,0.0,M,45.0,M,,*69
$GPGSV,3,1,10,15,44,307,51,05,33,205,51,30,32,067,51,17,17,126,50*7F
$GPGSV,3,2,10,19,04,150,,20,03,328,,07,02,075,,13,79,340,51*71
$GPGSV,3,3,10,28,58,066,51,24,17,268,50*72
$GLGSV,2,1,08,68,72,291,,78,71,298,,67,42,167,,77,39,037,*6C
$GLGSV,2,2,08,79,26,243,,69,23,327,,86,08,031,,87,05,085,*69
$GPGSA,A,3,05,15,17,30,,,,,,,,,11.9,3.0,11.5*39
$GNGSA,A,3,05,15,17,30,,,,,,,,,11.9,3.0,11.5*27
$GNGSA,A,3,,,,,,,,,,,,,11.9,3.0,11.5*23
$QZGSA,A,3,,,,,,,,,,,,,11.9,3.0,11.5*21
$IMGSA,A,3,,,,,,,,,,,,,11.9,3.0,11.5*2E
$GPRMC,120114.00,A,4155.829120,N,01236.675150,E,,,100219,,,A*51
$GPGGA,120115.00,4155.829120,N,01236.675150,E,1,07,1.6,0.0,M,45.0,M,,*68
$GPGSV,3,1,10,15,44,307,51,05,33,205,51,30,32,067,51,17,17,126,50*7F
$GPGSV,3,2,10,19,04,150,,20,03,328,,07,02,075,,13,79,340,51*71
$GPGSV,3,3,10,28,58,066,51,24,17,268,50*72
$GLGSV,2,1,08,68,72,291,,78,71,298,,67,42,167,,77,39,037,*6C
$GLGSV,2,2,08,79,26,243,,69,23,327,,86,08,031,,87,05,085,*69
$GPGSA,A,3,05,15,17,30,,,,,,,,,11.9,3.0,11.6*3A
$GNGSA,A,3,05,15,17,30,,,,,,,,,11.9,3.0,11.6*24
$GNGSA,A,3,,,,,,,,,,,,,11.9,3.0,11.6*20
$QZGSA,A,3,,,,,,,,,,,,,11.9,3.0,11.6*22
$IMGSA,A,3,,,,,,,,,,,,,11.9,3.0,11.6*2D
$GPRMC,120115.00,A,4155.829120,N,01236.675150,E,,,100219,,,A*50
$GPGGA,120116.00,4155.829317,N,01236.676096,E,1,07,1.6,0.0,M,45.0,M,,*65
$GPGSV,3,1,10,15,44,307,51,05,33,205,51,30,32,067,51,17,17,126,50*7F
$GPGSV,3,2,10,19,04,150,,20,03,328,,07,02,075,,13,79,340,51*71
$GPGSV,3,3,10,28,58,066,51,24,17,268,50*72
$GLGSV,2,1,08,68,72,291,,78,71,298,,67,42,167,,77,39,037,*6C
$GLGSV,2,2,08,79,26,243,,69,23,327,,86,08,031,,87,05,085,*69
$GPGSA,A,3,05,15,17,30,,,,,,,,,12.0,3.0,11.6*30
$GNGSA,A,3,05,15,17,30,,,,,,,,,12.0,3.0,11.6*2E
$GNGSA,A,3,,,,,,,,,,,,,12.0,3.0,11.6*2A
$QZGSA,A,3,,,,,,,,,,,,,12.0,3.0,11.6*28
$IMGSA,A,3,,,,,,,,,,,,,12.0,3.0,11.6*27
$GPRMC,120116.00,A,4155.829317,N,01236.676096,E,001.8,,100219,,,A*7A
$GPGGA,120117.00,4155.829265,N,01236.674770,E,1,07,1.6,0.0,M,45.0,M,,*6D
$GPGSV,3,1,10,15,44,307,51,05,33,205,51,30,32,067,51,17,17,126,50*7F
$GPGSV,3,2,10,19,04,150,,20,03,328,,07,02,075,,13,79,340,51*71
$GPGSV,3,3,10,28,58,066,51,24,17,268,50*72
$GLGSV,2,1,08,68,72,291,,78,71,298,,67,42,167,,77,39,037,*6C
$GLGSV,2,2,08,79,26,243,,69,23,327,,86,08,031,,87,05,085,*69
$GPGSA,A,3,05,15,17,30,,,,,,,,,12.0,3.0,11.6*30
$GNGSA,A,3,05,15,17,30,,,,,,,,,12.0,3.0,11.6*2E
$GNGSA,A,3,,,,,,,,,,,,,12.0,3.0,11.6*2A
$QZGSA,A,3,,,,,,,,,,,,,12.0,3.0,11.6*28
$IMGSA,A,3,,,,,,,,,,,,,12.0,3.0,11.6*27
$GPRMC,120117.00,A,4155.829265,N,01236.674770,E,001.7,,100219,,,A*7D
$GPGGA,120118.00,4155.829265,N,01236.674770,E,1,07,1.6,0.0,M,45.0,M,,*62
$GPGSV,3,1,10,15,44,307,51,05,33,205,51,30,32,067,51,17,17,126,50*7F
$GPGSV,3,2,10,19,04,150,,20,03,328,,07,02,075,,13,79,340,51*71
$GPGSV,3,3,10,28,58,066,51,24,17,268,50*72
$GLGSV,2,1,08,68,72,291,,78,71,298,,67,42,167,,77,39,037,*6C
$GLGSV,2,2,08,79,26,243,,69,23,327,,86,08,031,,87,05,085,*69
$GPGSA,A,3,05,15,17,30,,,,,,,,,12.0,3.0,11.6*30
$GNGSA,A,3,05,15,17,30,,,,,,,,,12.0,3.0,11.6*2E
$GNGSA,A,3,,,,,,,,,,,,,12.0,3.0,11.6*2A
$QZGSA,A,3,,,,,,,,,,,,,12.0,3.0,11.6*28
$IMGSA,A,3,,,,,,,,,,,,,12.0,3.0,11.6*27
$GPRMC,120118.00,A,4155.829265,N,01236.674770,E,,,100219,,,A*5A
$GPGGA,120119.00,4155.829265,N,01236.674770,E,1,07,1.6,0.0,M,45.0,M,,*63
$GPGSV,3,1,10,15,44,307,51,05,33,205,51,30,32,067,51,17,17,126,50*7F
$GPGSV,3,2,10,19,04,150,,20,03,328,,07,02,075,,13,79,341,51*70
$GPGSV,3,3,10,28,58,066,51,24,17,268,50*72
$GLGSV,2,1,08,68,72,291,,78,71,298,,67,42,167,,77,39,037,*6C
$GLGSV,2,2,08,79,26,243,,69,23,327,,86,08,031,,87,05,085,*69
$GPGSA,A,3,05,15,17,30,,,,,,,,,12.0,3.0,11.6*30
$GNGSA,A,3,05,15,17,30,,,,,,,,,12.0,3.0,11.6*2E
$GNGSA,A,3,,,,,,,,,,,,,12.0,3.0,11.6*2A
$QZGSA,A,3,,,,,,,,,,,,,12.0,3.0,11.6*28
$IMGSA,A,3,,,,,,,,,,,,,12.0,3.0,11.6*27
$GPRMC,120119.00,A,4155.829265,N,01236.674770,E,,,100219,,,A*5B
$GPGGA,120120.00,4155.829265,N,01236.674770,E,1,07,1.6,0.0,M,45.0,M,,*69
$GPGSV,3,1,10,15,44,306,51,05,33,205,51,30,32,067,51,17,17,126,50*7E
$GPGSV,3,2,10,19,04,150,,20,03,328,,07,02,075,,13,79,341,51*70
$GPGSV,3,3,10,28,58,066,51,24,17,268,50*72
$GLGSV,2,1,08,68,72,291,,78,71,298,,67,42,167,,77,39,037,*6C
$GLGSV,2,2,08,79,26,243,,69,23,327,,86,08,031,,87,05,085,*69
$GPGSA,A,3,05,15,17,30,,,,,,,,,12.1,3.0,11.7*30
$GNGSA,A,3,05,15,17,30,,,,,,,,,12.1,3.0,11.7*2E
$GNGSA,A,3,,,,,,,,,,,,,12.1,3.0,11.7*2A
$QZGSA,A,3,,,,,,,,,,,,,12.1,3.0,11.7*28
$IMGSA,A,3,,,,,,,,,,,,,12.1,3.0,11.7*27
$GPRMC,120120.00,A,4155.829265,N,01236.674770,E,,,100219,,,A*51
$GPGGA,120121.00,4155.825947,N,01236.681328,E,1,07,3.2,0.0,M,45.0,M,,*6A
$GPGSV,3,1,10,15,44,306,51,05,33,205,51,30,32,067,51,17,17,126,50*7E
$GPGSV,3,2,10,19,04,150,,20,03,328,,07,02,075,,13,79,341,51*70
$GPGSV,3,3,10,28,58,066,51,24,17,268,50*72
$GLGSV,2,1,08,68,72,291,,78,71,298,,67,42,167,,77,39,037,*6C
$GLGSV,2,2,08,79,26,243,,69,23,327,,86,08,031,,87,05,085,*69
$GPGSA,A,3,05,15,17,30,,,,,,,,,12.1,3.0,11.7*30
$GNGSA,A,3,05,15,17,30,,,,,,,,,12.1,3.0,11.7*2E
$GNGSA,A,3,,,,,,,,,,,,,12.1,3.0,11.7*2A
$QZGSA,A,3,,,,,,,,,,,,,12.1,3.0,11.7*28
$IMGSA,A,3,,,,,,,,,,,,,12.1,3.0,11.7*27
$GPRMC,120121.00,A,4155.825947,N,01236.681328,E,002.1,,100219,,,A*79
$GPGGA,120122.00,4155.826389,N,01236.681538,E,1,07,3.2,0.0,M,45.0,M,,*65
$GPGSV,3,1,10,15,44,306,51,05,33,205,51,30,32,067,51,17,17,126,50*7E
$GPGSV,3,2,10,19,04,150,,20,03,328,,07,02,075,,13,79,341,51*70
$GPGSV,3,3,10,28,58,066,51,24,17,268,50*72
$GLGSV,2,1,08,68,72,291,,78,71,298,,67,42,167,,77,39,037,*6C
$GLGSV,2,2,08,79,26,243,,69,23,327,,86,08,031,,87,05,085,*69
$GPGSA,A,3,05,15,17,30,,,,,,,,,12.1,3.0,11.7*30
$GNGSA,A,3,05,15,17,30,,,,,,,,,12.1,3.0,11.7*2E
$GNGSA,A,3,,,,,,,,,,,,,12.1,3.0,11.7*2A
$QZGSA,A,3,,,,,,,,,,,,,12.1,3.0,11.7*28
$IMGSA,A,3,,,,,,,,,,,,,12.1,3.0,11.7*27
$GPRMC,120122.00,A,4155.826389,N,01236.681538,E,,,100219,,,A*5B
$GPGGA,120123.00,4155.826389,N,01236.681538,E,1,07,3.2,0.0,M,45.0,M,,*64
$GPGSV,3,1,10,15,44,306,51,05,33,205,51,30,32,067,51,17,17,126,50*7E
$GPGSV,3,2,10,19,04,150,,20,03,328,,07,02,075,,13,79,341,51*70
$GPGSV,3,3,10,28,58,066,51,24,17,268,50*72
$GLGSV,2,1,08,68,72,291,,78,71,298,,67,42,167,,77,39,037,*6C
$GLGSV,2,2,08,79,26,243,,69,23,327,,86,08,031,,87,05,085,*69
$GPGSA,A,3,05,15,17,30,,,,,,,,,12.1,3.0,11.7*30
$GNGSA,A,3,05,15,17,30,,,,,,,,,12.1,3.0,11.7*2E
$GNGSA,A,3,,,,,,,,,,,,,12.1,3.0,11.7*2A
$QZGSA,A,3,,,,,,,,,,,,,12.1,3.0,11.7*28
$IMGSA,A,3,,,,,,,,,,,,,12.1,3.0,11.7*27
$GPRMC,120123.00,A,4155.826389,N,01236.681538,E,,,100219,,,A*5A
$GPGGA,120124.00,4155.826389,N,01236.681538,E,1,07,3.2,0.0,M,45.0,M,,*63
$GPGSV,3,1,10,15,44,306,51,05,33,205,51,30,32,067,51,17,17,126,50*7E
$GPGSV,3,2,10,19,04,150,,20,03,328,,07,02,075,,13,79,341,51*70
$GPGSV,3,3,10,28,58,066,51,24,17,268,50*72
$GLGSV,2,1,08,68,72,291,,78,71,298,,67,42,167,,77,39,037,*6C
