$GPGGA,110523.68,,,,,0,00,999.9,,M,,M,,*6C
$GPGSV,3,1,09,28,57,126,,13,51,309,,07,24,059,,15,18,301,*71
$GPGSV,3,2,09,08,06,043,,09,05,113,,21,02,321,,05,58,232,*7D
$GPGSV,3,3,09,30,57,050,*44
$GLGSV,2,1,07,75,73,021,,65,70,144,,76,55,231,,66,42,325,*62
$GLGSV,2,2,07,72,23,143,,74,17,037,,83,03,005,*5C
$GPGSA,A,1,,,,,,,,,,,,,140.0,99.0,99.0*35
$GNGSA,A,1,,,,,,,,,,,,,140.0,99.0,99.0*2B
$GNGSA,A,1,,,,,,,,,,,,,140.0,99.0,99.0*2B
$QZGSA,A,1,,,,,,,,,,,,,140.0,99.0,99.0*29
$IMGSA,A,1,,,,,,,,,,,,,140.0,99.0,99.0*26
$GPRMC,110523.68,V,,,,,,,080219,,,N*75
$GPGGA,110524.38,,,,,0,00,999.9,,M,,M,,*6E
$GPGSV,3,1,09,30,57,050,42,28,57,126,,13,51,309,,07,24,059,*7C
$GPGSV,3,2,09,15,18,301,,08,06,043,,09,05,113,,21,02,321,*79
$GPGSV,3,3,09,05,58,232,*4B
$GLGSV,2,1,07,75,73,021,,65,70,144,,76,55,231,,66,42,325,*62
$GLGSV,2,2,07,72,23,143,,74,17,037,,83,03,005,*5C
$GPGSA,A,1,,,,,,,,,,,,,140.0,99.0,99.0*35
$GNGSA,A,1,,,,,,,,,,,,,140.0,99.0,99.0*2B
$GNGSA,A,1,,,,,,,,,,,,,140.0,99.0,99.0*2B
$QZGSA,A,1,,,,,,,,,,,,,140.0,99.0,99.0*29
$IMGSA,A,1,,,,,,,,,,,,,140.0,99.0,99.0*26
$GPRMC,110524.38,V,,,,,,,080219,,,N*77
$GPGGA,110524.68,,,,,0,00,999.9,,M,,M,,*6B
$GPGSV,3,1,09,28,57,126,42,13,51,309,44,07,24,059,40,15,18,301,42*75
$GPGSV,3,2,09,08,06,043,43,09,05,113,42,21,02,321,,05,58,232,44*7C
$GPGSV,3,3,09,30,57,050,42*42
$GLGSV,2,1,07,75,73,021,,65,70,144,,76,55,231,,66,42,325,*62
$GLGSV,2,2,07,72,23,143,,74,17,037,,83,03,005,*5C
$GPGSA,A,1,,,,,,,,,,,,,140.0,99.0,99.0*35
$GNGSA,A,1,,,,,,,,,,,,,140.0,99.0,99.0*2B
$GNGSA,A,1,,,,,,,,,,,,,140.0,99.0,99.0*2B
$QZGSA,A,1,,,,,,,,,,,,,140.0,99.0,99.0*29
$IMGSA,A,1,,,,,,,,,,,,,140.0,99.0,99.0*26
$GPRMC,110524.68,V,,,,,,,080219,,,N*72
$GPGGA,110525.68,,,,,0,00,999.9,,M,,M,,*6A
$GPGSV,3,1,09,28,57,126,43,13,51,309,46,07,24,059,43,15,18,301,44*73
$GPGSV,3,2,09,08,06,043,45,09,05,113,44,21,02,321,,05,58,232,45*7D
$GPGSV,3,3,09,30,57,050,44*44
$GLGSV,2,1,07,75,73,021,,65,70,144,,76,55,231,,66,42,325,*62
$GLGSV,2,2,07,72,23,143,,74,17,037,,83,03,005,*5C
$GPGSA,A,1,,,,,,,,,,,,,140.0,99.0,99.0*35
$GNGSA,A,1,,,,,,,,,,,,,140.0,99.0,99.0*2B
$GNGSA,A,1,,,,,,,,,,,,,140.0,99.0,99.0*2B
$QZGSA,A,1,,,,,,,,,,,,,140.0,99.0,99.0*29
$IMGSA,A,1,,,,,,,,,,,,,140.0,99.0,99.0*26
$GPRMC,110525.68,V,,,,,,,080219,,,N*73
$GPGGA,110526.68,,,,,0,00,999.9,,M,,M,,*69
$GPGSV,3,1,09,28,57,126,50,13,51,309,51,07,24,059,50,15,18,301,50*70
$GPGSV,3,2,09,08,06,043,49,09,05,113,49,21,02,321,,05,58,232,51*79
$GPGSV,3,3,09,30,57,050,51*40
$GLGSV,2,1,07,75,73,021,,65,70,144,,76,55,231,,66,42,325,*62
$GLGSV,2,2,07,72,23,143,,74,17,037,,83,03,004,*5D
$GPGSA,A,1,,,,,,,,,,,,,140.0,99.0,99.0*35
$GNGSA,A,1,,,,,,,,,,,,,140.0,99.0,99.0*2B
$GNGSA,A,1,,,,,,,,,,,,,140.0,99.0,99.0*2B
$QZGSA,A,1,,,,,,,,,,,,,140.0,99.0,99.0*29
$IMGSA,A,1,,,,,,,,,,,,,140.0,99.0,99.0*26
$GPRMC,110526.68,V,,,,,,,080219,,,N*70
$GPGGA,110527.68,,,,,0,00,999.9,,M,,M,,*68
$GPGSV,3,1,09,28,57,126,50,13,51,309,51,07,24,059,51,15,18,301,50*71
$GPGSV,3,2,09,08,06,043,49,09,05,113,49,21,02,321,,05,58,232,51*79
$GPGSV,3,3,09,30,57,050,51*40
$GLGSV,2,1,07,75,73,021,,65,70,144,,76,55,231,,66,42,325,*62
$GLGSV,2,2,07,72,23,143,,74,17,037,,83,03,004,*5D
$GPGSA,A,1,,,,,,,,,,,,,140.0,99.0,99.0*35
$GNGSA,A,1,,,,,,,,,,,,,140.0,99.0,99.0*2B
$GNGSA,A,1,,,,,,,,,,,,,140.0,99.0,99.0*2B
$QZGSA,A,1,,,,,,,,,,,,,140.0,99.0,99.0*29
$IMGSA,A,1,,,,,,,,,,,,,140.0,99.0,99.0*26
$GPRMC,110527.68,V,,,,,,,080219,,,N*71
$GPGGA,110528.68,,,,,0,00,999.9,,M,,M,,*67
$GPGSV,3,1,09,28,57,126,50,13,51,309,51,07,24,059,51,15,18,301,50*71
$GPGSV,3,2,09,08,06,043,49,09,05,113,49,21,02,321,,05,58,232,51*79
$GPGSV,3,3,09,30,57,050,51*40
$GLGSV,2,1,07,75,73,021,,65,70,144,,76,55,231,,66,42,325,*62
$GLGSV,2,2,07,72,23,143,,74,17,037,,83,03,004,*5D
$GPGSA,A,1,,,,,,,,,,,,,140.0,99.0,99.0*35
$GNGSA,A,1,,,,,,,,,,,,,140.0,99.0,99.0*2B
$GNGSA,A,1,,,,,,,,,,,,,140.0,99.0,99.0*2B
$QZGSA,A,1,,,,,,,,,,,,,140.0,99.0,99.0*29
$IMGSA,A,1,,,,,,,,,,,,,140.0,99.0,99.0*26
$GPRMC,110528.68,V,,,,,,,080219,,,N*7E
$GPGGA,110529.68,,,,,0,00,999.9,,M,,M,,*66
$GPGSV,3,1,09,28,57,126,51,13,51,309,51,07,24,059,51,15,18,301,50*70
$GPGSV,3,2,09,08,06,043,49,09,05,113,49,21,02,321,,05,58,231,51*7A
$GPGSV,3,3,09,30,57,050,51*40
$GLGSV,2,1,07,75,73,021,,65,70,144,,76,55,231,,66,42,325,*62
$GLGSV,2,2,07,72,23,143,,74,17,037,,83,03,004,*5D
$GPGSA,A,1,,,,,,,,,,,,,140.0,99.0,99.0*35
$GNGSA,A,1,,,,,,,,,,,,,140.0,99.0,99.0*2B
$GNGSA,A,1,,,,,,,,,,,,,140.0,99.0,99.0*2B
$QZGSA,A,1,,,,,,,,,,,,,140.0,99.0,99.0*29
$IMGSA,A,1,,,,,,,,,,,,,140.0,99.0,99.0*26
$GPRMC,110529.68,V,,,,,,,080219,,,N*7F
$GPGGA,110530.68,,,,,0,00,999.9,,M,,M,,*6E
$GPGSV,3,1,09,28,57,126,51,13,51,309,51,07,24,059,51,15,18,301,50*70
$GPGSV,3,2,09,08,06,043,49,09,05,113,49,21,02,321,,05,58,231,51*7A
$GPGSV,3,3,09,30,57,050,51*40
$GLGSV,2,1,07,75,73,021,,65,70,144,,76,55,232,,66,42,325,*61
$GLGSV,2,2,07,72,23,143,,74,17,037,,83,03,004,*5D
$GPGSA,A,1,,,,,,,,,,,,,140.0,99.0,99.0*35
$GNGSA,A,1,,,,,,,,,,,,,140.0,99.0,99.0*2B
$GNGSA,A,1,,,,,,,,,,,,,140.0,99.0,99.0*2B
$QZGSA,A,1,,,,,,,,,,,,,140.0,99.0,99.0*29
$IMGSA,A,1,,,,,,,,,,,,,140.0,99.0,99.0*26
$GPRMC,110530.68,V,,,,,,,080219,,,N*77
$GPGGA,110531.68,,,,,0,00,999.9,,M,,M,,*6F
$GPGSV,3,1,09,28,58,126,51,13,51,309,51,07,24,059,51,15,18,301,50*7F
$GPGSV,3,2,09,08,06,043,49,09,05,113,49,21,02,321,,05,58,231,51*7A
$GPGSV,3,3,09,30,57,050,51*40
$GLGSV,2,1,07,75,73,021,,65,70,144,,76,55,232,,66,43,325,*60
$GLGSV,2,2,07,72,23,143,,74,17,037,,83,03,004,*5D
$GPGSA,A,1,,,,,,,,,,,,,140.0,99.0,99.0*35
$GNGSA,A,1,,,,,,,,,,,,,140.0,99.0,99.0*2B
$GNGSA,A,1,,,,,,,,,,,,,140.0,99.0,99.0*2B
$QZGSA,A,1,,,,,,,,,,,,,140.0,99.0,99.0*29
$IMGSA,A,1,,,,,,,,,,,,,140.0,99.0,99.0*26
$GPRMC,110531.68,V,,,,,,,080219,,,N*76
$GPGGA,110532.68,,,,,0,00,999.9,,M,,M,,*6C
$GPGSV,3,1,09,28,58,126,51,13,52,309,52,07,24,059,51,15,18,301,51*7E
$GPGSV,3,2,09,08,06,043,49,09,05,113,49,21,02,321,,05,58,231,51*7A
$GPGSV,3,3,09,30,57,050,51*40
$GLGSV,2,1,07,75,73,021,,65,70,144,,76,55,232,,66,43,325,*60
$GLGSV,2,2,07,72,23,143,,74,17,037,,83,03,004,*5D
$GPGSA,A,1,,,,,,,,,,,,,140.0,99.0,99.0*35
$GNGSA,A,1,,,,,,,,,,,,,140.0,99.0,99.0*2B
$GNGSA,A,1,,,,,,,,,,,,,140.0,99.0,99.0*2B
$QZGSA,A,1,,,,,,,,,,,,,140.0,99.0,99.0*29
$IMGSA,A,1,,,,,,,,,,,,,140.0,99.0,99.0*26
$GPRMC,110532.68,V,,,,,,,080219,,,N*75
$GPGGA,110533.68,,,,,0,00,999.9,,M,,M,,*6D
$GPGSV,3,1,09,28,58,126,51,13,52,309,52,07,24,059,51,15,18,301,51*7E
$GPGSV,3,2,09,08,06,043,49,09,05,113,49,21,02,321,,05,58,231,52*79
$GPGSV,3,3,09,30,57,050,52*43
$GLGSV,2,1,07,75,73,021,,65,70,144,,76,55,232,,66,43,325,*60
$GLGSV,2,2,07,72,23,143,,74,17,037,,83,03,004,*5D
$GPGSA,A,1,,,,,,,,,,,,,140.0,99.0,99.0*35
$GNGSA,A,1,,,,,,,,,,,,,140.0,99.0,99.0*2B
$GNGSA,A,1,,,,,,,,,,,,,140.0,99.0,99.0*2B
$QZGSA,A,1,,,,,,,,,,,,,140.0,99.0,99.0*29
$IMGSA,A,1,,,,,,,,,,,,,140.0,99.0,99.0*26
$GPRMC,110533.68,V,,,,,,,080219,,,N*74
$GPGGA,110534.68,,,,,0,00,999.9,,M,,M,,*6A
$GPGSV,3,1,09,28,58,126,51,13,52,309,51,07,24,059,51,15,18,301,51*7D
$GPGSV,3,2,09,08,06,043,49,09,05,113,49,21,02,321,,05,58,231,51*7A
$GPGSV,3,3,09,30,57,050,52*43
$GLGSV,2,1,07,75,73,021,,65,70,144,,76,55,232,,66,43,325,*60
$GLGSV,2,2,07,72,23,143,,74,17,037,,83,03,004,*5D
$GPGSA,A,1,,,,,,,,,,,,,140.0,99.0,99.0*35
$GNGSA,A,1,,,,,,,,,,,,,140.0,99.0,99.0*2B
$GNGSA,A,1,,,,,,,,,,,,,140.0,99.0,99.0*2B
$QZGSA,A,1,,,,,,,,,,,,,140.0,99.0,99.0*29
$IMGSA,A,1,,,,,,,,,,,,,140.0,99.0,99.0*26
$GPRMC,110534.68,V,,,,,,,080219,,,N*73
$GPGGA,110535.68,,,,,0,00,999.9,,M,,M,,*6B
$GPGSV,3,1,09,28,58,126,51,13,52,309,51,07,24,059,51,15,18,301,51*7D
$GPGSV,3,2,09,08,06,043,49,09,05,113,49,21,02,321,,05,58,231,52*79
$GPGSV,3,3,09,30,57,050,52*43
$GLGSV,2,1,07,75,73,021,,65,70,144,,76,55,232,,66,43,325,*60
$GLGSV,2,2,07,72,23,143,,74,17,037,,83,03,004,*5D
$GPGSA,A,1,,,,,,,,,,,,,140.0,99.0,99.0*35
$GNGSA,A,1,,,,,,,,,,,,,140.0,99.0,99.0*2B
$GNGSA,A,1,,,,,,,,,,,,,140.0,99.0,99.0*2B
$QZGSA,A,1,,,,,,,,,,,,,140.0,99.0,99.0*29
$IMGSA,A,1,,,,,,,,,,,,,140.0,99.0,99.0*26
$GPRMC,110535.68,V,,,,,,,080219,,,N*72
$GPGGA,110536.68,,,,,0,00,999.9,,M,,M,,*68
$GPGSV,3,1,09,28,58,126,51,13,52,309,51,07,24,059,51,15,18,301,51*7D
$GPGSV,3,2,09,08,06,043,49,09,05,113,49,21,02,321,,05,58,231,51*7A
$GPGSV,3,3,09,30,57,050,52*43
$GLGSV,2,1,07,75,73,021,,65,70,144,,76,56,232,,66,43,325,*63
$GLGSV,2,2,07,72,23,143,,74,17,037,,83,03,004,*5D
$GPGSA,A,1,,,,,,,,,,,,,140.0,99.0,99.0*35
$GNGSA,A,1,,,,,,,,,,,,,140.0,99.0,99.0*2B
$GNGSA,A,1,,,,,,,,,,,,,140.0,99.0,99.0*2B
$QZGSA,A,1,,,,,,,,,,,,,140.0,99.0,99.0*29
$IMGSA,A,1,,,,,,,,,,,,,140.0,99.0,99.0*26
$GPRMC,110536.68,V,,,,,,,080219,,,N*71
$GPGGA,110537.68,,,,,0,00,999.9,,M,,M,,*69
$GPGSV,3,1,09,28,58,126,51,13,52,309,51,07,24,059,51,15,18,301,50*7C
$GPGSV,3,2,09,08,06,043,49,09,05,113,49,21,02,321,,05,58,231,51*7A
$GPGSV,3,3,09,30,57,050,51*40
$GLGSV,2,1,07,75,73,021,,65,70,144,,76,56,232,,66,43,325,*63
$GLGSV,2,2,07,72,23,143,,74,17,037,,83,03,004,*5D
$GPGSA,A,1,,,,,,,,,,,,,140.0,99.0,99.0*35
$GNGSA,A,1,,,,,,,,,,,,,140.0,99.0,99.0*2B
$GNGSA,A,1,,,,,,,,,,,,,140.0,99.0,99.0*2B
$QZGSA,A,1,,,,,,,,,,,,,140.0,99.0,99.0*29
$IMGSA,A,1,,,,,,,,,,,,,140.0,99.0,99.0*26
$GPRMC,110537.68,V,,,,,,,080219,,,N*70
$GPGGA,110538.68,,,,,0,00,999.9,,M,,M,,*66
$GPGSV,3,1,09,28,58,126,51,13,52,309,51,07,24,059,51,15,18,301,50*7C
$GPGSV,3,2,09,08,06,043,49,09,05,113,49,21,02,321,,05,58,231,51*7A
$GPGSV,3,3,09,30,57,050,51*40
$GLGSV,2,1,07,75,73,021,,65,70,144,,76,56,232,,66,43,325,*63
$GLGSV,2,2,07,72,23,143,,74,17,037,,83,03,004,*5D
$GPGSA,A,1,,,,,,,,,,,,,140.0,99.0,99.0*35
$GNGSA,A,1,,,,,,,,,,,,,140.0,99.0,99.0*2B
$GNGSA,A,1,,,,,,,,,,,,,140.0,99.0,99.0*2B
$QZGSA,A,1,,,,,,,,,,,,,140.0,99.0,99.0*29
$IMGSA,A,1,,,,,,,,,,,,,140.0,99.0,99.0*26
$GPRMC,110538.68,V,,,,,,,080219,,,N*7F
$GPGGA,110000.58,,,,,0,00,999.9,,M,,M,,*6B
$GPGSV,3,1,09,28,58,126,51,13,52,309,51,07,24,059,51,15,18,301,50*7C
$GPGSV,3,2,09,08,06,043,49,09,05,113,49,21,02,321,,05,58,231,51*7A
$GPGSV,3,3,09,30,57,050,51*40
$GLGSV,2,1,07,75,73,021,,65,70,144,,76,56,232,,66,43,325,*63
$GLGSV,2,2,07,72,23,143,,74,17,037,,83,03,004,*5D
$GPGSA,A,1,,,,,,,,,,,,,140.0,99.0,99.0*35
$GNGSA,A,1,,,,,,,,,,,,,140.0,99.0,99.0*2B
$GNGSA,A,1,,,,,,,,,,,,,140.0,99.0,99.0*2B
$QZGSA,A,1,,,,,,,,,,,,,140.0,99.0,99.0*29
$IMGSA,A,1,,,,,,,,,,,,,140.0,99.0,99.0*26
$GPRMC,110000.58,V,,,,,,,090219,,,N*73
$GPGGA,000000.00,,,,,0,00,999.9,,M,,M,,*66
$GPGSA,A,1,,,,,,,,,,,,,140.0,99.0,99.0*35
$GNGSA,A,1,,,,,,,,,,,,,140.0,99.0,99.0*2B
$GNGSA,A,1,,,,,,,,,,,,,140.0,99.0,99.0*2B
$QZGSA,A,1,,,,,,,,,,,,,140.0,99.0,99.0*29
$IMGSA,A,1,,,,,,,,,,,,,140.0,99.0,99.0*26
$GPRMC,000000.00,V,,,,,,,,,,N*7D
$GPGGA,000001.00,,,,,0,00,999.9,,M,,M,,*67
$GPGSA,A,1,,,,,,,,,,,,,140.0,99.0,99.0*35
$GNGSA,A,1,,,,,,,,,,,,,140.0,99.0,99.0*2B
$GNGSA,A,1,,,,,,,,,,,,,140.0,99.0,99.0*2B
$QZGSA,A,1,,,,,,,,,,,,,140.0,99.0,99.0*29
$IMGSA,A,1,,,,,,,,,,,,,140.0,99.0,99.0*26
$GPRMC,000001.00,V,,,,,,,,,,N*7C
$GPGGA,000001.00,,,,,0,00,999.9,,M,,M,,*67
$GPGSV,1,1,01,05,,,45*7C
$GPGSA,A,1,,,,,,,,,,,,,140.0,99.0,99.0*35
$GNGSA,A,1,,,,,,,,,,,,,140.0,99.0,99.0*2B
$GNGSA,A,1,,,,,,,,,,,,,140.0,99.0,99.0*2B
$QZGSA,A,1,,,,,,,,,,,,,140.0,99.0,99.0*29
$IMGSA,A,1,,,,,,,,,,,,,140.0,99.0,99.0*26
$GPRMC,000001.00,V,,,,,,,,,,N*7C
$GPGGA,000002.00,,,,,0,00,999.9,,M,,M,,*64
$GPGSV,1,1,01,05,,,46*7F
$GPGSA,A,1,,,,,,,,,,,,,140.0,99.0,99.0*35
$GNGSA,A,1,,,,,,,,,,,,,140.0,99.0,99.0*2B
$GNGSA,A,1,,,,,,,,,,,,,140.0,99.0,99.0*2B
$QZGSA,A,1,,,,,,,,,,,,,140.0,99.0,99.0*29
$IMGSA,A,1,,,,,,,,,,,,,140.0,99.0,99.0*26
$GPRMC,000002.00,V,,,,,,,,,,N*7F
$GPGGA,000003.00,,,,,0,00,999.9,,M,,M,,*65
$GPGSV,1,1,02,30,,,49,05,,,49*7D
$GPGSA,A,1,,,,,,,,,,,,,140.0,99.0,99.0*35
$GNGSA,A,1,,,,,,,,,,,,,140.0,99.0,99.0*2B
$GNGSA,A,1,,,,,,,,,,,,,140.0,99.0,99.0*2B
$QZGSA,A,1,,,,,,,,,,,,,140.0,99.0,99.0*29
$IMGSA,A,1,,,,,,,,,,,,,140.0,99.0,99.0*26
$GPRMC,000003.00,V,,,,,,,,,,N*7E
$GPGGA,000004.00,,,,,0,00,999.9,,M,,M,,*62
$GPGSV,1,1,02,30,,,51,05,,,50*7C
$GPGSA,A,1,,,,,,,,,,,,,140.0,99.0,99.0*35
$GNGSA,A,1,,,,,,,,,,,,,140.0,99.0,99.0*2B
$GNGSA,A,1,,,,,,,,,,,,,140.0,99.0,99.0*2B
$QZGSA,A,1,,,,,,,,,,,,,140.0,99.0,99.0*29
$IMGSA,A,1,,,,,,,,,,,,,140.0,99.0,99.0*26
$GPRMC,000004.00,V,,,,,,,,,,N*79
$GPGGA,000005.00,,,,,0,00,999.9,,M,,M,,*63
$GPGSV,1,1,04,07,,,39,05,,,51,30,,,51,15,,,48*7E
$GPGSA,A,1,,,,,,,,,,,,,140.0,99.0,99.0*35
$GNGSA,A,1,,,,,,,,,,,,,140.0,99.0,99.0*2B
$GNGSA,A,1,,,,,,,,,,,,,140.0,99.0,99.0*2B
$QZGSA,A,1,,,,,,,,,,,,,140.0,99.0,99.0*29
$IMGSA,A,1,,,,,,,,,,,,,140.0,99.0,99.0*26
$GPRMC,000005.00,V,,,,,,,,,,N*78
$GPGGA,000006.00,,,,,0,00,999.9,,M,,M,,*60
$GPGSV,2,1,05,07,,,48,05,,,51,28,,,42,15,,,50*78
$GPGSV,2,2,05,30,,,51*7B
$GPGSA,A,1,,,,,,,,,,,,,140.0,99.0,99.0*35
$GNGSA,A,1,,,,,,,,,,,,,140.0,99.0,99.0*2B
$GNGSA,A,1,,,,,,,,,,,,,140.0,99.0,99.0*2B
$QZGSA,A,1,,,,,,,,,,,,,140.0,99.0,99.0*29
$IMGSA,A,1,,,,,,,,,,,,,140.0,99.0,99.0*26
$GPRMC,000006.00,V,,,,,,,,,,N*7B
$GPGGA,000007.00,,,,,0,00,999.9,,M,,M,,*61
$GPGSV,2,1,06,07,,,50,05,,,51,15,,,50,13,,,44*7C
$GPGSV,2,2,06,30,,,51,28,,,49*7F
$GPGSA,A,1,,,,,,,,,,,,,140.0,99.0,99.0*35
$GNGSA,A,1,,,,,,,,,,,,,140.0,99.0,99.0*2B
$GNGSA,A,1,,,,,,,,,,,,,140.0,99.0,99.0*2B
$QZGSA,A,1,,,,,,,,,,,,,140.0,99.0,99.0*29
$IMGSA,A,1,,,,,,,,,,,,,140.0,99.0,99.0*26
$GPRMC,000007.00,V,,,,,,,,,,N*7A
$GPGGA,000008.00,,,,,0,00,999.9,,M,,M,,*6E
$GPGSV,2,1,07,07,,,50,05,,,51,15,,,50,13,,,49*70
$GPGSV,2,2,07,28,,,51,21,,,42,30,,,51*72
$GPGSA,A,1,,,,,,,,,,,,,140.0,99.0,99.0*35
$GNGSA,A,1,,,,,,,,,,,,,140.0,99.0,99.0*2B
$GNGSA,A,1,,,,,,,,,,,,,140.0,99.0,99.0*2B
$QZGSA,A,1,,,,,,,,,,,,,140.0,99.0,99.0*29
$IMGSA,A,1,,,,,,,,,,,,,140.0,99.0,99.0*26
$GPRMC,000008.00,V,,,,,,,,,,N*75
$GPGGA,000009.00,,,,,0,00,999.9,,M,,M,,*6F
$GPGSV,2,1,08,07,,,51,05,,,52,13,,,51,08,,,48*71
$GPGSV,2,2,08,21,,,47,15,,,50,30,,,51,28,,,51*79
$GPGSA,A,1,,,,,,,,,,,,,140.0,99.0,99.0*35
$GNGSA,A,1,,,,,,,,,,,,,140.0,99.0,99.0*2B
$GNGSA,A,1,,,,,,,,,,,,,140.0,99.0,99.0*2B
$QZGSA,A,1,,,,,,,,,,,,,140.0,99.0,99.0*29
$IMGSA,A,1,,,,,,,,,,,,,140.0,99.0,99.0*26
$GPRMC,000009.00,V,,,,,,,,,,N*74
$GPGGA,000010.00,,,,,0,00,999.9,,M,,M,,*67
$GPGSV,3,1,10,05,,,52,04,,,48,08,,,49,07,,,51*76
$GPGSV,3,2,10,13,,,51,09,,,42,21,,,48,15,,,50*7E
$GPGSV,3,3,10,30,,,51,28,,,51*71
$GPGSA,A,1,,,,,,,,,,,,,140.0,99.0,99.0*35
$GNGSA,A,1,,,,,,,,,,,,,140.0,99.0,99.0*2B
$GNGSA,A,1,,,,,,,,,,,,,140.0,99.0,99.0*2B
$QZGSA,A,1,,,,,,,,,,,,,140.0,99.0,99.0*29
$IMGSA,A,1,,,,,,,,,,,,,140.0,99.0,99.0*26
$GPRMC,000010.00,V,,,,,,,,,,N*7C
$GPGGA,000011.00,,,,,0,00,999.9,,M,,M,,*66
$GPGSV,3,1,10,05,,,52,04,,,50,08,,,49,07,,,51*7F
$GPGSV,3,2,10,13,,,51,09,,,48,21,,,48,15,,,50*74
$GPGSV,3,3,10,30,,,51,28,,,51*71
$GPGSA,A,1,,,,,,,,,,,,,140.0,99.0,99.0*35
$GNGSA,A,1,,,,,,,,,,,,,140.0,99.0,99.0*2B
$GNGSA,A,1,,,,,,,,,,,,,140.0,99.0,99.0*2B
$QZGSA,A,1,,,,,,,,,,,,,140.0,99.0,99.0*29
$IMGSA,A,1,,,,,,,,,,,,,140.0,99.0,99.0*26
$GPRMC,000011.00,V,,,,,,,,,,N*7D
$GPGGA,000012.00,,,,,0,00,999.9,,M,,M,,*65
$GPGSV,3,1,10,05,,,52,04,,,50,08,,,49,07,,,51*7F
$GPGSV,3,2,10,13,,,51,09,,,49,21,,,48,15,,,50*75
$GPGSV,3,3,10,30,,,51,28,,,51*71
$GPGSA,A,1,,,,,,,,,,,,,140.0,99.0,99.0*35
$GNGSA,A,1,,,,,,,,,,,,,140.0,99.0,99.0*2B
$GNGSA,A,1,,,,,,,,,,,,,140.0,99.0,99.0*2B
$QZGSA,A,1,,,,,,,,,,,,,140.0,99.0,99.0*29
$IMGSA,A,1,,,,,,,,,,,,,140.0,99.0,99.0*26
$GPRMC,000012.00,V,,,,,,,,,,N*7E
$GPGGA,000013.00,,,,,0,00,999.9,,M,,M,,*64
$GPGSV,3,1,10,05,,,51,04,,,51,08,,,49,07,,,51*7D
$GPGSV,3,2,10,13,,,51,09,,,49,21,,,48,15,,,50*75
$GPGSV,3,3,10,30,,,51,28,,,51*71
$GPGSA,A,1,,,,,,,,,,,,,140.0,99.0,99.0*35
$GNGSA,A,1,,,,,,,,,,,,,140.0,99.0,99.0*2B
$GNGSA,A,1,,,,,,,,,,,,,140.0,99.0,99.0*2B
$QZGSA,A,1,,,,,,,,,,,,,140.0,99.0,99.0*29
$IMGSA,A,1,,,,,,,,,,,,,140.0,99.0,99.0*26
$GPRMC,000013.00,V,,,,,,,,,,N*7F
$GPGGA,000014.00,,,,,0,00,999.9,,M,,M,,*63
$GPGSV,3,1,10,05,,,51,04,,,50,08,,,49,07,,,51*7C
$GPGSV,3,2,10,13,,,51,09,,,49,21,,,49,15,,,50*74
$GPGSV,3,3,10,30,,,51,28,,,51*71
$GPGSA,A,1,,,,,,,,,,,,,140.0,99.0,99.0*35
$GNGSA,A,1,,,,,,,,,,,,,140.0,99.0,99.0*2B
$GNGSA,A,1,,,,,,,,,,,,,140.0,99.0,99.0*2B
$QZGSA,A,1,,,,,,,,,,,,,140.0,99.0,99.0*29
$IMGSA,A,1,,,,,,,,,,,,,140.0,99.0,99.0*26
$GPRMC,000014.00,V,,,,,,,,,,N*78
$GPGGA,000015.00,,,,,0,00,999.9,,M,,M,,*62
$GPGSV,3,1,10,05,,,51,04,,,51,08,,,49,07,,,51*7D
$GPGSV,3,2,10,13,,,51,09,,,49,21,,,49,15,,,50*74
$GPGSV,3,3,10,30,,,51,28,,,52*72
$GPGSA,A,1,,,,,,,,,,,,,140.0,99.0,99.0*35
$GNGSA,A,1,,,,,,,,,,,,,140.0,99.0,99.0*2B
$GNGSA,A,1,,,,,,,,,,,,,140.0,99.0,99.0*2B
$QZGSA,A,1,,,,,,,,,,,,,140.0,99.0,99.0*29
$IMGSA,A,1,,,,,,,,,,,,,140.0,99.0,99.0*26
$GPRMC,000015.00,V,,,,,,,,,,N*79
$GPGGA,000016.00,,,,,0,00,999.9,,M,,M,,*61
$GPGSV,3,1,10,05,,,51,04,,,51,08,,,49,07,,,51*7D
$GPGSV,3,2,10,13,,,51,09,,,49,21,,,49,15,,,50*74
$GPGSV,3,3,10,30,,,51,28,,,51*71
$GPGSA,A,1,,,,,,,,,,,,,140.0,99.0,99.0*35
$GNGSA,A,1,,,,,,,,,,,,,140.0,99.0,99.0*2B
$GNGSA,A,1,,,,,,,,,,,,,140.0,99.0,99.0*2B
$QZGSA,A,1,,,,,,,,,,,,,140.0,99.0,99.0*29
$IMGSA,A,1,,,,,,,,,,,,,140.0,99.0,99.0*26
$GPRMC,000016.00,V,,,,,,,,,,N*7A
$GPGGA,110018.68,,,,,0,00,999.9,,M,,M,,*61
$GPGSV,3,1,10,05,,,51,04,,,51,08,,,49,07,,,51*7D
$GPGSV,3,2,10,13,,,51,09,,,49,21,,,49,15,,,50*74
$GPGSV,3,3,10,30,,,51,28,,,52*72
$GPGSA,A,1,,,,,,,,,,,,,140.0,99.0,99.0*35
$GNGSA,A,1,,,,,,,,,,,,,140.0,99.0,99.0*2B
$GNGSA,A,1,,,,,,,,,,,,,140.0,99.0,99.0*2B
$QZGSA,A,1,,,,,,,,,,,,,140.0,99.0,99.0*29
$IMGSA,A,1,,,,,,,,,,,,,140.0,99.0,99.0*26
$GPRMC,110018.68,V,,,,,,,090219,,,N*79
$GPGGA,110019.68,,,,,0,00,999.9,,M,,M,,*60
$GPGSV,3,1,10,05,,,51,04,,,51,08,,,49,07,,,51*7D
$GPGSV,3,2,10,13,,,51,09,,,49,21,,,49,15,,,50*74
$GPGSV,3,3,10,30,,,51,28,,,51*71
$GPGSA,A,1,,,,,,,,,,,,,140.0,99.0,99.0*35
$GNGSA,A,1,,,,,,,,,,,,,140.0,99.0,99.0*2B
$GNGSA,A,1,,,,,,,,,,,,,140.0,99.0,99.0*2B
$QZGSA,A,1,,,,,,,,,,,,,140.0,99.0,99.0*29
$IMGSA,A,1,,,,,,,,,,,,,140.0,99.0,99.0*26
$GPRMC,110019.68,V,,,,,,,090219,,,N*78
$GPGGA,110020.68,,,,,0,00,999.9,,M,,M,,*6A
$GPGSV,3,1,10,05,,,51,04,,,51,08,,,49,07,,,51*7D
$GPGSV,3,2,10,13,,,51,09,,,49,21,,,49,15,,,50*74
$GPGSV,3,3,10,30,,,51,28,,,51*71
$GPGSA,A,1,,,,,,,,,,,,,140.0,99.0,99.0*35
$GNGSA,A,1,,,,,,,,,,,,,140.0,99.0,99.0*2B
$GNGSA,A,1,,,,,,,,,,,,,140.0,99.0,99.0*2B
$QZGSA,A,1,,,,,,,,,,,,,140.0,99.0,99.0*29
$IMGSA,A,1,,,,,,,,,,,,,140.0,99.0,99.0*26
$GPRMC,110020.68,V,,,,,,,090219,,,N*72
$GPGGA,110021.68,,,,,0,00,999.9,,M,,M,,*6B
$GPGSV,3,1,10,05,,,51,04,,,51,08,,,49,07,,,51*7D
$GPGSV,3,2,10,13,,,51,09,,,49,21,,,49,15,,,50*74
$GPGSV,3,3,10,30,,,51,28,,,51*71
$GPGSA,A,1,,,,,,,,,,,,,140.0,99.0,99.0*35
$GNGSA,A,1,,,,,,,,,,,,,140.0,99.0,99.0*2B
$GNGSA,A,1,,,,,,,,,,,,,140.0,99.0,99.0*2B
$QZGSA,A,1,,,,,,,,,,,,,140.0,99.0,99.0*29
$IMGSA,A,1,,,,,,,,,,,,,140.0,99.0,99.0*26
$GPRMC,110021.68,V,,,,,,,090219,,,N*73
$GPGGA,110022.68,,,,,0,00,999.9,,M,,M,,*68
$GPGSV,3,1,10,05,,,51,04,,,51,08,,,49,07,,,51*7D
$GPGSV,3,2,10,13,,,52,09,,,49,21,,,49,15,,,50*77
$GPGSV,3,3,10,30,,,51,28,,,51*71
$GPGSA,A,1,,,,,,,,,,,,,140.0,99.0,99.0*35
$GNGSA,A,1,,,,,,,,,,,,,140.0,99.0,99.0*2B
$GNGSA,A,1,,,,,,,,,,,,,140.0,99.0,99.0*2B
$QZGSA,A,1,,,,,,,,,,,,,140.0,99.0,99.0*29
$IMGSA,A,1,,,,,,,,,,,,,140.0,99.0,99.0*26
$GPRMC,110022.68,V,,,,,,,090219,,,N*70
$GPGGA,110023.68,,,,,0,00,999.9,,M,,M,,*69
$GPGSV,3,1,10,05,,,52,04,,,51,08,,,49,07,,,51*7E
$GPGSV,3,2,10,13,,,52,09,,,49,21,,,49,15,,,50*77
$GPGSV,3,3,10,30,,,51,28,,,51*71
$GPGSA,A,1,,,,,,,,,,,,,140.0,99.0,99.0*35
$GNGSA,A,1,,,,,,,,,,,,,140.0,99.0,99.0*2B
$GNGSA,A,1,,,,,,,,,,,,,140.0,99.0,99.0*2B
$QZGSA,A,1,,,,,,,,,,,,,140.0,99.0,99.0*29
$IMGSA,A,1,,,,,,,,,,,,,140.0,99.0,99.0*26
$GPRMC,110023.68,V,,,,,,,090219,,,N*71
$GPGGA,110024.68,,,,,0,00,999.9,,M,,M,,*6E
$GPGSV,3,1,10,05,,,52,04,,,51,08,,,49,07,,,51*7E
$GPGSV,3,2,10,13,,,52,09,,,49,21,,,49,15,,,50*77
$GPGSV,3,3,10,30,,,51,28,,,51*71
$GPGSA,A,1,,,,,,,,,,,,,140.0,99.0,99.0*35
$GNGSA,A,1,,,,,,,,,,,,,140.0,99.0,99.0*2B
$GNGSA,A,1,,,,,,,,,,,,,140.0,99.0,99.0*2B
$QZGSA,A,1,,,,,,,,,,,,,140.0,99.0,99.0*29
$IMGSA,A,1,,,,,,,,,,,,,140.0,99.0,99.0*26
$GPRMC,110024.68,V,,,,,,,090219,,,N*76
$GPGGA,110025.68,,,,,0,00,999.9,,M,,M,,*6F
$GPGSV,3,1,10,05,,,52,04,,,51,08,,,49,07,,,51*7E
$GPGSV,3,2,10,13,,,52,09,,,49,21,,,49,15,,,50*77
$GPGSV,3,3,10,30,,,51,28,,,51*71
$GPGSA,A,1,,,,,,,,,,,,,140.0,99.0,99.0*35
$GNGSA,A,1,,,,,,,,,,,,,140.0,99.0,99.0*2B
$GNGSA,A,1,,,,,,,,,,,,,140.0,99.0,99.0*2B
$QZGSA,A,1,,,,,,,,,,,,,140.0,99.0,99.0*29
$IMGSA,A,1,,,,,,,,,,,,,140.0,99.0,99.0*26
$GPRMC,110025.68,V,,,,,,,090219,,,N*77
$GPGGA,110026.68,,,,,0,00,999.9,,M,,M,,*6C
$GPGSV,3,1,10,05,,,52,04,,,51,08,,,49,07,,,51*7E
$GPGSV,3,2,10,13,,,51,09,,,49,21,,,49,15,,,50*74
$GPGSV,3,3,10,30,,,51,28,,,51*71
$GPGSA,A,1,,,,,,,,,,,,,140.0,99.0,99.0*35
$GNGSA,A,1,,,,,,,,,,,,,140.0,99.0,99.0*2B
$GNGSA,A,1,,,,,,,,,,,,,140.0,99.0,99.0*2B
$QZGSA,A,1,,,,,,,,,,,,,140.0,99.0,99.0*29
$IMGSA,A,1,,,,,,,,,,,,,140.0,99.0,99.0*26
$GPRMC,110026.68,V,,,,,,,090219,,,N*74
$GPGGA,110027.68,,,,,0,00,999.9,,M,,M,,*6D
$GPGSV,3,1,10,05,,,52,04,,,51,08,,,49,07,,,51*7E
$GPGSV,3,2,10,13,,,51,09,,,49,21,,,49,15,,,50*74
$GPGSV,3,3,10,30,,,51,28,,,51*71
$GPGSA,A,1,,,,,,,,,,,,,140.0,99.0,99.0*35
$GNGSA,A,1,,,,,,,,,,,,,140.0,99.0,99.0*2B
$GNGSA,A,1,,,,,,,,,,,,,140.0,99.0,99.0*2B
$QZGSA,A,1,,,,,,,,,,,,,140.0,99.0,99.0*29
$IMGSA,A,1,,,,,,,,,,,,,140.0,99.0,99.0*26
$GPRMC,110027.68,V,,,,,,,090219,,,N*75
$GPGGA,110028.68,,,,,0,00,999.9,,M,,M,,*62
$GPGSV,3,1,10,05,,,52,04,,,51,08,,,49,07,,,51*7E
$GPGSV,3,2,10,13,,,51,09,,,49,21,,,49,15,,,50*74
$GPGSV,3,3,10,30,,,51,28,,,51*71
$GPGSA,A,1,,,,,,,,,,,,,140.0,99.0,99.0*35
$GNGSA,A,1,,,,,,,,,,,,,140.0,99.0,99.0*2B
$GNGSA,A,1,,,,,,,,,,,,,140.0,99.0,99.0*2B
$QZGSA,A,1,,,,,,,,,,,,,140.0,99.0,99.0*29
$IMGSA,A,1,,,,,,,,,,,,,140.0,99.0,99.0*26
$GPRMC,110028.68,V,,,,,,,090219,,,N*7A
$GPGGA,110029.68,,,,,0,00,999.9,,M,,M,,*63
$GPGSV,3,1,10,05,,,52,04,,,51,08,,,49,07,,,51*7E
$GPGSV,3,2,10,13,,,51,09,,,49,21,,,49,15,,,50*74
$GPGSV,3,3,10,30,,,51,28,,,51*71
$GPGSA,A,1,,,,,,,,,,,,,140.0,99.0,99.0*35
$GNGSA,A,1,,,,,,,,,,,,,140.0,99.0,99.0*2B
$GNGSA,A,1,,,,,,,,,,,,,140.0,99.0,99.0*2B
$QZGSA,A,1,,,,,,,,,,,,,140.0,99.0,99.0*29
$IMGSA,A,1,,,,,,,,,,,,,140.0,99.0,99.0*26
$GPRMC,110029.68,V,,,,,,,090219,,,N*7B
$GPGGA,110030.68,,,,,0,00,999.9,,M,,M,,*6B
$GPGSV,3,1,10,05,,,52,04,,,51,08,,,49,07,,,51*7E
$GPGSV,3,2,10,13,,,51,09,,,49,21,,,49,15,,,50*74
$GPGSV,3,3,10,30,,,51,28,,,51*71
$GPGSA,A,1,,,,,,,,,,,,,140.0,99.0,99.0*35
$GNGSA,A,1,,,,,,,,,,,,,140.0,99.0,99.0*2B
$GNGSA,A,1,,,,,,,,,,,,,140.0,99.0,99.0*2B
$QZGSA,A,1,,,,,,,,,,,,,140.0,99.0,99.0*29
$IMGSA,A,1,,,,,,,,,,,,,140.0,99.0,99.0*26
$GPRMC,110030.68,V,,,,,,,090219,,,N*73
$GPGGA,110031.68,,,,,0,00,999.9,,M,,M,,*6A
$GPGSV,3,1,10,05,,,51,04,,,51,08,,,49,07,,,51*7D
$GPGSV,3,2,10,13,,,51,09,,,49,21,,,49,15,,,51*75
$GPGSV,3,3,10,30,,,51,28,,,51*71
$GPGSA,A,1,,,,,,,,,,,,,140.0,99.0,99.0*35
$GNGSA,A,1,,,,,,,,,,,,,140.0,99.0,99.0*2B
$GNGSA,A,1,,,,,,,,,,,,,140.0,99.0,99.0*2B
$QZGSA,A,1,,,,,,,,,,,,,140.0,99.0,99.0*29
$IMGSA,A,1,,,,,,,,,,,,,140.0,99.0,99.0*26
$GPRMC,110031.68,V,,,,,,,090219,,,N*72
$GPGGA,110032.68,,,,,0,00,999.9,,M,,M,,*69
$GPGSV,3,1,10,05,,,51,04,,,51,08,,,49,07,,,51*7D
$GPGSV,3,2,10,13,,,51,09,,,49,21,,,49,15,,,51*75
$GPGSV,3,3,10,30,,,51,28,,,51*71
$GPGSA,A,1,,,,,,,,,,,,,140.0,99.0,99.0*35
$GNGSA,A,1,,,,,,,,,,,,,140.0,99.0,99.0*2B
$GNGSA,A,1,,,,,,,,,,,,,140.0,99.0,99.0*2B
$QZGSA,A,1,,,,,,,,,,,,,140.0,99.0,99.0*29
$IMGSA,A,1,,,,,,,,,,,,,140.0,99.0,99.0*26
$GPRMC,110032.68,V,,,,,,,090219,,,N*71
$GPGGA,110033.68,,,,,0,00,999.9,,M,,M,,*68
$GPGSV,3,1,10,05,,,51,04,,,51,08,,,49,07,,,51*7D
$GPGSV,3,2,10,13,,,51,09,,,49,21,,,49,15,,,51*75
$GPGSV,3,3,10,30,,,51,28,,,51*71
$GPGSA,A,1,,,,,,,,,,,,,140.0,99.0,99.0*35
$GNGSA,A,1,,,,,,,,,,,,,140.0,99.0,99.0*2B
$GNGSA,A,1,,,,,,,,,,,,,140.0,99.0,99.0*2B
$QZGSA,A,1,,,,,,,,,,,,,140.0,99.0,99.0*29
$IMGSA,A,1,,,,,,,,,,,,,140.0,99.0,99.0*26
$GPRMC,110033.68,V,,,,,,,090219,,,N*70
$GPGGA,110034.68,,,,,0,00,999.9,,M,,M,,*6F
$GPGSV,3,1,10,05,,,51,04,,,51,08,,,49,07,,,51*7D
$GPGSV,3,2,10,13,,,51,09,,,49,21,,,49,15,,,51*75
$GPGSV,3,3,10,30,,,51,28,,,51*71
$GPGSA,A,1,,,,,,,,,,,,,140.0,99.0,99.0*35
$GNGSA,A,1,,,,,,,,,,,,,140.0,99.0,99.0*2B
$GNGSA,A,1,,,,,,,,,,,,,140.0,99.0,99.0*2B
$QZGSA,A,1,,,,,,,,,,,,,140.0,99.0,99.0*29
$IMGSA,A,1,,,,,,,,,,,,,140.0,99.0,99.0*26
$GPRMC,110034.68,V,,,,,,,090219,,,N*77
$GPGGA,110035.68,,,,,0,00,999.9,,M,,M,,*6E
$GPGSV,3,1,10,05,,,51,04,,,51,08,,,49,07,,,51*7D
$GPGSV,3,2,10,13,,,51,09,,,49,21,,,49,15,,,51*75
$GPGSV,3,3,10,30,,,51,28,,,51*71
$GPGSA,A,1,,,,,,,,,,,,,140.0,99.0,99.0*35
$GNGSA,A,1,,,,,,,,,,,,,140.0,99.0,99.0*2B
$GNGSA,A,1,,,,,,,,,,,,,140.0,99.0,99.0*2B
$QZGSA,A,1,,,,,,,,,,,,,140.0,99.0,99.0*29
$IMGSA,A,1,,,,,,,,,,,,,140.0,99.0,99.0*26
$GPRMC,110035.68,V,,,,,,,090219,,,N*76
$GPGGA,110036.68,,,,,0,00,999.9,,M,,M,,*6D
$GPGSV,3,1,10,05,,,52,04,,,51,08,,,49,07,,,51*7E
$GPGSV,3,2,10,13,,,51,09,,,49,21,,,49,15,,,50*74
$GPGSV,3,3,10,30,,,51,28,,,51*71
$GPGSA,A,1,,,,,,,,,,,,,140.0,99.0,99.0*35
$GNGSA,A,1,,,,,,,,,,,,,140.0,99.0,99.0*2B
$GNGSA,A,1,,,,,,,,,,,,,140.0,99.0,99.0*2B
$QZGSA,A,1,,,,,,,,,,,,,140.0,99.0,99.0*29
$IMGSA,A,1,,,,,,,,,,,,,140.0,99.0,99.0*26
$GPRMC,110036.68,V,,,,,,,090219,,,N*75
$GPGGA,110037.68,,,,,0,00,999.9,,M,,M,,*6C
$GPGSV,3,1,10,05,,,51,04,,,51,08,,,49,07,,,50*7C
$GPGSV,3,2,10,13,,,51,09,,,49,21,,,49,15,,,50*74
$GPGSV,3,3,10,30,,,51,28,,,51*71
$GPGSA,A,1,,,,,,,,,,,,,140.0,99.0,99.0*35
$GNGSA,A,1,,,,,,,,,,,,,140.0,99.0,99.0*2B
$GNGSA,A,1,,,,,,,,,,,,,140.0,99.0,99.0*2B
$QZGSA,A,1,,,,,,,,,,,,,140.0,99.0,99.0*29
$IMGSA,A,1,,,,,,,,,,,,,140.0,99.0,99.0*26
$GPRMC,110037.68,V,,,,,,,090219,,,N*74
$GPGGA,110038.68,,,,,0,00,999.9,,M,,M,,*63
$GPGSV,3,1,10,05,,,51,04,,,50,08,,,49,07,,,50*7D
$GPGSV,3,2,10,13,,,51,09,,,49,21,,,49,15,,,50*74
$GPGSV,3,3,10,30,,,51,28,,,51*71
$GPGSA,A,1,,,,,,,,,,,,,140.0,99.0,99.0*35
$GNGSA,A,1,,,,,,,,,,,,,140.0,99.0,99.0*2B
$GNGSA,A,1,,,,,,,,,,,,,140.0,99.0,99.0*2B
$QZGSA,A,1,,,,,,,,,,,,,140.0,99.0,99.0*29
$IMGSA,A,1,,,,,,,,,,,,,140.0,99.0,99.0*26
$GPRMC,110038.68,V,,,,,,,090219,,,N*7B
$GPGGA,110039.68,,,,,0,00,999.9,,M,,M,,*62
$GPGSV,3,1,10,05,,,51,04,,,50,08,,,49,07,,,50*7D
$GPGSV,3,2,10,13,,,51,09,,,49,21,,,49,15,,,50*74
$GPGSV,3,3,10,30,,,51,28,,,51*71
$GPGSA,A,1,,,,,,,,,,,,,140.0,99.0,99.0*35
$GNGSA,A,1,,,,,,,,,,,,,140.0,99.0,99.0*2B
$GNGSA,A,1,,,,,,,,,,,,,140.0,99.0,99.0*2B
$QZGSA,A,1,,,,,,,,,,,,,140.0,99.0,99.0*29
$IMGSA,A,1,,,,,,,,,,,,,140.0,99.0,99.0*26
$GPRMC,110039.68,V,,,,,,,090219,,,N*7A
$GPGGA,110040.68,,,,,0,00,999.9,,M,,M,,*6C
$GPGSV,3,1,10,05,,,51,04,,,50,08,,,49,07,,,50*7D
$GPGSV,3,2,10,13,,,51,09,,,49,21,,,49,15,,,50*74
$GPGSV,3,3,10,30,,,51,28,,,51*71
$GPGSA,A,1,,,,,,,,,,,,,140.0,99.0,99.0*35
$GNGSA,A,1,,,,,,,,,,,,,140.0,99.0,99.0*2B
$GNGSA,A,1,,,,,,,,,,,,,140.0,99.0,99.0*2B
$QZGSA,A,1,,,,,,,,,,,,,140.0,99.0,99.0*29
$IMGSA,A,1,,,,,,,,,,,,,140.0,99.0,99.0*26
$GPRMC,110040.68,V,,,,,,,090219,,,N*74
$GPGGA,110041.68,,,,,0,00,999.9,,M,,M,,*6D
$GPGSV,3,1,10,05,,,51,04,,,50,08,,,49,07,,,50*7D
$GPGSV,3,2,10,13,,,51,09,,,49,21,,,49,15,,,50*74
$GPGSV,3,3,10,30,,,51,28,,,51*71
$GPGSA,A,1,,,,,,,,,,,,,140.0,99.0,99.0*35
$GNGSA,A,1,,,,,,,,,,,,,140.0,99.0,99.0*2B
$GNGSA,A,1,,,,,,,,,,,,,140.0,99.0,99.0*2B
$QZGSA,A,1,,,,,,,,,,,,,140.0,99.0,99.0*29
$IMGSA,A,1,,,,,,,,,,,,,140.0,99.0,99.0*26
$GPRMC,110041.68,V,,,,,,,090219,,,N*75
$GPGGA,110042.68,,,,,0,00,999.9,,M,,M,,*6E
$GPGSV,3,1,10,05,,,51,04,,,50,08,,,49,07,,,50*7D
$GPGSV,3,2,10,13,,,51,09,,,49,21,,,49,15,,,50*74
$GPGSV,3,3,10,30,,,51,28,,,51*71
$GPGSA,A,1,,,,,,,,,,,,,140.0,99.0,99.0*35
$GNGSA,A,1,,,,,,,,,,,,,140.0,99.0,99.0*2B
$GNGSA,A,1,,,,,,,,,,,,,140.0,99.0,99.0*2B
$QZGSA,A,1,,,,,,,,,,,,,140.0,99.0,99.0*29
$IMGSA,A,1,,,,,,,,,,,,,140.0,99.0,99.0*26
$GPRMC,110042.68,V,,,,,,,090219,,,N*76
$GPGGA,110043.68,,,,,0,00,999.9,,M,,M,,*6F
$GPGSV,3,1,10,05,,,51,04,,,50,08,,,50,07,,,50*75
$GPGSV,3,2,10,13,,,51,09,,,49,21,,,49,15,,,50*74
$GPGSV,3,3,10,30,,,51,28,,,51*71
$GPGSA,A,1,,,,,,,,,,,,,140.0,99.0,99.0*35
$GNGSA,A,1,,,,,,,,,,,,,140.0,99.0,99.0*2B
$GNGSA,A,1,,,,,,,,,,,,,140.0,99.0,99.0*2B
$QZGSA,A,1,,,,,,,,,,,,,140.0,99.0,99.0*29
$IMGSA,A,1,,,,,,,,,,,,,140.0,99.0,99.0*26
$GPRMC,110043.68,V,,,,,,,090219,,,N*77
$GPGGA,110044.68,,,,,0,00,999.9,,M,,M,,*68
$GPGSV,3,1,10,05,,,51,04,,,51,08,,,50,07,,,51*75
$GPGSV,3,2,10,13,,,51,09,,,49,21,,,49,15,,,50*74
$GPGSV,3,3,10,30,,,51,28,,,51*71
$GPGSA,A,1,,,,,,,,,,,,,140.0,99.0,99.0*35
$GNGSA,A,1,,,,,,,,,,,,,140.0,99.0,99.0*2B
$GNGSA,A,1,,,,,,,,,,,,,140.0,99.0,99.0*2B
$QZGSA,A,1,,,,,,,,,,,,,140.0,99.0,99.0*29
$IMGSA,A,1,,,,,,,,,,,,,140.0,99.0,99.0*26
$GPRMC,110044.68,V,,,,,,,090219,,,N*70
$GPGGA,110045.68,,,,,0,00,999.9,,M,,M,,*69
$GPGSV,3,1,10,05,,,51,04,,,50,08,,,50,07,,,50*75
$GPGSV,3,2,10,13,,,51,09,,,49,21,,,49,15,,,50*74
$GPGSV,3,3,10,30,,,51,28,,,51*71
$GPGSA,A,1,,,,,,,,,,,,,140.0,99.0,99.0*35
$GNGSA,A,1,,,,,,,,,,,,,140.0,99.0,99.0*2B
$GNGSA,A,1,,,,,,,,,,,,,140.0,99.0,99.0*2B
$QZGSA,A,1,,,,,,,,,,,,,140.0,99.0,99.0*29
$IMGSA,A,1,,,,,,,,,,,,,140.0,99.0,99.0*26
$GPRMC,110045.68,V,,,,,,,090219,,,N*71
$GPGGA,110046.68,,,,,0,00,999.9,,M,,M,,*6A
$GPGSV,3,1,10,05,,,51,04,,,50,08,,,49,07,,,50*7D
$GPGSV,3,2,10,13,,,51,09,,,49,21,,,49,15,,,50*74
$GPGSV,3,3,10,30,,,51,28,,,51*71
$GPGSA,A,1,,,,,,,,,,,,,140.0,99.0,99.0*35
$GNGSA,A,1,,,,,,,,,,,,,140.0,99.0,99.0*2B
$GNGSA,A,1,,,,,,,,,,,,,140.0,99.0,99.0*2B
$QZGSA,A,1,,,,,,,,,,,,,140.0,99.0,99.0*29
$IMGSA,A,1,,,,,,,,,,,,,140.0,99.0,99.0*26
$GPRMC,110046.68,V,,,,,,,090219,,,N*72
$GPGGA,110047.68,,,,,0,00,999.9,,M,,M,,*6B
$GPGSV,3,1,10,05,,,51,04,,,50,08,,,49,07,,,51*7C
$GPGSV,3,2,10,13,,,51,09,,,49,21,,,49,15,,,50*74
$GPGSV,3,3,10,30,,,51,28,,,51*71
$GPGSA,A,1,,,,,,,,,,,,,140.0,99.0,99.0*35
$GNGSA,A,1,,,,,,,,,,,,,140.0,99.0,99.0*2B
$GNGSA,A,1,,,,,,,,,,,,,140.0,99.0,99.0*2B
$QZGSA,A,1,,,,,,,,,,,,,140.0,99.0,99.0*29
$IMGSA,A,1,,,,,,,,,,,,,140.0,99.0,99.0*26
$GPRMC,110047.68,V,,,,,,,090219,,,N*73
$GPGGA,110048.67,4155.820647,N,01236.688615,E,1,04,0.8,0.0,M,45.0,M,,*64
$GPGSV,3,1,10,05,58,232,51,04,,,50,08,06,044,49,07,24,059,51*4E
$GPGSV,3,2,10,13,51,308,51,09,06,113,49,21,02,321,49,15,18,301,50*77
$GPGSV,3,3,10,30,57,050,51,28,57,127,51*70
$GPGSA,A,3,07,08,09,15,,,,,,,,,4.5,1.5,4.2*33
$GNGSA,A,3,07,08,09,15,,,,,,,,,4.5,1.5,4.2*2D
$GNGSA,A,3,,,,,,,,,,,,,4.5,1.5,4.2*2F
$QZGSA,A,3,,,,,,,,,,,,,4.5,1.5,4.2*2D
$IMGSA,A,3,,,,,,,,,,,,,4.5,1.5,4.2*22
$GPRMC,110048.67,A,4155.820647,N,01236.688615,E,000.1,,090219,,,A*77
$GPGGA,110049.67,4155.820411,N,01236.688580,E,1,05,1.2,0.0,M,45.0,M,,*61
$GPGSV,3,1,10,07,24,059,50,15,18,301,50,09,06,113,49,08,06,044,49*7A
$GPGSV,3,2,10,21,02,321,,05,58,232,51,30,57,050,51,28,57,127,51*7F
$GPGSV,3,3,10,13,51,308,51,04,,,50*40
$GLGSV,2,1,07,66,80,135,,76,64,026,,77,47,229,,67,42,325,*60
$GLGSV,2,2,07,75,19,038,,65,17,144,,84,03,008,*50
$GPGSA,A,3,07,08,09,15,,,,,,,,,4.5,1.5,4.2*33
$GNGSA,A,3,07,08,09,15,,,,,,,,,4.5,1.5,4.2*2D
$GNGSA,A,3,,,,,,,,,,,,,4.5,1.5,4.2*2F
$QZGSA,A,3,,,,,,,,,,,,,4.5,1.5,4.2*2D
$IMGSA,A,3,,,,,,,,,,,,,4.5,1.5,4.2*22
$GPRMC,110049.67,A,4155.820411,N,01236.688580,E,,,090219,,,A*57
$GPGGA,110050.67,4155.820411,N,01236.688580,E,1,05,1.2,0.0,M,45.0,M,,*69
$GPGSV,3,1,10,07,24,059,50,15,18,301,50,09,06,113,49,08,06,044,49*7A
$GPGSV,3,2,10,21,02,321,,05,58,232,51,30,57,050,51,28,57,127,51*7F
$GPGSV,3,3,10,13,51,308,51,04,,,50*40
$GLGSV,2,1,07,66,80,136,,76,64,026,,77,47,229,,67,42,325,*63
$GLGSV,2,2,07,75,19,038,,65,17,144,,84,03,008,*50
$GPGSA,A,3,07,08,09,15,,,,,,,,,4.5,1.5,4.2*33
$GNGSA,A,3,07,08,09,15,,,,,,,,,4.5,1.5,4.2*2D
$GNGSA,A,3,,,,,,,,,,,,,4.5,1.5,4.2*2F
$QZGSA,A,3,,,,,,,,,,,,,4.5,1.5,4.2*2D
$IMGSA,A,3,,,,,,,,,,,,,4.5,1.5,4.2*22
$GPRMC,110050.67,A,4155.820411,N,01236.688580,E,,,090219,,,A*5F
$GPGGA,110052.00,4155.820411,N,01236.688580,E,1,05,1.2,0.0,M,45.0,M,,*6A
$GPGSV,3,1,10,07,24,059,50,15,18,301,50,09,06,113,49,08,06,044,49*7A
$GPGSV,3,2,10,21,02,321,,05,58,232,51,30,57,050,51,28,57,127,51*7F
$GPGSV,3,3,10,13,51,308,51,04,,,50*40
$GLGSV,2,1,07,66,80,136,,76,64,026,,77,47,229,,67,42,325,*63
$GLGSV,2,2,07,75,19,038,,65,17,144,,84,03,008,*50
$GPGSA,A,3,07,08,09,15,,,,,,,,,4.5,1.5,4.2*33
$GNGSA,A,3,07,08,09,15,,,,,,,,,4.5,1.5,4.2*2D
$GNGSA,A,3,,,,,,,,,,,,,4.5,1.5,4.2*2F
$QZGSA,A,3,,,,,,,,,,,,,4.5,1.5,4.2*2D
$IMGSA,A,3,,,,,,,,,,,,,4.5,1.5,4.2*22
$GPRMC,110052.00,A,4155.820411,N,01236.688580,E,,,090219,,,A*5C
$GPGGA,110053.00,4155.815152,N,01236.684527,E,1,05,1.2,0.0,M,45.0,M,,*6E
$GPGSV,3,1,10,07,24,059,51,15,18,301,50,09,06,113,49,08,06,044,49*7B
$GPGSV,3,2,10,21,02,321,,05,58,232,51,30,57,050,51,28,57,127,51*7F
$GPGSV,3,3,10,13,51,308,51,04,,,50*40
$GLGSV,2,1,07,66,80,136,,76,64,026,,77,47,229,,67,42,325,*63
$GLGSV,2,2,07,75,19,038,,65,17,144,,84,03,008,*50
$GPGSA,A,3,07,08,09,15,,,,,,,,,4.5,1.5,4.2*33
$GNGSA,A,3,07,08,09,15,,,,,,,,,4.5,1.5,4.2*2D
$GNGSA,A,3,,,,,,,,,,,,,4.5,1.5,4.2*2F
$QZGSA,A,3,,,,,,,,,,,,,4.5,1.5,4.2*2D
$IMGSA,A,3,,,,,,,,,,,,,4.5,1.5,4.2*22
$GPRMC,110053.00,A,4155.815152,N,01236.684527,E,,,090219,,,A*58
$GPGGA,110054.00,4155.815152,N,01236.684527,E,1,05,1.2,0.0,M,45.0,M,,*69
$GPGSV,3,1,10,07,24,059,51,15,18,301,50,09,06,113,49,08,06,044,49*7B
$GPGSV,3,2,10,21,02,321,,05,58,232,51,30,57,050,51,28,57,127,51*7F
$GPGSV,3,3,10,13,51,308,51,04,,,50*40
$GLGSV,2,1,07,66,80,136,,76,64,026,,77,47,229,,67,42,325,*63
$GLGSV,2,2,07,75,19,038,,65,17,144,,84,03,008,*50
$GPGSA,A,3,07,08,09,15,,,,,,,,,4.5,1.5,4.2*33
$GNGSA,A,3,07,08,09,15,,,,,,,,,4.5,1.5,4.2*2D
$GNGSA,A,3,,,,,,,,,,,,,4.5,1.5,4.2*2F
$QZGSA,A,3,,,,,,,,,,,,,4.5,1.5,4.2*2D
$IMGSA,A,3,,,,,,,,,,,,,4.5,1.5,4.2*22
$GPRMC,110054.00,A,4155.815152,N,01236.684527,E,,,090219,,,A*5F
$GPGGA,110055.00,4155.815152,N,01236.684527,E,1,05,1.2,0.0,M,45.0,M,,*68
$GPGSV,3,1,10,07,24,059,51,15,18,301,50,09,06,113,49,08,06,044,49*7B
$GPGSV,3,2,10,21,02,321,,05,58,232,51,30,57,050,51,28,57,127,52*7C
$GPGSV,3,3,10,13,51,308,51,04,,,50*40
$GLGSV,2,1,07,66,80,136,,76,64,026,,77,47,229,,67,42,325,*63
$GLGSV,2,2,07,75,19,038,,65,17,144,,84,03,008,*50
$GPGSA,A,3,07,08,09,15,,,,,,,,,4.5,1.5,4.2*33
$GNGSA,A,3,07,08,09,15,,,,,,,,,4.5,1.5,4.2*2D
$GNGSA,A,3,,,,,,,,,,,,,4.5,1.5,4.2*2F
$QZGSA,A,3,,,,,,,,,,,,,4.5,1.5,4.2*2D
$IMGSA,A,3,,,,,,,,,,,,,4.5,1.5,4.2*22
$GPRMC,110055.00,A,4155.815152,N,01236.684527,E,,,090219,,,A*5E
$GPGGA,110056.00,4155.815152,N,01236.684527,E,1,05,1.2,0.0,M,45.0,M,,*6B
$GPGSV,3,1,10,07,24,059,51,15,18,301,50,09,06,113,49,08,06,044,50*73
$GPGSV,3,2,10,21,02,321,,05,58,232,51,30,57,050,51,28,57,127,52*7C
$GPGSV,3,3,10,13,51,308,51,04,,,50*40
$GLGSV,2,1,07,66,79,136,,76,64,026,,77,47,229,,67,42,325,*65
$GLGSV,2,2,07,75,19,038,,65,16,144,,84,03,008,*51
$GPGSA,A,3,07,08,09,15,,,,,,,,,4.5,1.5,4.2*33
$GNGSA,A,3,07,08,09,15,,,,,,,,,4.5,1.5,4.2*2D
$GNGSA,A,3,,,,,,,,,,,,,4.5,1.5,4.2*2F
$QZGSA,A,3,,,,,,,,,,,,,4.5,1.5,4.2*2D
$IMGSA,A,3,,,,,,,,,,,,,4.5,1.5,4.2*22
$GPRMC,110056.00,A,4155.815152,N,01236.684527,E,,,090219,,,A*5D
$GPGGA,110057.00,4155.815152,N,01236.684527,E,1,05,1.2,0.0,M,45.0,M,,*6A
$GPGSV,3,1,10,07,24,059,51,15,18,301,50,09,06,113,49,08,06,044,50*73
$GPGSV,3,2,10,21,02,321,,05,58,232,51,30,57,050,51,28,57,127,52*7C
$GPGSV,3,3,10,13,51,308,51,04,,,50*40
$GLGSV,2,1,07,66,79,136,,76,64,026,,77,47,229,,67,42,325,*65
$GLGSV,2,2,07,75,19,038,,65,16,144,,84,03,008,*51
$GPGSA,A,3,07,08,09,15,,,,,,,,,4.5,1.5,4.2*33
$GNGSA,A,3,07,08,09,15,,,,,,,,,4.5,1.5,4.2*2D
$GNGSA,A,3,,,,,,,,,,,,,4.5,1.5,4.2*2F
$QZGSA,A,3,,,,,,,,,,,,,4.5,1.5,4.2*2D
$IMGSA,A,3,,,,,,,,,,,,,4.5,1.5,4.2*22
$GPRMC,110057.00,A,4155.815152,N,01236.684527,E,,,090219,,,A*5C
$GPGGA,110058.00,4155.815152,N,01236.684527,E,1,05,1.2,0.0,M,45.0,M,,*65
$GPGSV,3,1,10,07,24,059,51,15,18,301,50,09,06,113,49,08,06,044,49*7B
$GPGSV,3,2,10,21,02,321,,05,58,232,51,30,57,050,51,28,57,127,52*7C
$GPGSV,3,3,10,13,51,308,51,04,,,50*40
$GLGSV,2,1,07,66,79,136,,76,64,026,,77,47,229,,67,42,325,*65
$GLGSV,2,2,07,75,19,038,,65,16,144,,84,03,008,*51
$GPGSA,A,3,07,08,09,15,,,,,,,,,4.5,1.5,4.2*33
$GNGSA,A,3,07,08,09,15,,,,,,,,,4.5,1.5,4.2*2D
$GNGSA,A,3,,,,,,,,,,,,,4.5,1.5,4.2*2F
$QZGSA,A,3,,,,,,,,,,,,,4.5,1.5,4.2*2D
$IMGSA,A,3,,,,,,,,,,,,,4.5,1.5,4.2*22
$GPRMC,110058.00,A,4155.815152,N,01236.684527,E,,,090219,,,A*53
$GPGGA,110059.00,4155.809606,N,01236.687232,E,1,05,1.2,0.0,M,45.0,M,,*6F
$GPGSV,3,1,10,07,24,059,51,15,18,301,51,09,06,113,49,08,06,044,49*7A
$GPGSV,3,2,10,21,02,321,,05,58,232,51,30,57,050,52,28,57,126,52*7E
$GPGSV,3,3,10,13,51,308,52,04,,,50*43
$GLGSV,2,1,07,66,79,136,,76,64,026,,77,47,229,,67,42,325,*65
$GLGSV,2,2,07,75,19,038,,65,16,144,,84,03,008,*51
$GPGSA,A,3,07,08,09,15,,,,,,,,,4.5,1.5,4.2*33
$GNGSA,A,3,07,08,09,15,,,,,,,,,4.5,1.5,4.2*2D
$GNGSA,A,3,,,,,,,,,,,,,4.5,1.5,4.2*2F
$QZGSA,A,3,,,,,,,,,,,,,4.5,1.5,4.2*2D
$IMGSA,A,3,,,,,,,,,,,,,4.5,1.5,4.2*22
$GPRMC,110059.00,A,4155.809606,N,01236.687232,E,,,090219,,,A*59
$GPGGA,110100.00,4155.809606,N,01236.687232,E,1,05,1.2,0.0,M,45.0,M,,*62
$GPGSV,3,1,10,07,24,059,51,15,18,301,51,09,06,113,49,08,06,044,49*7A
$GPGSV,3,2,10,21,02,321,,05,58,232,51,30,57,050,52,28,57,126,51*7D
$GPGSV,3,3,10,13,51,308,52,04,,,51*42
$GLGSV,2,1,07,66,79,136,,76,64,026,,77,47,229,,67,42,325,*65
$GLGSV,2,2,07,75,19,038,,65,16,144,,84,03,008,*51
$GPGSA,A,3,07,08,09,15,,,,,,,,,4.5,1.5,4.2*33
$GNGSA,A,3,07,08,09,15,,,,,,,,,4.5,1.5,4.2*2D
$GNGSA,A,3,,,,,,,,,,,,,4.5,1.5,4.2*2F
$QZGSA,A,3,,,,,,,,,,,,,4.5,1.5,4.2*2D
$IMGSA,A,3,,,,,,,,,,,,,4.5,1.5,4.2*22
$GPRMC,110100.00,A,4155.809606,N,01236.687232,E,,,090219,,,A*54
$GPGGA,110101.00,4155.809606,N,01236.687232,E,1,05,1.2,0.0,M,45.0,M,,*63
$GPGSV,3,1,10,07,24,059,51,15,18,301,51,09,06,113,50,08,06,044,49*72
$GPGSV,3,2,10,21,02,321,,05,58,232,51,30,57,050,52,28,57,126,51*7D
$GPGSV,3,3,10,13,51,308,51,04,,,51*41
$GLGSV,2,1,07,66,79,136,,76,64,026,,77,47,229,,67,42,325,*65
$GLGSV,2,2,07,75,19,038,,65,16,144,,84,03,008,*51
$GPGSA,A,3,07,08,09,15,,,,,,,,,4.5,1.5,4.2*33
$GNGSA,A,3,07,08,09,15,,,,,,,,,4.5,1.5,4.2*2D
$GNGSA,A,3,,,,,,,,,,,,,4.5,1.5,4.2*2F
$QZGSA,A,3,,,,,,,,,,,,,4.5,1.5,4.2*2D
$IMGSA,A,3,,,,,,,,,,,,,4.5,1.5,4.2*22
$GPRMC,110101.00,A,4155.809606,N,01236.687232,E,,,090219,,,A*55
$GPGGA,110102.00,4155.809606,N,01236.687232,E,1,05,1.6,0.0,M,45.0,M,,*64
$GPGSV,3,1,10,07,24,059,51,15,18,301,51,09,06,113,50,08,06,044,49*72
$GPGSV,3,2,10,21,02,321,,05,58,232,51,30,57,050,51,28,57,126,51*7E
$GPGSV,3,3,10,13,51,308,51,04,,,51*41
$GLGSV,2,1,07,66,79,136,,76,64,026,,77,47,229,,67,42,325,*65
$GLGSV,2,2,07,75,19,038,,65,16,144,,84,03,008,*51
$GPGSA,A,3,07,08,09,15,,,,,,,,,4.5,1.5,4.2*33
$GNGSA,A,3,07,08,09,15,,,,,,,,,4.5,1.5,4.2*2D
$GNGSA,A,3,,,,,,,,,,,,,4.5,1.5,4.2*2F
$QZGSA,A,3,,,,,,,,,,,,,4.5,1.5,4.2*2D
$IMGSA,A,3,,,,,,,,,,,,,4.5,1.5,4.2*22
$GPRMC,110102.00,A,4155.809606,N,01236.687232,E,,,090219,,,A*56
$GPGGA,110103.00,4155.809606,N,01236.687232,E,1,05,1.6,0.0,M,45.0,M,,*65
$GPGSV,3,1,10,07,24,059,51,15,18,301,51,09,06,113,49,08,06,044,49*7A
$GPGSV,3,2,10,21,02,321,,05,58,232,51,30,57,050,51,28,57,126,51*7E
$GPGSV,3,3,10,13,51,309,51,04,,,51*40
$GLGSV,2,1,07,66,79,136,,76,64,026,,77,47,229,,67,42,325,*65
$GLGSV,2,2,07,75,19,038,,65,16,144,,84,03,008,*51
$GPGSA,A,3,07,08,09,15,,,,,,,,,4.5,1.5,4.2*33
$GNGSA,A,3,07,08,09,15,,,,,,,,,4.5,1.5,4.2*2D
$GNGSA,A,3,,,,,,,,,,,,,4.5,1.5,4.2*2F
$QZGSA,A,3,,,,,,,,,,,,,4.5,1.5,4.2*2D
$IMGSA,A,3,,,,,,,,,,,,,4.5,1.5,4.2*22
$GPRMC,110103.00,A,4155.809606,N,01236.687232,E,,,090219,,,A*57
$GPGGA,110104.00,4155.809606,N,01236.687232,E,1,05,1.6,0.0,M,45.0,M,,*62
$GPGSV,3,1,10,07,24,059,51,15,18,301,51,08,06,044,49,09,05,113,49*79
$GPGSV,3,2,10,21,02,321,,05,58,232,51,30,57,050,51,28,57,126,51*7E
$GPGSV,3,3,10,13,51,309,51,04,,,51*40
$GLGSV,2,1,07,66,79,136,,76,64,026,,77,47,229,,67,42,325,*65
$GLGSV,2,2,07,75,19,038,,65,16,144,,84,03,008,*51
$GPGSA,A,3,07,08,09,15,,,,,,,,,4.5,1.5,4.2*33
$GNGSA,A,3,07,08,09,15,,,,,,,,,4.5,1.5,4.2*2D
$GNGSA,A,3,,,,,,,,,,,,,4.5,1.5,4.2*2F
$QZGSA,A,3,,,,,,,,,,,,,4.5,1.5,4.2*2D
$IMGSA,A,3,,,,,,,,,,,,,4.5,1.5,4.2*22
$GPRMC,110104.00,A,4155.809606,N,01236.687232,E,,,090219,,,A*50
$GPGGA,110105.00,4155.799458,N,01236.689071,E,1,05,3.2,0.0,M,45.0,M,,*61
$GPGSV,3,1,10,07,24,059,51,15,18,301,51,08,06,043,49,09,05,113,49*7E
$GPGSV,3,2,10,21,02,321,,05,58,232,51,30,57,050,51,28,57,126,51*7E
$GPGSV,3,3,10,13,51,309,51,04,,,51*40
$GLGSV,2,1,07,66,79,136,,76,64,026,,77,47,229,,67,42,325,*65
$GLGSV,2,2,07,75,19,038,,65,16,144,,84,03,008,*51
$GPGSA,A,3,07,08,09,15,,,,,,,,,4.5,1.5,4.2*33
$GNGSA,A,3,07,08,09,15,,,,,,,,,4.5,1.5,4.2*2D
$GNGSA,A,3,,,,,,,,,,,,,4.5,1.5,4.2*2F
$QZGSA,A,3,,,,,,,,,,,,,4.5,1.5,4.2*2D
$IMGSA,A,3,,,,,,,,,,,,,4.5,1.5,4.2*22
$GPRMC,110105.00,A,4155.799458,N,01236.689071,E,002.1,,090219,,,A*78
$GPGGA,110106.00,4155.799458,N,01236.689071,E,1,05,3.2,0.0,M,45.0,M,,*62
$GPGSV,3,1,10,07,24,059,51,15,18,301,50,08,06,043,49,09,05,113,49*7F
$GPGSV,3,2,10,21,02,321,,05,58,232,51,30,57,050,51,28,57,126,51*7E
$GPGSV,3,3,10,13,51,309,51,04,,,51*40
$GLGSV,2,1,07,66,79,136,,76,64,026,,77,47,229,,67,43,325,*64
$GLGSV,2,2,07,75,19,038,,65,16,144,,84,03,008,*51
$GPGSA,A,3,07,08,09,15,,,,,,,,,4.5,1.5,4.2*33
$GNGSA,A,3,07,08,09,15,,,,,,,,,4.5,1.5,4.2*2D
$GNGSA,A,3,,,,,,,,,,,,,4.5,1.5,4.2*2F
$QZGSA,A,3,,,,,,,,,,,,,4.5,1.5,4.2*2D
$IMGSA,A,3,,,,,,,,,,,,,4.5,1.5,4.2*22
$GPRMC,110106.00,A,4155.799458,N,01236.689071,E,,,090219,,,A*56
$GPGGA,110107.00,4155.791274,N,01236.688479,E,1,05,3.2,0.0,M,45.0,M,,*6E
$GPGSV,3,1,10,07,24,059,51,15,18,301,50,08,06,043,49,09,05,113,49*7F
$GPGSV,3,2,10,21,02,321,,05,58,232,51,30,57,050,51,28,57,126,51*7E
$GPGSV,3,3,10,13,51,309,51,04,,,51*40
$GLGSV,2,1,07,66,79,136,,76,64,026,,77,47,229,,67,43,325,*64
$GLGSV,2,2,07,75,19,038,,65,16,144,,84,03,008,*51
$GPGSA,A,3,07,08,09,15,,,,,,,,,4.5,1.5,4.2*33
$GNGSA,A,3,07,08,09,15,,,,,,,,,4.5,1.5,4.2*2D
$GNGSA,A,3,,,,,,,,,,,,,4.5,1.5,4.2*2F
$QZGSA,A,3,,,,,,,,,,,,,4.5,1.5,4.2*2D
$IMGSA,A,3,,,,,,,,,,,,,4.5,1.5,4.2*22
$GPRMC,110107.00,A,4155.791274,N,01236.688479,E,,,090219,,,A*5A
$GPGGA,110108.00,4155.791274,N,01236.688479,E,1,05,3.2,0.0,M,45.0,M,,*61
$GPGSV,3,1,10,07,24,059,51,15,18,301,50,08,06,043,49,09,05,113,49*7F
$GPGSV,3,2,10,21,02,321,,05,58,232,51,30,57,050,51,28,57,126,51*7E
$GPGSV,3,3,10,13,51,309,51,04,,,51*40
$GLGSV,2,1,07,66,79,136,,76,64,026,,77,47,229,,67,43,325,*64
$GLGSV,2,2,07,75,19,038,,65,16,144,,84,03,008,*51
$GPGSA,A,3,07,08,09,15,,,,,,,,,4.5,1.5,4.2*33
$GNGSA,A,3,07,08,09,15,,,,,,,,,4.5,1.5,4.2*2D
$GNGSA,A,3,,,,,,,,,,,,,4.5,1.5,4.2*2F
$QZGSA,A,3,,,,,,,,,,,,,4.5,1.5,4.2*2D
$IMGSA,A,3,,,,,,,,,,,,,4.5,1.5,4.2*22
$GPRMC,110108.00,A,4155.791274,N,01236.688479,E,000.0,,090219,,,A*7B
$GPGGA,110109.00,4155.791274,N,01236.688479,E,1,05,3.2,0.0,M,45.0,M,,*60
$GPGSV,3,1,10,07,24,059,51,15,18,301,50,08,06,043,49,09,05,113,49*7F
$GPGSV,3,2,10,21,02,321,,05,58,232,51,30,57,050,51,28,57,126,51*7E
$GPGSV,3,3,10,13,51,309,51,04,,,51*40
$GLGSV,2,1,07,66,79,136,,76,64,026,,77,47,229,,67,43,325,*64
$GLGSV,2,2,07,75,19,038,,65,16,144,,84,03,008,*51
$GPGSA,A,3,07,08,09,15,,,,,,,,,4.5,1.5,4.2*33
$GNGSA,A,3,07,08,09,15,,,,,,,,,4.5,1.5,4.2*2D
$GNGSA,A,3,,,,,,,,,,,,,4.5,1.5,4.2*2F
$QZGSA,A,3,,,,,,,,,,,,,4.5,1.5,4.2*2D
$IMGSA,A,3,,,,,,,,,,,,,4.5,1.5,4.2*22
$GPRMC,110109.00,A,4155.791274,N,01236.688479,E,,,090219,,,A*54
$GPGGA,110110.00,4155.783871,N,01236.689124,E,1,05,3.2,0.0,M,45.0,M,,*68
$GPGSV,3,1,10,07,24,059,51,15,18,301,50,08,06,043,49,09,05,113,49*7F
$GPGSV,3,2,10,21,02,321,,05,58,232,51,30,57,050,51,28,57,126,51*7E
$GPGSV,3,3,10,13,51,309,51,04,,,50*41
$GLGSV,2,1,07,66,79,136,,76,64,026,,77,47,229,,67,43,325,*64
$GLGSV,2,2,07,75,19,038,,65,16,144,,84,03,008,*51
$GPGSA,A,3,07,08,09,15,,,,,,,,,4.5,1.5,4.2*33
$GNGSA,A,3,07,08,09,15,,,,,,,,,4.5,1.5,4.2*2D
$GNGSA,A,3,,,,,,,,,,,,,4.5,1.5,4.2*2F
$QZGSA,A,3,,,,,,,,,,,,,4.5,1.5,4.2*2D
$IMGSA,A,3,,,,,,,,,,,,,4.5,1.5,4.2*22
$GPRMC,110110.00,A,4155.783871,N,01236.689124,E,,,090219,,,A*5C
$GPGGA,110111.00,4155.783871,N,01236.689124,E,1,05,3.2,0.0,M,45.0,M,,*69
$GPGSV,3,1,10,07,24,059,51,15,18,301,50,08,06,043,49,09,05,113,49*7F
$GPGSV,3,2,10,21,02,321,,05,58,232,51,30,57,050,51,28,57,126,51*7E
$GPGSV,3,3,10,13,51,309,51,04,,,51*40
$GLGSV,2,1,07,66,79,136,,76,64,026,,77,47,229,,67,43,325,*64
$GLGSV,2,2,07,75,19,038,,65,16,144,,84,03,008,*51
$GPGSA,A,3,07,08,09,15,,,,,,,,,4.5,1.5,4.2*33
$GNGSA,A,3,07,08,09,15,,,,,,,,,4.5,1.5,4.2*2D
$GNGSA,A,3,,,,,,,,,,,,,4.5,1.5,4.2*2F
$QZGSA,A,3,,,,,,,,,,,,,4.5,1.5,4.2*2D
$IMGSA,A,3,,,,,,,,,,,,,4.5,1.5,4.2*22
$GPRMC,110111.00,A,4155.783871,N,01236.689124,E,,,090219,,,A*5D
$GPGGA,110112.00,4155.783871,N,01236.689124,E,1,05,3.2,0.0,M,45.0,M,,*6A
$GPGSV,3,1,10,07,24,059,51,15,18,301,50,08,06,043,49,09,05,113,49*7F
$GPGSV,3,2,10,21,02,321,,05,58,232,51,30,57,050,51,28,57,126,51*7E
$GPGSV,3,3,10,13,51,309,51,04,,,51*40
$GLGSV,2,1,07,66,79,136,,76,64,026,,77,47,229,,67,43,325,*64
$GLGSV,2,2,07,75,19,038,,65,16,144,,84,03,008,*51
$GPGSA,A,3,07,08,09,15,,,,,,,,,4.5,1.5,4.2*33
$GNGSA,A,3,07,08,09,15,,,,,,,,,4.5,1.5,4.2*2D
$GNGSA,A,3,,,,,,,,,,,,,4.5,1.5,4.2*2F
$QZGSA,A,3,,,,,,,,,,,,,4.5,1.5,4.2*2D
$IMGSA,A,3,,,,,,,,,,,,,4.5,1.5,4.2*22
$GPRMC,110112.00,A,4155.783871,N,01236.689124,E,000.0,,090219,,,A*70
$GPGGA,110113.00,4155.779126,N,01236.689125,E,1,05,3.2,0.0,M,45.0,M,,*64
$GPGSV,3,1,10,07,24,059,50,15,18,301,50,08,06,043,49,09,05,113,49*7E
$GPGSV,3,2,10,21,02,321,,05,58,232,51,30,57,050,51,28,57,126,51*7E
$GPGSV,3,3,10,13,51,309,51,04,,,51*40
$GLGSV,2,1,07,66,79,136,,76,64,026,,77,47,229,,67,43,325,*64
$GLGSV,2,2,07,75,19,038,,65,16,144,,84,03,008,*51
$GPGSA,A,3,07,08,09,15,,,,,,,,,4.5,1.5,4.2*33
$GNGSA,A,3,07,08,09,15,,,,,,,,,4.5,1.5,4.2*2D
$GNGSA,A,3,,,,,,,,,,,,,4.5,1.5,4.2*2F
$QZGSA,A,3,,,,,,,,,,,,,4.5,1.5,4.2*2D
$IMGSA,A,3,,,,,,,,,,,,,4.5,1.5,4.2*22
$GPRMC,110113.00,A,4155.779126,N,01236.689125,E,005.2,,090219,,,A*79
$GPGGA,110114.00,4155.779421,N,01236.689858,E,1,05,3.2,0.0,M,45.0,M,,*62
$GPGSV,3,1,10,07,24,059,50,15,18,301,50,08,06,043,49,09,05,113,49*7E
$GPGSV,3,2,10,21,02,321,,05,58,232,51,30,57,050,51,28,57,126,51*7E
$GPGSV,3,3,10,13,51,309,51,04,,,50*41
$GLGSV,2,1,07,66,79,136,,76,64,026,,77,47,229,,67,43,325,*64
$GLGSV,2,2,07,75,19,038,,65,16,144,,84,03,008,*51
$GPGSA,A,3,07,08,09,15,,,,,,,,,4.5,1.5,4.2*33
$GNGSA,A,3,07,08,09,15,,,,,,,,,4.5,1.5,4.2*2D
$GNGSA,A,3,,,,,,,,,,,,,4.5,1.5,4.2*2F
$QZGSA,A,3,,,,,,,,,,,,,4.5,1.5,4.2*2D
$IMGSA,A,3,,,,,,,,,,,,,4.5,1.5,4.2*22
$GPRMC,110114.00,A,4155.779421,N,01236.689858,E,004.9,,090219,,,A*75
$GPGGA,110115.00,4155.779421,N,01236.689858,E,1,05,3.2,0.0,M,45.0,M,,*63
$GPGSV,3,1,10,07,24,059,50,15,18,301,50,08,06,043,49,09,05,113,49*7E
$GPGSV,3,2,10,21,02,321,,05,58,232,51,30,57,050,51,28,57,126,51*7E
$GPGSV,3,3,10,13,51,309,51,04,,,50*41
$GLGSV,2,1,07,66,79,136,,76,64,026,,77,47,229,,67,43,325,*64
$GLGSV,2,2,07,75,19,038,,65,16,144,,84,03,008,*51
$GPGSA,A,3,07,08,09,15,,,,,,,,,4.5,1.5,4.2*33
$GNGSA,A,3,07,08,09,15,,,,,,,,,4.5,1.5,4.2*2D
$GNGSA,A,3,,,,,,,,,,,,,4.5,1.5,4.2*2F
$QZGSA,A,3,,,,,,,,,,,,,4.5,1.5,4.2*2D
$IMGSA,A,3,,,,,,,,,,,,,4.5,1.5,4.2*22
$GPRMC,110115.00,A,4155.779421,N,01236.689858,E,,,090219,,,A*57
$GPGGA,110116.00,4155.775928,N,01236.689888,E,1,05,3.2,0.0,M,45.0,M,,*65
$GPGSV,3,1,10,07,24,059,50,15,18,301,50,08,06,043,49,09,05,113,49*7E
$GPGSV,3,2,10,21,02,321,,05,58,232,51,30,57,050,51,28,57,126,51*7E
$GPGSV,3,3,10,13,51,309,51,04,,,50*41
$GLGSV,2,1,07,66,79,136,,76,64,026,,77,47,229,,67,43,325,*64
$GLGSV,2,2,07,75,19,038,,65,16,144,,84,03,008,*51
$GPGSA,A,3,07,08,09,15,,,,,,,,,4.5,1.5,4.2*33
$GNGSA,A,3,07,08,09,15,,,,,,,,,4.5,1.5,4.2*2D
$GNGSA,A,3,,,,,,,,,,,,,4.5,1.5,4.2*2F
$QZGSA,A,3,,,,,,,,,,,,,4.5,1.5,4.2*2D
$IMGSA,A,3,,,,,,,,,,,,,4.5,1.5,4.2*22
$GPRMC,110116.00,A,4155.775928,N,01236.689888,E,002.0,,090219,,,A*7D
$GPGGA,110117.00,4155.775928,N,01236.689888,E,1,05,3.2,0.0,M,45.0,M,,*64
$GPGSV,3,1,10,07,24,059,50,15,18,301,50,08,06,043,49,09,05,113,49*7E
$GPGSV,3,2,10,21,02,321,,05,58,232,51,30,57,050,51,28,57,126,51*7E
$GPGSV,3,3,10,13,51,309,51,04,,,50*41
$GLGSV,2,1,07,66,79,136,,76,64,026,,77,47,229,,67,43,325,*64
$GLGSV,2,2,07,75,19,038,,65,16,144,,84,03,008,*51
$GPGSA,A,3,07,08,09,15,,,,,,,,,4.5,1.5,4.2*33
$GNGSA,A,3,07,08,09,15,,,,,,,,,4.5,1.5,4.2*2D
$GNGSA,A,3,,,,,,,,,,,,,4.5,1.5,4.2*2F
$QZGSA,A,3,,,,,,,,,,,,,4.5,1.5,4.2*2D
$IMGSA,A,3,,,,,,,,,,,,,4.5,1.5,4.2*22
$GPRMC,110117.00,A,4155.775928,N,01236.689888,E,,,090219,,,A*50
$GPGGA,110118.00,4155.775928,N,01236.689888,E,1,05,3.2,0.0,M,45.0,M,,*6B
$GPGSV,3,1,10,07,24,059,50,15,18,301,50,08,06,043,49,09,05,113,49*7E
$GPGSV,3,2,10,21,02,321,,05,58,232,51,30,57,050,51,28,57,126,51*7E
$GPGSV,3,3,10,13,51,309,51,04,,,50*41
$GLGSV,2,1,07,66,79,136,,76,64,026,,77,47,229,,67,43,325,*64
$GLGSV,2,2,07,75,19,038,,65,16,144,,84,03,008,*51
$GPGSA,A,3,07,08,09,15,,,,,,,,,4.5,1.5,4.2*33
$GNGSA,A,3,07,08,09,15,,,,,,,,,4.5,1.5,4.2*2D
$GNGSA,A,3,,,,,,,,,,,,,4.5,1.5,4.2*2F
$QZGSA,A,3,,,,,,,,,,,,,4.5,1.5,4.2*2D
$IMGSA,A,3,,,,,,,,,,,,,4.5,1.5,4.2*22
$GPRMC,110118.00,A,4155.775928,N,01236.689888,E,,,090219,,,A*5F
$GPGGA,110119.00,4155.773280,N,01236.690280,E,1,05,3.2,0.0,M,45.0,M,,*6F
$GPGSV,3,1,10,07,24,059,50,15,18,301,50,08,06,043,49,09,05,113,49*7E
$GPGSV,3,2,10,21,02,321,,05,58,232,51,30,57,050,51,28,57,126,51*7E
$GPGSV,3,3,10,13,51,309,51,04,,,50*41
$GLGSV,2,1,07,66,79,136,,76,64,026,,77,47,229,,67,43,325,*64
$GLGSV,2,2,07,75,19,038,,65,16,144,,84,03,008,*51
$GPGSA,A,3,07,08,09,15,,,,,,,,,4.5,1.5,4.2*33
$GNGSA,A,3,07,08,09,15,,,,,,,,,4.5,1.5,4.2*2D
$GNGSA,A,3,,,,,,,,,,,,,4.5,1.5,4.2*2F
$QZGSA,A,3,,,,,,,,,,,,,4.5,1.5,4.2*2D
$IMGSA,A,3,,,,,,,,,,,,,4.5,1.5,4.2*22
$GPRMC,110119.00,A,4155.773280,N,01236.690280,E,001.6,,090219,,,A*72
$GPGGA,110120.00,4155.771451,N,01236.689797,E,1,05,1.2,0.0,M,45.0,M,,*64
$GPGSV,3,1,10,07,24,059,50,15,18,301,50,08,06,043,49,09,05,113,49*7E
$GPGSV,3,2,10,21,02,321,,05,58,232,51,30,57,050,51,28,57,126,51*7E
$GPGSV,3,3,10,13,51,309,51,04,,,50*41
$GLGSV,2,1,07,66,79,136,,76,64,026,,77,47,229,,67,43,325,*64
$GLGSV,2,2,07,75,19,038,,65,16,144,,84,03,008,*51
$GPGSA,A,3,07,08,09,15,,,,,,,,,4.5,1.5,4.2*33
$GNGSA,A,3,07,08,09,15,,,,,,,,,4.5,1.5,4.2*2D
$GNGSA,A,3,,,,,,,,,,,,,4.5,1.5,4.2*2F
$QZGSA,A,3,,,,,,,,,,,,,4.5,1.5,4.2*2D
$IMGSA,A,3,,,,,,,,,,,,,4.5,1.5,4.2*22
$GPRMC,110120.00,A,4155.771451,N,01236.689797,E,002.5,,090219,,,A*7B
$GPGGA,110121.00,4155.769576,N,01236.690084,E,1,05,1.2,0.0,M,45.0,M,,*65
$GPGSV,3,1,10,07,24,059,50,15,18,301,50,08,06,043,49,09,05,113,49*7E
$GPGSV,3,2,10,21,02,321,,05,58,232,51,30,57,050,51,28,57,126,51*7E
$GPGSV,3,3,10,13,51,309,51,04,,,50*41
$GLGSV,2,1,07,66,79,136,,76,64,026,,77,47,229,,67,43,325,*64
$GLGSV,2,2,07,75,19,038,,65,16,144,,84,03,008,*51
$GPGSA,A,3,07,08,09,15,,,,,,,,,4.5,1.5,4.2*33
$GNGSA,A,3,07,08,09,15,,,,,,,,,4.5,1.5,4.2*2D
$GNGSA,A,3,,,,,,,,,,,,,4.5,1.5,4.2*2F
$QZGSA,A,3,,,,,,,,,,,,,4.5,1.5,4.2*2D
$IMGSA,A,3,,,,,,,,,,,,,4.5,1.5,4.2*22
$GPRMC,110121.00,A,4155.769576,N,01236.690084,E,003.0,179.1,090219,,,A*5E
$GPGGA,110122.00,4155.768090,N,01236.690178,E,1,05,1.2,0.0,M,45.0,M,,*68
$GPGSV,3,1,10,07,24,059,50,15,18,301,50,08,06,043,49,09,05,113,49*7E
$GPGSV,3,2,10,21,02,321,,05,58,231,51,30,57,050,51,28,57,126,51*7D
$GPGSV,3,3,10,13,51,309,51,04,,,50*41
$GLGSV,2,1,07,66,79,136,,76,64,026,,77,47,229,,67,43,325,*64
$GLGSV,2,2,07,75,19,038,,65,16,144,,84,03,008,*51
$GPGSA,A,3,07,08,09,15,,,,,,,,,4.5,1.5,4.2*33
$GNGSA,A,3,07,08,09,15,,,,,,,,,4.5,1.5,4.2*2D
$GNGSA,A,3,,,,,,,,,,,,,4.5,1.5,4.2*2F
$QZGSA,A,3,,,,,,,,,,,,,4.5,1.5,4.2*2D
$IMGSA,A,3,,,,,,,,,,,,,4.5,1.5,4.2*22
$GPRMC,110122.00,A,4155.768090,N,01236.690178,E,,,090219,,,A*5E
$GPGGA,110123.00,4155.767250,N,01236.690179,E,1,05,1.2,0.0,M,45.0,M,,*69
$GPGSV,3,1,10,07,24,059,50,15,18,301,50,08,06,043,49,09,05,113,49*7E
$GPGSV,3,2,10,21,02,321,,05,58,231,51,30,57,050,51,28,57,126,51*7D
$GPGSV,3,3,10,13,52,309,51,04,,,50*42
$GLGSV,2,1,07,66,79,136,,76,64,026,,77,47,229,,67,43,325,*64
$GLGSV,2,2,07,75,19,038,,65,16,144,,84,03,008,*51
$GPGSA,A,3,07,08,09,15,,,,,,,,,4.5,1.5,4.2*33
$GNGSA,A,3,07,08,09,15,,,,,,,,,4.5,1.5,4.2*2D
$GNGSA,A,3,,,,,,,,,,,,,4.5,1.5,4.2*2F
$QZGSA,A,3,,,,,,,,,,,,,4.5,1.5,4.2*2D
$IMGSA,A,3,,,,,,,,,,,,,4.5,1.5,4.2*22
$GPRMC,110123.00,A,4155.767250,N,01236.690179,E,,,090219,,,A*5F
$GPGGA,110124.00,4155.769068,N,01236.690176,E,1,05,1.2,0.0,M,45.0,M,,*66
$GPGSV,3,1,10,07,24,059,50,15,18,301,50,08,06,043,49,09,05,113,49*7E
$GPGSV,3,2,10,21,02,321,,05,58,231,51,30,57,050,51,28,57,126,51*7D
$GPGSV,3,3,10,13,52,309,51,04,,,50*42
$GLGSV,2,1,07,66,79,136,,76,64,026,,77,47,229,,67,43,325,*64
$GLGSV,2,2,07,75,19,038,,65,16,144,,84,03,008,*51
$GPGSA,A,3,07,08,09,15,,,,,,,,,4.5,1.5,4.2*33
$GNGSA,A,3,07,08,09,15,,,,,,,,,4.5,1.5,4.2*2D
$GNGSA,A,3,,,,,,,,,,,,,4.5,1.5,4.2*2F
$QZGSA,A,3,,,,,,,,,,,,,4.5,1.5,4.2*2D
$IMGSA,A,3,,,,,,,,,,,,,4.5,1.5,4.2*22
$GPRMC,110124.00,A,4155.769068,N,01236.690176,E,,,090219,,,A*50
$GPGGA,110125.00,4155.769685,N,01236.689939,E,1,05,3.2,0.0,M,45.0,M,,*6B
$GPGSV,3,1,10,07,24,059,50,15,18,301,50,08,06,043,49,09,05,113,49*7E
$GPGSV,3,2,10,21,02,321,,05,58,231,51,30,57,050,51,28,57,126,51*7D
$GPGSV,3,3,10,13,52,309,51,04,,,50*42
$GLGSV,2,1,07,66,79,136,,76,64,026,,77,47,229,,67,43,325,*64
$GLGSV,2,2,07,75,19,038,,65,16,144,,84,03,008,*51
$GPGSA,A,3,07,08,09,15,,,,,,,,,4.5,1.5,4.2*33
$GNGSA,A,3,07,08,09,15,,,,,,,,,4.5,1.5,4.2*2D
$GNGSA,A,3,,,,,,,,,,,,,4.5,1.5,4.2*2F
$QZGSA,A,3,,,,,,,,,,,,,4.5,1.5,4.2*2D
$IMGSA,A,3,,,,,,,,,,,,,4.5,1.5,4.2*22
$GPRMC,110125.00,A,4155.769685,N,01236.689939,E,,,090219,,,A*5F
$GPGGA,110126.00,4155.771504,N,01236.689266,E,1,05,3.2,0.0,M,45.0,M,,*6A
$GPGSV,3,1,10,07,24,059,50,15,18,301,50,08,06,043,49,09,05,113,49*7E
$GPGSV,3,2,10,21,02,321,,05,58,231,51,30,57,050,51,28,57,126,51*7D
$GPGSV,3,3,10,13,52,309,51,04,,,50*42
$GLGSV,2,1,07,66,79,136,,76,64,026,,77,47,229,,67,43,325,*64
$GLGSV,2,2,07,75,19,038,,65,16,144,,84,03,008,*51
$GPGSA,A,3,07,08,09,15,,,,,,,,,4.5,1.5,4.2*33
$GNGSA,A,3,07,08,09,15,,,,,,,,,4.5,1.5,4.2*2D
$GNGSA,A,3,,,,,,,,,,,,,4.5,1.5,4.2*2F
$QZGSA,A,3,,,,,,,,,,,,,4.5,1.5,4.2*2D
$IMGSA,A,3,,,,,,,,,,,,,4.5,1.5,4.2*22
$GPRMC,110126.00,A,4155.771504,N,01236.689266,E,,,090219,,,A*5E
$GPGGA,110127.00,4155.771328,N,01236.687604,E,1,05,3.2,0.0,M,45.0,M,,*6D
$GPGSV,3,1,10,07,24,059,50,15,18,301,50,08,06,043,49,09,05,113,49*7E
$GPGSV,3,2,10,21,02,321,,28,58,126,51,05,58,231,51,30,57,050,52*71
$GPGSV,3,3,10,13,52,309,51,04,,,50*42
$GLGSV,2,1,07,66,79,137,,76,64,026,,77,47,229,,67,43,325,*65
$GLGSV,2,2,07,75,19,038,,65,16,144,,84,03,008,*51
$GPGSA,A,3,07,08,09,15,,,,,,,,,4.5,1.5,4.2*33
$GNGSA,A,3,07,08,09,15,,,,,,,,,4.5,1.5,4.2*2D
$GNGSA,A,3,,,,,,,,,,,,,4.5,1.5,4.2*2F
$QZGSA,A,3,,,,,,,,,,,,,4.5,1.5,4.2*2D
$IMGSA,A,3,,,,,,,,,,,,,4.5,1.5,4.2*22
$GPRMC,110127.00,A,4155.771328,N,01236.687604,E,,,090219,,,A*59
$GPGGA,110128.00,4155.771507,N,01236.687435,E,1,05,3.2,0.0,M,45.0,M,,*69
$GPGSV,3,1,10,07,24,059,50,15,18,301,50,08,06,043,49,09,05,113,49*7E
$GPGSV,3,2,10,21,02,321,,28,58,126,51,05,58,231,51,30,57,050,51*72
$GPGSV,3,3,10,13,52,309,51,04,,,50*42
$GLGSV,2,1,07,66,79,137,,76,64,026,,77,47,229,,67,43,325,*65
$GLGSV,2,2,07,75,19,038,,65,16,144,,84,03,008,*51
$GPGSA,A,3,07,08,09,15,,,,,,,,,4.5,1.5,4.2*33
$GNGSA,A,3,07,08,09,15,,,,,,,,,4.5,1.5,4.2*2D
$GNGSA,A,3,,,,,,,,,,,,,4.5,1.5,4.2*2F
$QZGSA,A,3,,,,,,,,,,,,,4.5,1.5,4.2*2D
$IMGSA,A,3,,,,,,,,,,,,,4.5,1.5,4.2*22
$GPRMC,110128.00,A,4155.771507,N,01236.687435,E,,,090219,,,A*5D
$GPGGA,110129.00,4155.771412,N,01236.687276,E,1,05,4.8,0.0,M,45.0,M,,*61
$GPGSV,3,1,10,07,24,059,50,15,18,301,50,08,06,043,49,09,05,113,49*7E
$GPGSV,3,2,10,21,02,321,,28,58,126,51,05,58,231,51,30,57,050,51*72
$GPGSV,3,3,10,13,52,309,51,04,,,50*42
$GLGSV,2,1,07,66,79,137,,76,64,026,,77,47,229,,67,43,325,*65
$GLGSV,2,2,07,75,19,038,,65,16,144,,84,03,008,*51
$GPGSA,A,3,07,08,09,15,,,,,,,,,140.0,99.0,99.0*35
$GNGSA,A,3,07,08,09,15,,,,,,,,,140.0,99.0,99.0*2B
$GNGSA,A,3,,,,,,,,,,,,,140.0,99.0,99.0*29
$QZGSA,A,3,,,,,,,,,,,,,140.0,99.0,99.0*2B
$IMGSA,A,3,,,,,,,,,,,,,140.0,99.0,99.0*24
$GPRMC,110129.00,A,4155.771412,N,01236.687276,E,,,090219,,,A*58
$GPGGA,110130.00,4155.771307,N,01236.687174,E,1,05,4.8,0.0,M,45.0,M,,*6B
$GPGSV,3,1,10,07,24,059,50,15,18,301,50,08,06,043,49,09,05,113,49*7E
$GPGSV,3,2,10,21,02,321,,28,58,126,51,05,58,231,51,30,57,050,51*72
$GPGSV,3,3,10,13,52,309,51,04,,,50*42
$GLGSV,2,1,07,66,79,137,,76,64,026,,77,47,229,,67,43,325,*65
$GLGSV,2,2,07,75,19,038,,65,16,144,,84,03,008,*51
$GPGSA,A,3,07,08,09,15,,,,,,,,,140.0,99.0,99.0*35
$GNGSA,A,3,07,08,09,15,,,,,,,,,140.0,99.0,99.0*2B
$GNGSA,A,3,,,,,,,,,,,,,140.0,99.0,99.0*29
$QZGSA,A,3,,,,,,,,,,,,,140.0,99.0,99.0*2B
$IMGSA,A,3,,,,,,,,,,,,,140.0,99.0,99.0*24
$GPRMC,110130.00,A,4155.771307,N,01236.687174,E,,,090219,,,A*52
$GPGGA,110131.00,4155.771214,N,01236.687082,E,1,05,4.8,0.0,M,45.0,M,,*61
$GPGSV,3,1,10,07,24,059,50,15,18,301,50,08,06,043,49,09,05,113,49*7E
$GPGSV,3,2,10,21,02,321,,28,58,126,52,05,58,231,52,30,57,050,51*72
$GPGSV,3,3,10,13,52,309,51,04,,,51*43
$GLGSV,2,1,07,66,79,137,,76,64,026,,77,47,229,,67,43,325,*65
$GLGSV,2,2,07,75,19,038,,65,16,144,,84,03,008,*51
$GPGSA,A,3,07,08,09,15,,,,,,,,,140.0,99.0,99.0*35
$GNGSA,A,3,07,08,09,15,,,,,,,,,140.0,99.0,99.0*2B
$GNGSA,A,3,,,,,,,,,,,,,140.0,99.0,99.0*29
$QZGSA,A,3,,,,,,,,,,,,,140.0,99.0,99.0*2B
$IMGSA,A,3,,,,,,,,,,,,,140.0,99.0,99.0*24
$GPRMC,110131.00,A,4155.771214,N,01236.687082,E,,,090219,,,A*58
$GPGGA,110132.00,4155.771196,N,01236.687159,E,1,05,4.8,0.0,M,45.0,M,,*6C
$GPGSV,3,1,10,07,24,059,50,15,18,301,50,08,06,043,49,09,05,113,49*7E
$GPGSV,3,2,10,21,02,321,,28,58,126,52,05,58,231,52,30,57,050,51*72
$GPGSV,3,3,10,13,52,309,51,04,,,50*42
$GLGSV,2,1,07,66,79,137,,76,64,026,,77,47,229,,67,43,325,*65
$GLGSV,2,2,07,75,19,038,,65,16,144,,84,03,008,*51
$GPGSA,A,3,07,08,09,15,,,,,,,,,140.0,99.0,99.0*35
$GNGSA,A,3,07,08,09,15,,,,,,,,,140.0,99.0,99.0*2B
$GNGSA,A,3,,,,,,,,,,,,,140.0,99.0,99.0*29
$QZGSA,A,3,,,,,,,,,,,,,140.0,99.0,99.0*2B
$IMGSA,A,3,,,,,,,,,,,,,140.0,99.0,99.0*24
$GPRMC,110132.00,A,4155.771196,N,01236.687159,E,,,090219,,,A*55
$GPGGA,110133.00,4155.771195,N,01236.687162,E,1,05,4.8,0.0,M,45.0,M,,*66
$GPGSV,3,1,10,07,24,059,51,15,18,301,50,08,06,043,49,09,05,113,49*7F
$GPGSV,3,2,10,21,02,321,,28,58,126,51,05,58,231,52,30,57,050,52*72
$GPGSV,3,3,10,13,52,309,51,04,,,50*42
$GLGSV,2,1,07,66,79,137,,76,64,026,,77,47,229,,67,43,325,*65
$GLGSV,2,2,07,75,19,038,,65,16,144,,84,03,008,*51
$GPGSA,A,3,07,08,09,15,,,,,,,,,140.0,99.0,99.0*35
$GNGSA,A,3,07,08,09,15,,,,,,,,,140.0,99.0,99.0*2B
$GNGSA,A,3,,,,,,,,,,,,,140.0,99.0,99.0*29
$QZGSA,A,3,,,,,,,,,,,,,140.0,99.0,99.0*2B
$IMGSA,A,3,,,,,,,,,,,,,140.0,99.0,99.0*24
$GPRMC,110133.00,A,4155.771195,N,01236.687162,E,,,090219,,,A*5F
$GPGGA,110134.00,4155.771192,N,01236.687167,E,1,05,4.8,0.0,M,45.0,M,,*63
$GPGSV,3,1,10,07,24,059,51,15,18,301,50,08,06,043,49,09,05,113,49*7F
$GPGSV,3,2,10,21,02,321,,28,58,126,51,05,58,231,52,30,57,050,52*72
$GPGSV,3,3,10,13,52,309,51,04,,,50*42
$GLGSV,2,1,07,66,79,137,,76,64,026,,77,47,229,,67,43,325,*65
$GLGSV,2,2,07,75,19,038,,65,16,144,,84,03,008,*51
$GPGSA,A,3,07,08,09,15,,,,,,,,,140.0,99.0,99.0*35
$GNGSA,A,3,07,08,09,15,,,,,,,,,140.0,99.0,99.0*2B
$GNGSA,A,3,,,,,,,,,,,,,140.0,99.0,99.0*29
$QZGSA,A,3,,,,,,,,,,,,,140.0,99.0,99.0*2B
$IMGSA,A,3,,,,,,,,,,,,,140.0,99.0,99.0*24
$GPRMC,110134.00,A,4155.771192,N,01236.687167,E,,,090219,,,A*5A
$GPGGA,110135.00,4155.771191,N,01236.687167,E,1,05,4.8,0.0,M,45.0,M,,*61
$GPGSV,3,1,10,07,24,059,51,15,18,301,50,08,06,043,49,09,05,113,49*7F
$GPGSV,3,2,10,21,02,321,,28,58,126,51,05,58,231,52,30,57,050,52*72
$GPGSV,3,3,10,13,52,309,51,04,,,50*42
$GLGSV,2,1,07,66,79,137,,76,64,026,,77,47,229,,67,43,325,*65
