$GPGGA,095955.03,,,,,0,00,999.9,,M,,M,,*60
$GPGSV,3,1,09,13,84,010,,28,55,059,,15,51,305,,05,26,201,*7F
$GPGSV,3,2,09,30,26,071,,24,21,272,,17,21,122,,19,09,146,*74
$GPGSV,3,3,09,20,07,324,*40
$GLGSV,2,1,07,69,75,256,,79,71,324,,68,36,169,,80,30,250,*69
$GLGSV,2,2,07,70,25,326,,88,10,074,,87,09,030,*52
$GPGSA,A,1,,,,,,,,,,,,,140.0,99.0,99.0*35
$GNGSA,A,1,,,,,,,,,,,,,140.0,99.0,99.0*2B
$GNGSA,A,1,,,,,,,,,,,,,140.0,99.0,99.0*2B
$QZGSA,A,1,,,,,,,,,,,,,140.0,99.0,99.0*29
$IMGSA,A,1,,,,,,,,,,,,,140.0,99.0,99.0*26
$GPRMC,095955.03,V,,,,,,,150319,,,N*74
$GPGGA,095955.81,,,,,0,00,999.9,,M,,M,,*6A
$GPGSV,3,1,09,19,09,146,26,13,84,010,,28,55,059,,15,51,305,*7B
$GPGSV,3,2,09,30,26,071,,05,26,201,,24,21,272,,17,21,122,*74
$GPGSV,3,3,09,20,07,324,*40
$GLGSV,2,1,07,69,75,256,,79,71,324,,68,36,169,,80,30,250,*69
$GLGSV,2,2,07,70,25,326,,88,10,074,,87,09,030,*52
$GPGSA,A,1,,,,,,,,,,,,,140.0,99.0,99.0*35
$GNGSA,A,1,,,,,,,,,,,,,140.0,99.0,99.0*2B
$GNGSA,A,1,,,,,,,,,,,,,140.0,99.0,99.0*2B
$QZGSA,A,1,,,,,,,,,,,,,140.0,99.0,99.0*29
$IMGSA,A,1,,,,,,,,,,,,,140.0,99.0,99.0*26
$GPRMC,095955.81,V,,,,,,,150319,,,N*7E
$GPGGA,095956.03,,,,,0,00,999.9,,M,,M,,*63
$GPGSV,3,1,09,28,55,059,27,30,26,071,29,24,21,272,24,17,21,122,35*7D
$GPGSV,3,2,09,19,09,146,26,13,84,010,,15,51,305,,05,26,201,*7C
$GPGSV,3,3,09,20,07,324,*40
$GLGSV,2,1,07,88,10,074,25,69,75,256,,79,71,324,,68,36,169,*60
$GLGSV,2,2,07,80,30,250,,70,25,326,,87,09,030,*5C
$GPGSA,A,1,,,,,,,,,,,,,140.0,99.0,99.0*35
$GNGSA,A,1,,,,,,,,,,,,,140.0,99.0,99.0*2B
$GNGSA,A,1,,,,,,,,,,,,,140.0,99.0,99.0*2B
$QZGSA,A,1,,,,,,,,,,,,,140.0,99.0,99.0*29
$IMGSA,A,1,,,,,,,,,,,,,140.0,99.0,99.0*26
$GPRMC,095956.03,V,,,,,,,150319,,,N*77
$GPGGA,095957.02,4155.812367,N,01236.698413,E,1,06,0.3,30.9,M,45.0,M,,*5C
$GPGSV,3,1,09,28,55,059,28,30,26,071,30,24,21,272,25,17,21,122,36*78
$GPGSV,3,2,09,19,09,146,27,13,84,010,,15,51,305,,05,26,201,*7D
$GPGSV,3,3,09,20,07,324,*40
$GLGSV,2,1,07,88,10,074,26,69,75,256,,79,71,324,,68,36,169,*63
$GLGSV,2,2,07,80,30,250,,70,25,326,,87,09,030,*5C
$GPGSA,A,3,17,19,24,28,30,,,,,,,,3.5,1.5,3.1*33
$GNGSA,A,3,17,19,24,28,30,,,,,,,,3.5,1.5,3.1*2D
$GNGSA,A,3,88,,,,,,,,,,,,3.5,1.5,3.1*2C
$QZGSA,A,3,,,,,,,,,,,,,3.5,1.5,3.1*2E
$IMGSA,A,3,,,,,,,,,,,,,3.5,1.5,3.1*21
$GPRMC,095957.02,A,4155.812367,N,01236.698413,E,001.2,,150319,,,A*72
$GPGGA,095958.05,4155.812551,N,01236.698524,E,1,06,1.6,38.1,M,45.0,M,,*56
$GPGSV,3,1,09,28,55,059,31,15,51,305,22,30,26,071,32,17,21,122,39*7E
$GPGSV,3,2,09,24,21,272,26,19,09,146,28,13,84,010,,05,26,201,*72
$GPGSV,3,3,09,20,07,324,*40
$GLGSV,2,1,07,88,10,074,28,69,75,256,,79,71,324,,68,36,169,*6D
$GLGSV,2,2,07,80,30,250,,70,25,326,,87,09,030,*5C
$GPGSA,A,3,17,19,24,28,30,,,,,,,,3.5,1.5,3.1*33
$GNGSA,A,3,17,19,24,28,30,,,,,,,,3.5,1.5,3.1*2D
$GNGSA,A,3,88,,,,,,,,,,,,3.5,1.5,3.1*2C
$QZGSA,A,3,,,,,,,,,,,,,3.5,1.5,3.1*2E
$IMGSA,A,3,,,,,,,,,,,,,3.5,1.5,3.1*21
$GPRMC,095958.05,A,4155.812551,N,01236.698524,E,001.5,,150319,,,A*7B
$GPGGA,095959.04,4155.812892,N,01236.699095,E,1,07,1.6,39.5,M,45.0,M,,*5E
$GPGSV,3,1,09,28,55,059,32,15,51,305,23,30,26,071,35,17,21,122,40*75
$GPGSV,3,2,09,24,21,272,27,19,09,146,29,13,84,010,,05,26,201,*72
$GPGSV,3,3,09,20,07,324,*40
$GLGSV,2,1,07,88,10,074,28,69,75,256,,79,71,324,,68,36,169,*6D
$GLGSV,2,2,07,80,30,250,,70,25,326,,87,09,030,*5C
$GPGSA,A,3,15,17,19,24,28,30,,,,,,,2.7,1.4,2.3*36
$GNGSA,A,3,15,17,19,24,28,30,,,,,,,2.7,1.4,2.3*28
$GNGSA,A,3,88,,,,,,,,,,,,2.7,1.4,2.3*2D
$QZGSA,A,3,,,,,,,,,,,,,2.7,1.4,2.3*2F
$IMGSA,A,3,,,,,,,,,,,,,2.7,1.4,2.3*20
$GPRMC,095959.04,A,4155.812892,N,01236.699095,E,000.8,,150319,,,A*7B
$GPGGA,100000.07,4155.813328,N,01236.698926,E,1,07,1.6,68.6,M,45.0,M,,*59
$GPGSV,3,1,09,28,55,059,31,15,51,305,23,30,26,071,34,17,21,122,40*77
$GPGSV,3,2,09,24,21,272,26,19,09,146,28,13,84,010,,05,26,201,*72
$GPGSV,3,3,09,20,07,324,*40
$GLGSV,2,1,07,88,10,074,28,69,75,256,,79,71,324,,68,36,169,*6D
$GLGSV,2,2,07,80,30,250,,70,25,326,,87,09,030,*5C
$GPGSA,A,3,15,17,19,24,28,30,,,,,,,2.7,1.4,2.3*36
$GNGSA,A,3,15,17,19,24,28,30,,,,,,,2.7,1.4,2.3*28
$GNGSA,A,3,88,,,,,,,,,,,,2.7,1.4,2.3*2D
$QZGSA,A,3,,,,,,,,,,,,,2.7,1.4,2.3*2F
$IMGSA,A,3,,,,,,,,,,,,,2.7,1.4,2.3*20
$GPRMC,100000.07,A,4155.813328,N,01236.698926,E,001.2,,150319,,,A*70
$GPGGA,100001.04,4155.813901,N,01236.699506,E,1,08,0.2,70.0,M,45.0,M,,*50
$GPGSV,3,1,09,28,55,059,31,15,51,305,23,30,26,071,37,17,21,122,39*7A
$GPGSV,3,2,09,24,21,272,26,19,09,146,28,13,84,010,,05,26,201,*72
$GPGSV,3,3,09,20,07,324,*40
$GLGSV,2,1,07,88,10,074,31,87,09,030,22,69,75,256,,79,71,324,*65
$GLGSV,2,2,07,68,36,169,,80,30,250,,70,25,326,*5C
$GPGSA,A,3,15,17,19,24,28,30,,,,,,,2.3,1.2,2.0*37
$GNGSA,A,3,15,17,19,24,28,30,,,,,,,2.3,1.2,2.0*29
$GNGSA,A,3,87,88,,,,,,,,,,,2.3,1.2,2.0*23
$QZGSA,A,3,,,,,,,,,,,,,2.3,1.2,2.0*2E
$IMGSA,A,3,,,,,,,,,,,,,2.3,1.2,2.0*21
$GPRMC,100001.04,A,4155.813901,N,01236.699506,E,000.5,,150319,,,A*7A
$GPGGA,100002.03,4155.813979,N,01236.699322,E,1,08,1.6,65.4,M,45.0,M,,*5E
$GPGSV,3,1,09,28,55,059,31,15,51,305,23,30,26,071,37,17,21,122,39*7A
$GPGSV,3,2,09,24,21,272,26,19,09,146,28,13,84,010,,05,26,201,*72
$GPGSV,3,3,09,20,07,324,*40
$GLGSV,2,1,07,88,10,074,32,87,09,030,23,69,75,256,,79,71,324,*67
$GLGSV,2,2,07,68,36,169,,80,30,250,,70,25,326,*5C
$GPGSA,A,3,15,17,19,24,28,30,,,,,,,1.8,0.9,1.6*30
$GNGSA,A,3,15,17,19,24,28,30,,,,,,,1.8,0.9,1.6*2E
$GNGSA,A,3,87,88,,,,,,,,,,,1.8,0.9,1.6*24
$QZGSA,A,3,,,,,,,,,,,,,1.8,0.9,1.6*29
$IMGSA,A,3,,,,,,,,,,,,,1.8,0.9,1.6*26
$GPRMC,100002.03,A,4155.813979,N,01236.699322,E,000.4,,150319,,,A*70
$GPGGA,100003.03,4155.815590,N,01236.694115,E,1,08,1.6,63.3,M,45.0,M,,*58
$GPGSV,3,1,09,28,55,059,32,15,51,305,24,30,26,071,37,17,21,122,39*7E
$GPGSV,3,2,09,24,21,272,26,19,09,146,28,13,84,010,,05,26,201,*72
$GPGSV,3,3,09,20,07,324,*40
$GLGSV,2,1,07,88,10,074,32,87,09,030,24,69,75,256,,79,71,324,*60
$GLGSV,2,2,07,68,36,169,,80,30,250,,70,25,326,*5C
$GPGSA,A,3,15,17,19,24,28,30,,,,,,,2.3,1.2,2.0*37
$GNGSA,A,3,15,17,19,24,28,30,,,,,,,2.3,1.2,2.0*29
$GNGSA,A,3,87,88,,,,,,,,,,,2.3,1.2,2.0*23
$QZGSA,A,3,,,,,,,,,,,,,2.3,1.2,2.0*2E
$IMGSA,A,3,,,,,,,,,,,,,2.3,1.2,2.0*21
$GPRMC,100003.03,A,4155.815590,N,01236.694115,E,000.0,,150319,,,A*73
$GPGGA,100004.03,4155.816092,N,01236.694007,E,1,08,1.2,63.2,M,45.0,M,,*5C
$GPGSV,3,1,09,28,55,059,33,15,51,305,24,30,26,071,37,17,21,122,39*7F
$GPGSV,3,2,09,24,21,272,26,19,09,146,28,13,84,010,,05,26,201,*72
$GPGSV,3,3,09,20,07,324,*40
$GLGSV,2,1,07,88,10,074,32,87,09,030,24,69,75,256,,79,71,324,*60
$GLGSV,2,2,07,68,36,169,,80,30,250,,70,25,326,*5C
$GPGSA,A,3,15,17,19,24,28,30,,,,,,,2.3,1.2,2.0*37
$GNGSA,A,3,15,17,19,24,28,30,,,,,,,2.3,1.2,2.0*29
$GNGSA,A,3,87,88,,,,,,,,,,,2.3,1.2,2.0*23
$QZGSA,A,3,,,,,,,,,,,,,2.3,1.2,2.0*2E
$IMGSA,A,3,,,,,,,,,,,,,2.3,1.2,2.0*21
$GPRMC,100004.03,A,4155.816092,N,01236.694007,E,000.0,,150319,,,A*72
$GPGGA,100005.00,4155.816291,N,01236.694067,E,1,08,0.8,63.7,M,45.0,M,,*57
$GPGSV,3,1,09,28,55,059,33,15,51,305,24,30,26,071,37,17,21,122,39*7F
$GPGSV,3,2,09,24,21,272,26,19,09,146,28,13,84,011,,05,26,201,*73
$GPGSV,3,3,09,20,07,324,*40
$GLGSV,2,1,07,88,10,074,32,87,09,030,24,69,75,256,,79,71,324,*60
$GLGSV,2,2,07,68,36,169,,80,30,250,,70,25,326,*5C
$GPGSA,A,3,15,17,19,24,28,30,,,,,,,1.8,0.9,1.6*30
$GNGSA,A,3,15,17,19,24,28,30,,,,,,,1.8,0.9,1.6*2E
$GNGSA,A,3,87,88,,,,,,,,,,,1.8,0.9,1.6*24
$QZGSA,A,3,,,,,,,,,,,,,1.8,0.9,1.6*29
$IMGSA,A,3,,,,,,,,,,,,,1.8,0.9,1.6*26
$GPRMC,100005.00,A,4155.816291,N,01236.694067,E,000.0,,150319,,,A*77
$GPGGA,100006.00,4155.816523,N,01236.693449,E,1,09,0.8,63.1,M,45.0,M,,*52
$GPGSV,3,1,09,28,55,059,34,15,51,305,24,30,26,071,36,17,21,122,39*79
$GPGSV,3,2,09,24,21,272,26,19,09,146,28,13,84,011,,05,26,201,*73
$GPGSV,3,3,09,20,07,324,*40
$GLGSV,2,1,07,69,75,256,17,88,10,074,32,87,09,030,24,79,71,324,*66
$GLGSV,2,2,07,68,36,169,,80,30,250,,70,25,326,*5C
$GPGSA,A,3,15,17,19,24,28,30,,,,,,,2.3,1.2,2.0*37
$GNGSA,A,3,15,17,19,24,28,30,,,,,,,2.3,1.2,2.0*29
$GNGSA,A,3,69,87,88,,,,,,,,,,2.3,1.2,2.0*2C
$QZGSA,A,3,,,,,,,,,,,,,2.3,1.2,2.0*2E
$IMGSA,A,3,,,,,,,,,,,,,2.3,1.2,2.0*21
$GPRMC,100006.00,A,4155.816523,N,01236.693449,E,000.0,,150319,,,A*75
$GPGGA,100007.00,4155.816623,N,01236.692723,E,1,09,0.8,62.3,M,45.0,M,,*5D
$GPGSV,3,1,09,28,55,059,34,15,51,305,24,30,26,071,36,17,21,122,39*79
$GPGSV,3,2,09,24,21,272,25,19,09,146,28,13,84,011,,05,26,201,*70
$GPGSV,3,3,09,20,07,324,*40
$GLGSV,2,1,07,69,75,256,16,88,10,074,32,87,09,030,24,79,71,324,*67
$GLGSV,2,2,07,68,36,169,,80,30,250,,70,25,326,*5C
$GPGSA,A,3,15,17,19,24,28,30,,,,,,,1.8,0.9,1.6*30
$GNGSA,A,3,15,17,19,24,28,30,,,,,,,1.8,0.9,1.6*2E
$GNGSA,A,3,69,87,88,,,,,,,,,,1.8,0.9,1.6*2B
$QZGSA,A,3,,,,,,,,,,,,,1.8,0.9,1.6*29
$IMGSA,A,3,,,,,,,,,,,,,1.8,0.9,1.6*26
$GPRMC,100007.00,A,4155.816623,N,01236.692723,E,000.0,,150319,,,A*79
$GPGGA,100008.00,4155.816614,N,01236.692370,E,1,10,0.8,61.5,M,45.0,M,,*59
$GPGSV,3,1,09,28,55,059,35,15,51,305,25,05,26,201,12,30,26,071,36*76
$GPGSV,3,2,09,17,21,122,39,24,21,272,25,19,09,146,29,13,84,011,*7D
$GPGSV,3,3,09,20,07,324,*40
$GLGSV,2,1,07,69,75,256,16,88,10,074,32,87,09,030,24,79,71,324,*67
$GLGSV,2,2,07,68,36,169,,80,30,250,,70,25,326,*5C
$GPGSA,A,3,05,15,17,19,24,28,30,,,,,,2.3,1.2,2.0*32
$GNGSA,A,3,05,15,17,19,24,28,30,,,,,,2.3,1.2,2.0*2C
$GNGSA,A,3,69,87,88,,,,,,,,,,2.3,1.2,2.0*2C
$QZGSA,A,3,,,,,,,,,,,,,2.3,1.2,2.0*2E
$IMGSA,A,3,,,,,,,,,,,,,2.3,1.2,2.0*21
$GPRMC,100008.00,A,4155.816614,N,01236.692370,E,000.0,,150319,,,A*70
$GPGGA,100009.00,4155.816639,N,01236.692288,E,1,11,0.6,61.2,M,45.0,M,,*59
$GPGSV,3,1,09,28,55,059,35,15,51,305,25,05,26,201,13,30,26,071,36*77
$GPGSV,3,2,09,24,21,272,25,17,21,122,39,19,09,146,29,13,84,011,*7D
$GPGSV,3,3,09,20,07,324,*40
$GLGSV,2,1,07,69,75,256,16,79,71,324,17,88,10,074,32,87,09,030,24*61
$GLGSV,2,2,07,68,36,169,,80,30,250,,70,25,326,*5C
$GPGSA,A,3,05,15,17,19,24,28,30,,,,,,1.6,0.9,1.3*3E
$GNGSA,A,3,05,15,17,19,24,28,30,,,,,,1.6,0.9,1.3*20
$GNGSA,A,3,69,79,87,88,,,,,,,,,1.6,0.9,1.3*2E
$QZGSA,A,3,,,,,,,,,,,,,1.6,0.9,1.3*22
$IMGSA,A,3,,,,,,,,,,,,,1.6,0.9,1.3*2D
$GPRMC,100009.00,A,4155.816639,N,01236.692288,E,000.0,,150319,,,A*78
$GPGGA,100010.00,4155.816445,N,01236.692790,E,1,11,0.6,61.2,M,45.0,M,,*54
$GPGSV,3,1,09,28,55,059,35,15,51,305,25,05,26,201,15,30,26,071,36*71
$GPGSV,3,2,09,24,21,272,25,17,21,122,39,19,09,146,29,13,84,011,*7D
$GPGSV,3,3,09,20,07,324,*40
$GLGSV,2,1,07,69,75,256,16,79,71,325,17,88,10,074,32,87,09,030,24*60
$GLGSV,2,2,07,68,36,169,,80,30,250,,70,25,326,*5C
$GPGSA,A,3,05,15,17,19,24,28,30,,,,,,1.8,0.9,1.6*35
$GNGSA,A,3,05,15,17,19,24,28,30,,,,,,1.8,0.9,1.6*2B
$GNGSA,A,3,69,79,87,88,,,,,,,,,1.8,0.9,1.6*25
$QZGSA,A,3,,,,,,,,,,,,,1.8,0.9,1.6*29
$IMGSA,A,3,,,,,,,,,,,,,1.8,0.9,1.6*26
$GPRMC,100010.00,A,4155.816445,N,01236.692790,E,000.0,,150319,,,A*75
$GPGGA,100011.00,4155.816316,N,01236.693264,E,1,11,0.6,61.1,M,45.0,M,,*58
$GPGSV,3,1,09,28,55,059,35,15,51,305,25,05,26,201,15,30,26,071,36*71
$GPGSV,3,2,09,24,21,272,25,17,21,122,39,19,09,146,29,13,84,011,*7D
$GPGSV,3,3,09,20,07,324,*40
$GLGSV,2,1,07,69,75,256,17,79,71,325,17,88,10,074,32,87,09,030,24*61
$GLGSV,2,2,07,68,36,169,,80,30,250,,70,25,326,*5C
$GPGSA,A,3,05,15,17,19,24,28,30,,,,,,1.8,0.8,1.6*34
$GNGSA,A,3,05,15,17,19,24,28,30,,,,,,1.8,0.8,1.6*2A
$GNGSA,A,3,69,79,87,88,,,,,,,,,1.8,0.8,1.6*24
$QZGSA,A,3,,,,,,,,,,,,,1.8,0.8,1.6*28
$IMGSA,A,3,,,,,,,,,,,,,1.8,0.8,1.6*27
$GPRMC,100011.00,A,4155.816316,N,01236.693264,E,000.0,,150319,,,A*7A
$GPGGA,100012.00,4155.816162,N,01236.693589,E,1,11,0.6,61.2,M,45.0,M,,*5D
$GPGSV,3,1,09,28,55,059,35,15,51,305,25,05,26,201,15,30,26,071,36*71
$GPGSV,3,2,09,24,21,272,25,17,21,122,39,19,09,146,29,13,84,011,*7D
$GPGSV,3,3,09,20,07,324,*40
$GLGSV,2,1,07,69,75,256,18,79,71,325,17,88,10,074,32,87,09,030,24*6E
$GLGSV,2,2,07,68,36,169,,80,30,250,,70,25,326,*5C
$GPGSA,A,3,05,15,17,19,24,28,30,,,,,,1.8,0.9,1.6*35
$GNGSA,A,3,05,15,17,19,24,28,30,,,,,,1.8,0.9,1.6*2B
$GNGSA,A,3,69,79,87,88,,,,,,,,,1.8,0.9,1.6*25
$QZGSA,A,3,,,,,,,,,,,,,1.8,0.9,1.6*29
$IMGSA,A,3,,,,,,,,,,,,,1.8,0.9,1.6*26
$GPRMC,100012.00,A,4155.816162,N,01236.693589,E,000.0,,150319,,,A*7C
$GPGGA,100013.00,4155.816027,N,01236.693664,E,1,11,0.6,61.4,M,45.0,M,,*5A
$GPGSV,3,1,09,28,55,059,35,15,51,305,25,05,26,201,15,30,26,071,36*71
$GPGSV,3,2,09,24,21,272,25,17,21,122,38,19,09,146,29,13,84,011,*7C
$GPGSV,3,3,09,20,07,324,*40
$GLGSV,2,1,07,69,75,256,17,79,71,325,17,88,10,074,32,87,09,030,23*66
$GLGSV,2,2,07,68,36,169,,80,30,250,,70,25,326,*5C
$GPGSA,A,3,05,15,17,19,24,28,30,,,,,,1.8,0.8,1.6*34
$GNGSA,A,3,05,15,17,19,24,28,30,,,,,,1.8,0.8,1.6*2A
$GNGSA,A,3,69,79,87,88,,,,,,,,,1.8,0.8,1.6*24
$QZGSA,A,3,,,,,,,,,,,,,1.8,0.8,1.6*28
$IMGSA,A,3,,,,,,,,,,,,,1.8,0.8,1.6*27
$GPRMC,100013.00,A,4155.816027,N,01236.693664,E,000.0,,150319,,,A*7D
$GPGGA,100014.00,4155.815904,N,01236.693730,E,1,11,0.6,61.5,M,45.0,M,,*57
$GPGSV,3,1,09,28,55,059,35,15,51,305,25,05,26,201,16,30,26,071,36*72
$GPGSV,3,2,09,24,21,272,25,17,21,122,38,19,09,146,29,20,07,324,11*72
$GPGSV,3,3,09,13,84,011,*4E
$GLGSV,2,1,07,69,75,256,17,79,71,325,16,88,10,074,32,87,09,030,23*67
$GLGSV,2,2,07,68,36,169,,80,30,250,,70,25,326,*5C
$GPGSA,A,3,05,15,17,19,24,28,30,,,,,,1.8,0.9,1.6*35
$GNGSA,A,3,05,15,17,19,24,28,30,,,,,,1.8,0.9,1.6*2B
$GNGSA,A,3,69,79,87,88,,,,,,,,,1.8,0.9,1.6*25
$QZGSA,A,3,,,,,,,,,,,,,1.8,0.9,1.6*29
$IMGSA,A,3,,,,,,,,,,,,,1.8,0.9,1.6*26
$GPRMC,100014.00,A,4155.815904,N,01236.693730,E,000.0,,150319,,,A*71
$GPGGA,100015.00,4155.815676,N,01236.693762,E,1,12,0.6,61.6,M,45.0,M,,*5B
$GPGSV,3,1,09,28,55,059,35,15,51,305,25,05,26,201,16,30,26,071,35*71
$GPGSV,3,2,09,24,21,272,25,17,21,122,38,19,09,146,29,20,07,324,15*76
$GPGSV,3,3,09,13,84,011,*4E
$GLGSV,2,1,07,69,75,256,18,79,71,325,16,88,10,074,33,87,09,030,23*69
$GLGSV,2,2,07,68,36,169,,80,30,250,,70,25,326,*5C
$GPGSA,A,3,05,15,17,19,20,24,28,30,,,,,1.8,0.8,1.6*36
$GNGSA,A,3,05,15,17,19,20,24,28,30,,,,,1.8,0.8,1.6*28
$GNGSA,A,3,69,79,87,88,,,,,,,,,1.8,0.8,1.6*24
$QZGSA,A,3,,,,,,,,,,,,,1.8,0.8,1.6*28
$IMGSA,A,3,,,,,,,,,,,,,1.8,0.8,1.6*27
$GPRMC,100015.00,A,4155.815676,N,01236.693762,E,000.0,,150319,,,A*7D
$GPGGA,100016.00,4155.815572,N,01236.693898,E,1,12,0.6,61.7,M,45.0,M,,*54
$GPGSV,3,1,09,28,55,059,35,15,51,305,25,05,26,201,16,30,26,071,35*71
$GPGSV,3,2,09,24,21,272,25,17,21,122,38,19,09,146,28,20,07,324,15*77
$GPGSV,3,3,09,13,84,011,*4E
$GLGSV,2,1,07,69,75,256,19,79,71,325,16,88,10,074,33,87,09,030,22*69
$GLGSV,2,2,07,68,36,169,,80,30,250,,70,25,326,*5C
$GPGSA,A,3,05,15,17,19,20,24,28,30,,,,,1.8,0.9,1.6*37
$GNGSA,A,3,05,15,17,19,20,24,28,30,,,,,1.8,0.9,1.6*29
$GNGSA,A,3,69,79,87,88,,,,,,,,,1.8,0.9,1.6*25
$QZGSA,A,3,,,,,,,,,,,,,1.8,0.9,1.6*29
$IMGSA,A,3,,,,,,,,,,,,,1.8,0.9,1.6*26
$GPRMC,100016.00,A,4155.815572,N,01236.693898,E,000.0,,150319,,,A*73
$GPGGA,100017.00,4155.815469,N,01236.694043,E,1,12,0.6,61.9,M,45.0,M,,*59
$GPGSV,3,1,09,28,55,059,34,15,51,305,25,05,26,201,18,30,26,071,35*7E
$GPGSV,3,2,09,24,21,272,25,17,21,122,38,19,09,146,28,20,07,324,15*77
$GPGSV,3,3,09,13,84,011,*4E
$GLGSV,2,1,07,69,75,256,19,79,71,325,16,88,10,074,33,87,09,030,22*69
$GLGSV,2,2,07,68,36,169,,80,30,250,,70,25,326,*5C
$GPGSA,A,3,05,15,17,19,20,24,28,30,,,,,1.4,0.8,1.1*3D
$GNGSA,A,3,05,15,17,19,20,24,28,30,,,,,1.4,0.8,1.1*23
$GNGSA,A,3,69,79,87,88,,,,,,,,,1.4,0.8,1.1*2F
$QZGSA,A,3,,,,,,,,,,,,,1.4,0.8,1.1*23
$IMGSA,A,3,,,,,,,,,,,,,1.4,0.8,1.1*2C
$GPRMC,100017.00,A,4155.815469,N,01236.694043,E,000.0,,150319,,,A*70
$GPGGA,100018.00,4155.815361,N,01236.694182,E,1,12,0.6,62.0,M,45.0,M,,*5F
$GPGSV,3,1,09,28,55,059,34,15,51,305,26,05,26,201,18,30,26,071,35*7D
$GPGSV,3,2,09,24,21,272,25,17,21,122,38,19,09,146,28,20,07,324,16*74
$GPGSV,3,3,09,13,84,011,*4E
$GLGSV,2,1,07,69,75,256,19,79,71,325,16,88,10,074,33,87,09,030,21*6A
$GLGSV,2,2,07,68,36,169,,80,30,250,,70,25,326,*5C
$GPGSA,A,3,05,15,17,19,20,24,28,30,,,,,1.3,0.7,1.1*35
$GNGSA,A,3,05,15,17,19,20,24,28,30,,,,,1.3,0.7,1.1*2B
$GNGSA,A,3,69,79,87,88,,,,,,,,,1.3,0.7,1.1*27
$QZGSA,A,3,,,,,,,,,,,,,1.3,0.7,1.1*2B
$IMGSA,A,3,,,,,,,,,,,,,1.3,0.7,1.1*24
$GPRMC,100018.00,A,4155.815361,N,01236.694182,E,000.0,,150319,,,A*7C
$GPGGA,100019.00,4155.815317,N,01236.694351,E,1,12,0.6,62.1,M,45.0,M,,*52
$GPGSV,3,1,09,28,55,059,34,15,51,305,26,05,26,201,19,30,26,071,35*7C
$GPGSV,3,2,09,24,21,272,25,17,21,122,38,19,09,146,28,20,07,324,16*74
$GPGSV,3,3,09,13,84,011,*4E
$GLGSV,2,1,07,69,75,256,22,79,71,325,15,88,10,074,34,87,09,030,21*66
$GLGSV,2,2,07,68,36,169,,80,30,250,,70,25,326,*5C
$GPGSA,A,3,05,15,17,19,20,24,28,30,,,,,1.5,0.8,1.3*3E
$GNGSA,A,3,05,15,17,19,20,24,28,30,,,,,1.5,0.8,1.3*20
$GNGSA,A,3,69,79,87,88,,,,,,,,,1.5,0.8,1.3*2C
$QZGSA,A,3,,,,,,,,,,,,,1.5,0.8,1.3*20
$IMGSA,A,3,,,,,,,,,,,,,1.5,0.8,1.3*2F
$GPRMC,100019.00,A,4155.815317,N,01236.694351,E,000.0,,150319,,,A*70
$GPGGA,100020.00,4155.815280,N,01236.694488,E,1,12,0.6,62.4,M,45.0,M,,*51
$GPGSV,3,1,09,28,55,059,34,15,51,305,26,05,26,201,19,30,26,071,35*7C
$GPGSV,3,2,09,24,21,272,25,17,21,122,38,19,09,146,28,20,07,324,17*75
$GPGSV,3,3,09,13,84,012,*4D
$GLGSV,2,1,07,69,75,256,22,79,71,325,15,88,10,074,34,87,09,030,21*66
$GLGSV,2,2,07,68,36,169,,80,30,250,,70,25,326,*5C
$GPGSA,A,3,05,15,17,19,20,24,28,30,,,,,1.8,0.8,1.6*36
$GNGSA,A,3,05,15,17,19,20,24,28,30,,,,,1.8,0.8,1.6*28
$GNGSA,A,3,69,79,87,88,,,,,,,,,1.8,0.8,1.6*24
$QZGSA,A,3,,,,,,,,,,,,,1.8,0.8,1.6*28
$IMGSA,A,3,,,,,,,,,,,,,1.8,0.8,1.6*27
$GPRMC,100020.00,A,4155.815280,N,01236.694488,E,000.0,,150319,,,A*76
$GPGGA,100021.00,4155.815242,N,01236.694559,E,1,12,0.6,62.5,M,45.0,M,,*52
$GPGSV,3,1,09,28,55,059,34,15,51,305,26,05,26,201,19,30,26,071,35*7C
$GPGSV,3,2,09,24,21,272,25,17,21,122,38,19,09,146,28,20,07,324,17*75
$GPGSV,3,3,09,13,84,012,*4D
$GLGSV,2,1,07,69,75,255,22,79,71,325,15,88,10,074,34,87,09,030,21*65
$GLGSV,2,2,07,68,36,169,,80,30,250,,70,25,326,*5C
$GPGSA,A,3,05,15,17,19,20,24,28,30,,,,,1.5,0.8,1.3*3E
$GNGSA,A,3,05,15,17,19,20,24,28,30,,,,,1.5,0.8,1.3*20
$GNGSA,A,3,69,79,87,88,,,,,,,,,1.5,0.8,1.3*2C
$QZGSA,A,3,,,,,,,,,,,,,1.5,0.8,1.3*20
$IMGSA,A,3,,,,,,,,,,,,,1.5,0.8,1.3*2F
$GPRMC,100021.00,A,4155.815242,N,01236.694559,E,000.0,,150319,,,A*74
$GPGGA,100022.00,4155.815228,N,01236.694659,E,1,12,0.6,62.7,M,45.0,M,,*5C
$GPGSV,3,1,09,28,55,059,34,15,51,305,26,05,26,201,19,30,26,071,36*7F
$GPGSV,3,2,09,24,21,272,25,17,21,122,38,19,09,146,28,20,07,324,17*75
$GPGSV,3,3,09,13,84,012,*4D
$GLGSV,2,1,07,69,75,255,22,79,71,325,15,88,10,074,34,87,09,030,21*65
$GLGSV,2,2,07,68,36,169,,80,30,250,,70,25,326,*5C
$GPGSA,A,3,05,15,17,19,20,24,28,30,,,,,1.5,0.8,1.3*3E
$GNGSA,A,3,05,15,17,19,20,24,28,30,,,,,1.5,0.8,1.3*20
$GNGSA,A,3,69,79,87,88,,,,,,,,,1.5,0.8,1.3*2C
$QZGSA,A,3,,,,,,,,,,,,,1.5,0.8,1.3*20
$IMGSA,A,3,,,,,,,,,,,,,1.5,0.8,1.3*2F
$GPRMC,100022.00,A,4155.815228,N,01236.694659,E,000.0,,150319,,,A*78
$GPGGA,100023.00,4155.815213,N,01236.694784,E,1,12,0.6,62.8,M,45.0,M,,*5B
$GPGSV,3,1,09,28,55,059,34,15,51,305,26,05,26,201,20,30,26,071,36*75
$GPGSV,3,2,09,24,21,272,25,17,21,122,38,19,09,146,28,20,07,324,17*75
$GPGSV,3,3,09,13,84,012,*4D
$GLGSV,2,1,07,69,75,255,22,79,71,325,15,88,10,074,35,87,09,030,21*64
$GLGSV,2,2,07,68,36,169,,80,30,250,,70,25,326,*5C
$GPGSA,A,3,05,15,17,19,20,24,28,30,,,,,1.6,0.9,1.3*3C
$GNGSA,A,3,05,15,17,19,20,24,28,30,,,,,1.6,0.9,1.3*22
$GNGSA,A,3,69,79,87,88,,,,,,,,,1.6,0.9,1.3*2E
$QZGSA,A,3,,,,,,,,,,,,,1.6,0.9,1.3*22
$IMGSA,A,3,,,,,,,,,,,,,1.6,0.9,1.3*2D
$GPRMC,100023.00,A,4155.815213,N,01236.694784,E,000.0,,150319,,,A*70
$GPGGA,100024.00,4155.815198,N,01236.694903,E,1,12,0.6,62.9,M,45.0,M,,*5C
$GPGSV,3,1,09,28,55,059,34,15,51,305,26,05,26,201,20,30,26,071,36*75
$GPGSV,3,2,09,24,21,272,24,17,21,122,38,19,09,146,28,20,07,324,17*74
$GPGSV,3,3,09,13,84,012,*4D
$GLGSV,2,1,07,69,75,255,22,79,71,325,14,88,10,074,35,87,09,030,21*65
$GLGSV,2,2,07,68,36,169,,80,30,250,,70,25,326,*5C
$GPGSA,A,3,05,15,17,19,20,24,28,30,,,,,1.9,1.1,1.5*3C
$GNGSA,A,3,05,15,17,19,20,24,28,30,,,,,1.9,1.1,1.5*22
$GNGSA,A,3,69,79,87,88,,,,,,,,,1.9,1.1,1.5*2E
$QZGSA,A,3,,,,,,,,,,,,,1.9,1.1,1.5*22
$IMGSA,A,3,,,,,,,,,,,,,1.9,1.1,1.5*2D
$GPRMC,100024.00,A,4155.815198,N,01236.694903,E,000.0,,150319,,,A*76
$GPGGA,100025.00,4155.815195,N,01236.695061,E,1,12,0.6,63.0,M,45.0,M,,*54
$GPGSV,3,1,09,28,55,059,34,15,51,305,26,05,26,201,19,30,26,071,36*7F
$GPGSV,3,2,09,24,21,272,24,17,21,122,38,19,09,146,28,20,07,324,17*74
$GPGSV,3,3,09,13,84,012,*4D
$GLGSV,2,1,07,69,75,255,22,79,71,325,14,88,10,074,34,87,09,030,21*64
$GLGSV,2,2,07,68,36,169,,80,30,250,,70,25,326,*5C
$GPGSA,A,3,05,15,17,19,20,24,28,30,,,,,1.6,0.9,1.3*3C
$GNGSA,A,3,05,15,17,19,20,24,28,30,,,,,1.6,0.9,1.3*22
$GNGSA,A,3,69,79,87,88,,,,,,,,,1.6,0.9,1.3*2E
$QZGSA,A,3,,,,,,,,,,,,,1.6,0.9,1.3*22
$IMGSA,A,3,,,,,,,,,,,,,1.6,0.9,1.3*2D
$GPRMC,100025.00,A,4155.815195,N,01236.695061,E,000.0,,150319,,,A*76
$GPGGA,100026.00,4155.815195,N,01236.695061,E,1,11,0.6,63.1,M,45.0,M,,*55
$GPGSV,3,1,09,28,55,059,34,15,51,305,26,05,26,201,19,30,26,071,36*7F
$GPGSV,3,2,09,24,21,272,24,17,21,122,39,19,09,146,28,20,07,324,17*75
$GPGSV,3,3,09,13,84,012,*4D
$GLGSV,2,1,07,69,75,255,22,79,71,325,14,88,10,074,35,87,09,030,21*65
$GLGSV,2,2,07,68,36,169,,80,30,250,,70,25,326,*5C
$GPGSA,A,3,05,15,17,19,20,24,28,30,,,,,1.8,0.9,1.6*37
$GNGSA,A,3,05,15,17,19,20,24,28,30,,,,,1.8,0.9,1.6*29
$GNGSA,A,3,69,87,88,,,,,,,,,,1.8,0.9,1.6*2B
$QZGSA,A,3,,,,,,,,,,,,,1.8,0.9,1.6*29
$IMGSA,A,3,,,,,,,,,,,,,1.8,0.9,1.6*26
$GPRMC,100026.00,A,4155.815195,N,01236.695061,E,000.0,,150319,,,A*75
$GPGGA,100027.00,4155.815195,N,01236.695061,E,1,13,0.6,63.2,M,45.0,M,,*55
$GPGSV,3,1,09,13,84,012,12,28,55,059,34,15,51,305,26,05,26,201,19*75
$GPGSV,3,2,09,30,26,071,36,24,21,272,24,17,21,122,39,19,09,146,28*77
$GPGSV,3,3,09,20,07,324,17*46
$GLGSV,2,1,07,69,75,255,23,79,71,325,14,68,36,169,14,80,30,250,15*6E
$GLGSV,2,2,07,70,25,326,11,88,10,074,35,87,09,030,23*55
$GPGSA,A,3,05,15,17,19,20,24,28,30,,,,,1.6,0.9,1.3*3C
$GNGSA,A,3,05,15,17,19,20,24,28,30,,,,,1.6,0.9,1.3*22
$GNGSA,A,3,68,69,80,87,88,,,,,,,,1.6,0.9,1.3*26
$QZGSA,A,3,,,,,,,,,,,,,1.6,0.9,1.3*22
$IMGSA,A,3,,,,,,,,,,,,,1.6,0.9,1.3*2D
$GPRMC,100027.00,A,4155.815195,N,01236.695061,E,000.0,,150319,,,A*74
$GPGGA,100028.00,4155.815195,N,01236.695061,E,1,13,0.6,63.2,M,45.0,M,,*5A
$GPGSV,3,1,09,13,84,012,12,28,55,059,34,15,51,305,26,05,26,201,18*74
$GPGSV,3,2,09,30,26,071,36,24,21,272,24,17,21,122,39,19,09,146,28*77
$GPGSV,3,3,09,20,07,324,17*46
$GLGSV,2,1,07,69,75,255,23,79,71,325,13,68,36,169,14,80,30,250,15*69
$GLGSV,2,2,07,70,25,326,11,88,10,074,35,87,09,030,23*55
$GPGSA,A,3,05,15,17,19,20,24,28,30,,,,,1.6,0.9,1.3*3C
$GNGSA,A,3,05,15,17,19,20,24,28,30,,,,,1.6,0.9,1.3*22
$GNGSA,A,3,68,69,80,87,88,,,,,,,,1.6,0.9,1.3*26
$QZGSA,A,3,,,,,,,,,,,,,1.6,0.9,1.3*22
$IMGSA,A,3,,,,,,,,,,,,,1.6,0.9,1.3*2D
$GPRMC,100028.00,A,4155.815195,N,01236.695061,E,000.0,,150319,,,A*7B
$GPGGA,100029.00,4155.815195,N,01236.695061,E,1,13,0.6,62.9,M,45.0,M,,*51
$GPGSV,3,1,09,13,84,012,12,28,54,059,33,15,51,305,27,05,26,201,18*73
$GPGSV,3,2,09,30,26,071,37,24,21,272,24,17,21,122,39,19,09,146,28*76
$GPGSV,3,3,09,20,07,324,17*46
$GLGSV,2,1,07,69,75,255,23,79,71,325,13,68,36,169,14,80,30,250,15*69
$GLGSV,2,2,07,70,25,326,12,88,10,074,35,87,09,030,23*56
$GPGSA,A,3,05,15,17,19,20,24,28,30,,,,,1.5,0.8,1.2*3F
$GNGSA,A,3,05,15,17,19,20,24,28,30,,,,,1.5,0.8,1.2*21
$GNGSA,A,3,68,69,80,87,88,,,,,,,,1.5,0.8,1.2*25
$QZGSA,A,3,,,,,,,,,,,,,1.5,0.8,1.2*21
$IMGSA,A,3,,,,,,,,,,,,,1.5,0.8,1.2*2E
$GPRMC,100029.00,A,4155.815195,N,01236.695061,E,000.0,,150319,,,A*7A
$GPGGA,100030.00,4155.815195,N,01236.695061,E,1,14,0.6,62.4,M,45.0,M,,*53
$GPGSV,3,1,09,13,84,012,12,28,54,059,33,15,51,305,27,05,26,201,18*73
$GPGSV,3,2,09,30,26,071,37,24,21,272,24,17,21,122,39,19,09,146,28*76
$GPGSV,3,3,09,20,07,324,18*49
$GLGSV,2,1,07,69,75,255,23,79,71,325,13,68,36,169,14,80,30,250,15*69
$GLGSV,2,2,07,70,25,326,12,88,10,074,35,87,09,030,23*56
$GPGSA,A,3,05,15,17,19,20,24,28,30,,,,,1.5,0.8,1.3*3E
$GNGSA,A,3,05,15,17,19,20,24,28,30,,,,,1.5,0.8,1.3*20
$GNGSA,A,3,68,69,79,80,87,88,,,,,,,1.5,0.8,1.3*2A
$QZGSA,A,3,,,,,,,,,,,,,1.5,0.8,1.3*20
$IMGSA,A,3,,,,,,,,,,,,,1.5,0.8,1.3*2F
$GPRMC,100030.00,A,4155.815195,N,01236.695061,E,000.0,,150319,,,A*72
$GPGGA,100031.00,4155.815195,N,01236.695061,E,1,15,0.6,61.9,M,45.0,M,,*5D
$GPGSV,3,1,09,13,84,012,12,28,54,059,33,15,51,305,27,05,26,201,17*7C
$GPGSV,3,2,09,30,26,071,37,24,21,272,24,17,21,122,39,19,09,146,28*76
$GPGSV,3,3,09,20,07,324,19*48
$GLGSV,2,1,07,69,75,255,23,79,71,325,14,68,36,169,15,80,30,250,15*6F
$GLGSV,2,2,07,70,25,326,12,88,10,074,35,87,09,030,23*56
$GPGSA,A,3,05,13,15,17,19,20,24,28,30,,,,1.8,1.0,1.5*3E
$GNGSA,A,3,05,13,15,17,19,20,24,28,30,,,,1.8,1.0,1.5*20
$GNGSA,A,3,68,69,79,80,87,88,,,,,,,1.8,1.0,1.5*28
$QZGSA,A,3,,,,,,,,,,,,,1.8,1.0,1.5*22
$IMGSA,A,3,,,,,,,,,,,,,1.8,1.0,1.5*2D
$GPRMC,100031.00,A,4155.815195,N,01236.695061,E,000.0,,150319,,,A*73
$GPGGA,100032.00,4155.815195,N,01236.695061,E,1,15,0.6,61.9,M,45.0,M,,*5E
$GPGSV,3,1,09,13,84,012,13,28,54,059,33,15,51,305,27,05,26,201,17*7D
$GPGSV,3,2,09,30,26,071,37,24,21,272,24,17,21,122,39,19,09,146,28*76
$GPGSV,3,3,09,20,07,324,18*49
$GLGSV,2,1,07,69,75,255,22,79,71,325,14,68,36,169,15,80,30,250,14*6F
$GLGSV,2,2,07,70,25,326,12,88,10,074,35,87,09,030,23*56
$GPGSA,A,3,05,13,15,17,19,20,24,28,30,,,,2.1,1.0,1.9*38
$GNGSA,A,3,05,13,15,17,19,20,24,28,30,,,,2.1,1.0,1.9*26
$GNGSA,A,3,68,69,79,80,87,88,,,,,,,2.1,1.0,1.9*2E
$QZGSA,A,3,,,,,,,,,,,,,2.1,1.0,1.9*24
$IMGSA,A,3,,,,,,,,,,,,,2.1,1.0,1.9*2B
$GPRMC,100032.00,A,4155.815195,N,01236.695061,E,000.0,,150319,,,A*70
$GPGGA,100033.00,4155.815195,N,01236.695061,E,1,16,0.6,61.9,M,45.0,M,,*5C
$GPGSV,3,1,09,13,84,012,13,28,54,059,33,15,51,305,27,05,26,201,16*7C
$GPGSV,3,2,09,30,26,071,37,24,21,272,24,17,21,122,40,19,09,146,28*78
$GPGSV,3,3,09,20,07,324,18*49
$GLGSV,2,1,07,69,75,255,22,79,71,325,14,68,36,169,15,80,30,250,14*6F
$GLGSV,2,2,07,70,25,326,12,88,10,074,35,87,09,030,23*56
$GPGSA,A,3,05,13,15,17,19,20,24,28,30,,,,1.6,0.9,1.3*3E
$GNGSA,A,3,05,13,15,17,19,20,24,28,30,,,,1.6,0.9,1.3*20
$GNGSA,A,3,68,69,70,79,80,87,88,,,,,,1.6,0.9,1.3*2F
$QZGSA,A,3,,,,,,,,,,,,,1.6,0.9,1.3*22
$IMGSA,A,3,,,,,,,,,,,,,1.6,0.9,1.3*2D
$GPRMC,100033.00,A,4155.815195,N,01236.695061,E,000.0,,150319,,,A*71
$GPGGA,100034.00,4155.815195,N,01236.695061,E,1,15,0.6,61.9,M,45.0,M,,*58
$GPGSV,3,1,09,13,84,012,13,28,54,059,33,15,51,305,26,05,26,201,16*7D
$GPGSV,3,2,09,30,26,071,37,24,21,272,24,17,21,122,40,19,09,146,28*78
$GPGSV,3,3,09,20,07,324,18*49
$GLGSV,2,1,07,69,75,255,22,79,71,325,14,68,36,169,15,80,30,250,14*6F
$GLGSV,2,2,07,70,25,326,12,88,10,074,35,87,09,030,23*56
$GPGSA,A,3,05,13,15,17,19,20,24,28,30,,,,1.8,0.9,1.5*36
$GNGSA,A,3,05,13,15,17,19,20,24,28,30,,,,1.8,0.9,1.5*28
$GNGSA,A,3,68,69,70,79,87,88,,,,,,,1.8,0.9,1.5*2F
$QZGSA,A,3,,,,,,,,,,,,,1.8,0.9,1.5*2A
$IMGSA,A,3,,,,,,,,,,,,,1.8,0.9,1.5*25
$GPRMC,100034.00,A,4155.815195,N,01236.695061,E,000.0,,150319,,,A*76
$GPGGA,100035.00,4155.815195,N,01236.695061,E,1,13,0.6,61.8,M,45.0,M,,*5E
$GPGSV,3,1,09,13,84,013,13,28,54,059,33,15,51,305,26,05,26,201,15*7F
$GPGSV,3,2,09,30,26,071,37,24,21,272,24,17,21,122,40,19,09,146,28*78
$GPGSV,3,3,09,20,07,324,18*49
$GLGSV,2,1,07,69,75,255,22,79,71,325,15,68,36,169,16,80,30,250,14*6D
$GLGSV,2,2,07,70,25,326,12,88,10,074,35,87,09,030,23*56
$GPGSA,A,3,13,15,17,19,20,24,28,30,,,,,1.9,1.2,1.5*38
$GNGSA,A,3,13,15,17,19,20,24,28,30,,,,,1.9,1.2,1.5*26
$GNGSA,A,3,68,69,79,87,88,,,,,,,,1.9,1.2,1.5*23
$QZGSA,A,3,,,,,,,,,,,,,1.9,1.2,1.5*21
$IMGSA,A,3,,,,,,,,,,,,,1.9,1.2,1.5*2E
$GPRMC,100035.00,A,4155.815195,N,01236.695061,E,000.0,,150319,,,A*77
$GPGGA,100036.00,4155.815195,N,01236.695061,E,1,13,0.6,61.8,M,45.0,M,,*5D
$GPGSV,3,1,09,13,84,013,14,28,54,059,33,15,51,305,26,05,26,201,15*78
$GPGSV,3,2,09,30,26,071,37,24,21,272,24,17,21,122,39,19,09,146,28*76
$GPGSV,3,3,09,20,07,324,18*49
$GLGSV,2,1,07,69,75,255,22,79,71,325,15,68,36,169,16,80,30,250,13*6A
$GLGSV,2,2,07,70,25,326,12,88,10,074,35,87,09,030,25*50
$GPGSA,A,3,13,15,17,19,20,24,28,30,,,,,1.9,1.2,1.5*38
$GNGSA,A,3,13,15,17,19,20,24,28,30,,,,,1.9,1.2,1.5*26
$GNGSA,A,3,68,69,79,87,88,,,,,,,,1.9,1.2,1.5*23
$QZGSA,A,3,,,,,,,,,,,,,1.9,1.2,1.5*21
$IMGSA,A,3,,,,,,,,,,,,,1.9,1.2,1.5*2E
$GPRMC,100036.00,A,4155.815195,N,01236.695061,E,000.0,,150319,,,A*74
$GPGGA,100037.00,4155.815195,N,01236.695061,E,1,14,0.6,61.8,M,45.0,M,,*5B
$GPGSV,3,1,09,13,85,013,14,28,54,059,33,15,51,305,26,05,26,201,14*78
$GPGSV,3,2,09,30,26,071,37,24,21,272,24,17,21,122,39,19,09,146,28*76
$GPGSV,3,3,09,20,07,324,17*46
$GLGSV,2,1,07,69,75,255,22,79,71,325,15,68,36,169,17,80,30,250,13*6B
$GLGSV,2,2,07,70,25,326,12,88,10,074,35,87,09,030,26*53
$GPGSA,A,3,13,15,17,19,20,24,28,30,,,,,1.7,1.1,1.3*33
$GNGSA,A,3,13,15,17,19,20,24,28,30,,,,,1.7,1.1,1.3*2D
$GNGSA,A,3,68,69,70,79,87,88,,,,,,,1.7,1.1,1.3*2F
$QZGSA,A,3,,,,,,,,,,,,,1.7,1.1,1.3*2A
$IMGSA,A,3,,,,,,,,,,,,,1.7,1.1,1.3*25
$GPRMC,100037.00,A,4155.815195,N,01236.695061,E,000.0,,150319,,,A*75
$GPGGA,100038.00,4155.815195,N,01236.695061,E,1,14,0.6,61.8,M,45.0,M,,*54
$GPGSV,3,1,09,13,85,013,14,28,54,059,33,15,51,305,26,05,26,201,14*78
$GPGSV,3,2,09,30,26,071,38,24,21,272,24,17,21,122,39,19,09,146,28*79
$GPGSV,3,3,09,20,07,324,17*46
$GLGSV,2,1,07,69,75,255,22,79,71,325,16,68,36,169,16,80,30,250,13*69
$GLGSV,2,2,07,70,25,326,12,88,10,074,35,87,09,030,26*53
$GPGSA,A,3,13,15,17,19,20,24,28,30,,,,,1.4,0.9,1.0*3A
$GNGSA,A,3,13,15,17,19,20,24,28,30,,,,,1.4,0.9,1.0*24
$GNGSA,A,3,68,69,70,79,87,88,,,,,,,1.4,0.9,1.0*26
$QZGSA,A,3,,,,,,,,,,,,,1.4,0.9,1.0*23
$IMGSA,A,3,,,,,,,,,,,,,1.4,0.9,1.0*2C
$GPRMC,100038.00,A,4155.815195,N,01236.695061,E,000.0,,150319,,,A*7A
$GPGGA,100039.00,4155.815195,N,01236.695061,E,1,14,0.6,61.8,M,45.0,M,,*55
$GPGSV,3,1,09,13,85,013,14,28,54,059,33,15,51,305,26,05,26,201,14*78
$GPGSV,3,2,09,30,26,071,38,24,21,272,24,17,21,122,39,19,09,146,28*79
$GPGSV,3,3,09,20,07,324,17*46
$GLGSV,2,1,07,69,75,255,21,79,71,325,16,68,36,169,17,80,30,250,13*6B
$GLGSV,2,2,07,70,25,326,13,88,10,074,35,87,09,030,26*52
$GPGSA,A,3,13,15,17,19,20,24,28,30,,,,,1.5,1.0,1.1*32
$GNGSA,A,3,13,15,17,19,20,24,28,30,,,,,1.5,1.0,1.1*2C
$GNGSA,A,3,68,69,70,79,87,88,,,,,,,1.5,1.0,1.1*2E
$QZGSA,A,3,,,,,,,,,,,,,1.5,1.0,1.1*2B
$IMGSA,A,3,,,,,,,,,,,,,1.5,1.0,1.1*24
$GPRMC,100039.00,A,4155.815195,N,01236.695061,E,000.0,,150319,,,A*7B
$GPGGA,100040.00,4155.815195,N,01236.695061,E,1,14,0.6,61.8,M,45.0,M,,*5B
$GPGSV,3,1,09,13,85,013,14,28,54,059,33,15,51,305,26,05,26,201,13*7F
$GPGSV,3,2,09,30,26,071,38,24,21,272,24,17,21,122,39,19,09,146,28*79
$GPGSV,3,3,09,20,07,324,18*49
$GLGSV,2,1,07,69,75,255,21,79,71,325,16,68,36,169,17,80,30,250,12*6A
$GLGSV,2,2,07,70,25,326,13,88,10,074,36,87,09,030,26*51
$GPGSA,A,3,13,15,17,19,20,24,28,30,,,,,1.4,0.9,1.0*3A
$GNGSA,A,3,13,15,17,19,20,24,28,30,,,,,1.4,0.9,1.0*24
$GNGSA,A,3,68,69,70,79,87,88,,,,,,,1.4,0.9,1.0*26
$QZGSA,A,3,,,,,,,,,,,,,1.4,0.9,1.0*23
$IMGSA,A,3,,,,,,,,,,,,,1.4,0.9,1.0*2C
$GPRMC,100040.00,A,4155.815195,N,01236.695061,E,000.0,,150319,,,A*75
$GPGGA,100041.00,4155.815195,N,01236.695061,E,1,14,0.6,61.7,M,45.0,M,,*55
$GPGSV,3,1,09,13,85,013,14,28,54,059,32,15,51,305,26,05,26,201,13*7E
$GPGSV,3,2,09,30,26,071,38,24,21,272,23,17,21,122,39,19,09,146,28*7E
$GPGSV,3,3,09,20,07,324,18*49
$GLGSV,2,1,07,69,75,255,21,79,71,325,16,68,36,169,18,80,30,250,12*65
$GLGSV,2,2,07,70,25,326,13,88,10,074,36,87,09,030,26*51
$GPGSA,A,3,13,15,17,19,20,24,28,30,,,,,1.7,1.0,1.4*35
$GNGSA,A,3,13,15,17,19,20,24,28,30,,,,,1.7,1.0,1.4*2B
$GNGSA,A,3,68,69,70,79,87,88,,,,,,,1.7,1.0,1.4*29
$QZGSA,A,3,,,,,,,,,,,,,1.7,1.0,1.4*2C
$IMGSA,A,3,,,,,,,,,,,,,1.7,1.0,1.4*23
$GPRMC,100041.00,A,4155.815195,N,01236.695061,E,000.0,,150319,,,A*74
$GPGGA,100042.00,4155.815195,N,01236.695061,E,1,14,0.6,61.7,M,45.0,M,,*56
$GPGSV,3,1,09,13,85,013,14,28,54,059,32,15,51,305,26,05,26,201,13*7E
$GPGSV,3,2,09,30,26,071,38,24,21,272,23,17,21,122,39,19,09,146,28*7E
$GPGSV,3,3,09,20,07,324,18*49
$GLGSV,2,1,07,69,75,255,21,79,71,325,16,68,36,169,19,80,30,250,12*64
$GLGSV,2,2,07,70,25,326,13,88,10,074,36,87,09,030,26*51
$GPGSA,A,3,13,15,17,19,20,24,28,30,,,,,1.5,0.9,1.2*39
$GNGSA,A,3,13,15,17,19,20,24,28,30,,,,,1.5,0.9,1.2*27
$GNGSA,A,3,68,69,70,79,87,88,,,,,,,1.5,0.9,1.2*25
$QZGSA,A,3,,,,,,,,,,,,,1.5,0.9,1.2*20
$IMGSA,A,3,,,,,,,,,,,,,1.5,0.9,1.2*2F
$GPRMC,100042.00,A,4155.815195,N,01236.695061,E,000.0,,150319,,,A*77
$GPGGA,100043.00,4155.815195,N,01236.695061,E,1,15,0.6,61.7,M,45.0,M,,*56
$GPGSV,3,1,09,13,85,013,14,28,54,059,32,15,51,305,26,05,26,201,12*7F
$GPGSV,3,2,09,30,26,071,38,24,21,272,23,17,21,122,39,19,09,146,28*7E
$GPGSV,3,3,09,20,07,324,18*49
$GLGSV,2,1,07,69,75,255,20,79,71,325,16,68,36,169,20,80,30,250,12*6F
$GLGSV,2,2,07,70,25,326,14,88,10,074,36,87,09,030,26*56
$GPGSA,A,3,05,13,15,17,19,20,24,28,30,,,,1.8,1.1,1.4*3E
$GNGSA,A,3,05,13,15,17,19,20,24,28,30,,,,1.8,1.1,1.4*20
$GNGSA,A,3,68,69,70,79,87,88,,,,,,,1.8,1.1,1.4*27
$QZGSA,A,3,,,,,,,,,,,,,1.8,1.1,1.4*22
$IMGSA,A,3,,,,,,,,,,,,,1.8,1.1,1.4*2D
$GPRMC,100043.00,A,4155.815195,N,01236.695061,E,000.0,,150319,,,A*76
$GPGGA,100044.00,4155.815195,N,01236.695061,E,1,15,0.6,61.7,M,45.0,M,,*51
$GPGSV,3,1,09,13,85,013,14,28,54,059,32,15,51,305,25,05,26,201,12*7C
$GPGSV,3,2,09,30,26,071,38,24,21,272,23,17,21,122,39,19,09,146,28*7E
$GPGSV,3,3,09,20,07,324,18*49
$GLGSV,2,1,07,69,75,255,20,79,71,325,16,68,36,169,20,80,30,250,12*6F
$GLGSV,2,2,07,70,25,326,14,88,10,074,36,87,09,030,25*55
$GPGSA,A,3,05,13,15,17,19,20,24,28,30,,,,1.8,1.1,1.4*3E
$GNGSA,A,3,05,13,15,17,19,20,24,28,30,,,,1.8,1.1,1.4*20
$GNGSA,A,3,68,69,70,79,87,88,,,,,,,1.8,1.1,1.4*27
$QZGSA,A,3,,,,,,,,,,,,,1.8,1.1,1.4*22
$IMGSA,A,3,,,,,,,,,,,,,1.8,1.1,1.4*2D
$GPRMC,100044.00,A,4155.815195,N,01236.695061,E,000.0,,150319,,,A*71
$GPGGA,100045.00,4155.815195,N,01236.695061,E,1,15,0.6,61.7,M,45.0,M,,*50
$GPGSV,3,1,09,13,85,013,14,28,54,059,32,15,51,305,25,05,26,201,13*7D
$GPGSV,3,2,09,30,26,071,38,24,21,272,23,17,21,122,39,19,09,146,28*7E
$GPGSV,3,3,09,20,07,324,19*48
$GLGSV,2,1,07,69,75,255,20,79,71,326,16,68,36,169,21,80,30,250,12*6D
$GLGSV,2,2,07,70,25,326,14,88,10,074,36,87,09,030,25*55
$GPGSA,A,3,05,13,15,17,19,20,24,28,30,,,,1.8,1.0,1.5*3E
$GNGSA,A,3,05,13,15,17,19,20,24,28,30,,,,1.8,1.0,1.5*20
$GNGSA,A,3,68,69,70,79,87,88,,,,,,,1.8,1.0,1.5*27
$QZGSA,A,3,,,,,,,,,,,,,1.8,1.0,1.5*22
$IMGSA,A,3,,,,,,,,,,,,,1.8,1.0,1.5*2D
$GPRMC,100045.00,A,4155.815195,N,01236.695061,E,000.0,,150319,,,A*70
$GPGGA,100046.00,4155.815195,N,01236.695061,E,1,15,0.6,61.6,M,45.0,M,,*52
$GPGSV,3,1,09,13,85,013,13,28,54,059,32,15,51,305,25,05,26,201,14*7D
$GPGSV,3,2,09,30,26,071,38,24,21,272,23,17,21,122,39,19,09,146,28*7E
$GPGSV,3,3,09,20,07,324,19*48
$GLGSV,2,1,07,69,75,255,20,79,71,326,16,68,36,169,21,80,30,250,11*6E
$GLGSV,2,2,07,70,25,326,14,88,10,074,36,87,09,030,25*55
$GPGSA,A,3,05,13,15,17,19,20,24,28,30,,,,1.4,0.8,1.1*3F
$GNGSA,A,3,05,13,15,17,19,20,24,28,30,,,,1.4,0.8,1.1*21
$GNGSA,A,3,68,69,70,79,87,88,,,,,,,1.4,0.8,1.1*26
$QZGSA,A,3,,,,,,,,,,,,,1.4,0.8,1.1*23
$IMGSA,A,3,,,,,,,,,,,,,1.4,0.8,1.1*2C
$GPRMC,100046.00,A,4155.815195,N,01236.695061,E,000.0,,150319,,,A*73
$GPGGA,100047.00,4155.815195,N,01236.695061,E,1,14,0.6,61.6,M,45.0,M,,*52
$GPGSV,3,1,09,13,85,013,13,28,54,059,32,15,51,305,25,05,26,201,15*7C
$GPGSV,3,2,09,30,26,071,38,24,21,272,22,17,21,122,39,19,09,146,28*7F
$GPGSV,3,3,09,20,07,324,19*48
$GLGSV,2,1,07,69,75,255,20,79,71,326,16,68,36,169,21,80,30,250,11*6E
$GLGSV,2,2,07,70,25,326,14,88,10,074,36,87,09,030,25*55
$GPGSA,A,3,05,15,17,19,20,24,28,30,,,,,1.4,0.8,1.1*3D
$GNGSA,A,3,05,15,17,19,20,24,28,30,,,,,1.4,0.8,1.1*23
$GNGSA,A,3,68,69,70,79,87,88,,,,,,,1.4,0.8,1.1*26
$QZGSA,A,3,,,,,,,,,,,,,1.4,0.8,1.1*23
$IMGSA,A,3,,,,,,,,,,,,,1.4,0.8,1.1*2C
$GPRMC,100047.00,A,4155.815195,N,01236.695061,E,000.0,,150319,,,A*72
$GPGGA,100048.00,4155.815195,N,01236.695061,E,1,15,0.6,61.6,M,45.0,M,,*5C
$GPGSV,3,1,09,13,85,013,13,28,54,059,32,15,51,305,25,05,26,201,16*7F
$GPGSV,3,2,09,30,26,071,39,24,21,272,22,17,21,122,39,19,09,146,28*7E
$GPGSV,3,3,09,20,07,324,19*48
$GLGSV,2,1,07,69,75,254,20,79,71,326,16,68,36,169,21,80,30,250,11*6F
$GLGSV,2,2,07,70,25,326,14,88,10,074,36,87,09,030,25*55
$GPGSA,A,3,05,13,15,17,19,20,24,28,30,,,,1.5,0.9,1.2*3C
$GNGSA,A,3,05,13,15,17,19,20,24,28,30,,,,1.5,0.9,1.2*22
$GNGSA,A,3,68,69,70,79,87,88,,,,,,,1.5,0.9,1.2*25
$QZGSA,A,3,,,,,,,,,,,,,1.5,0.9,1.2*20
$IMGSA,A,3,,,,,,,,,,,,,1.5,0.9,1.2*2F
$GPRMC,100048.00,A,4155.815195,N,01236.695061,E,000.0,,150319,,,A*7D
$GPGGA,100049.00,4155.815195,N,01236.695061,E,1,15,0.6,61.6,M,45.0,M,,*5D
$GPGSV,3,1,09,13,85,013,13,28,54,059,32,15,51,305,25,05,26,201,17*7E
$GPGSV,3,2,09,30,26,071,39,24,21,272,22,17,21,122,38,19,09,146,28*7F
$GPGSV,3,3,09,20,07,324,20*42
$GLGSV,2,1,07,69,75,254,20,79,71,326,16,68,36,169,22,80,30,250,11*6C
$GLGSV,2,2,07,70,25,326,14,88,10,074,36,87,09,030,25*55
$GPGSA,A,3,05,13,15,17,19,20,24,28,30,,,,1.5,0.9,1.1*3F
$GNGSA,A,3,05,13,15,17,19,20,24,28,30,,,,1.5,0.9,1.1*21
$GNGSA,A,3,68,69,70,79,87,88,,,,,,,1.5,0.9,1.1*26
$QZGSA,A,3,,,,,,,,,,,,,1.5,0.9,1.1*23
$IMGSA,A,3,,,,,,,,,,,,,1.5,0.9,1.1*2C
$GPRMC,100049.00,A,4155.815195,N,01236.695061,E,000.0,,150319,,,A*7C
$GPGGA,100050.00,4155.815195,N,01236.695061,E,1,15,0.6,61.5,M,45.0,M,,*56
$GPGSV,3,1,09,13,85,014,14,28,54,059,32,15,51,305,25,05,26,201,18*71
$GPGSV,3,2,09,30,26,071,39,24,21,272,22,17,21,122,38,19,09,146,28*7F
$GPGSV,3,3,09,20,07,324,20*42
$GLGSV,2,1,07,69,75,254,20,79,71,326,18,68,36,169,22,80,30,250,12*61
$GLGSV,2,2,07,70,25,326,14,88,10,074,36,87,09,030,25*55
$GPGSA,A,3,05,13,15,17,19,20,24,28,30,,,,1.5,0.9,1.1*3F
$GNGSA,A,3,05,13,15,17,19,20,24,28,30,,,,1.5,0.9,1.1*21
$GNGSA,A,3,68,69,70,79,87,88,,,,,,,1.5,0.9,1.1*26
$QZGSA,A,3,,,,,,,,,,,,,1.5,0.9,1.1*23
$IMGSA,A,3,,,,,,,,,,,,,1.5,0.9,1.1*2C
$GPRMC,100050.00,A,4155.815195,N,01236.695061,E,000.0,,150319,,,A*74
$GPGGA,100051.00,4155.815195,N,01236.695061,E,1,15,0.6,61.5,M,45.0,M,,*57
$GPGSV,3,1,09,13,85,014,15,28,54,059,31,15,51,305,25,05,26,201,20*78
$GPGSV,3,2,09,30,26,071,39,24,21,272,22,17,21,122,38,19,09,146,28*7F
$GPGSV,3,3,09,20,07,324,20*42
$GLGSV,2,1,07,69,75,254,19,79,71,326,18,68,36,169,22,80,30,250,12*6B
$GLGSV,2,2,07,70,25,326,14,88,10,074,36,87,09,030,25*55
$GPGSA,A,3,05,13,15,17,19,20,24,28,30,,,,1.5,1.0,1.2*34
$GNGSA,A,3,05,13,15,17,19,20,24,28,30,,,,1.5,1.0,1.2*2A
$GNGSA,A,3,68,69,70,79,87,88,,,,,,,1.5,1.0,1.2*2D
$QZGSA,A,3,,,,,,,,,,,,,1.5,1.0,1.2*28
$IMGSA,A,3,,,,,,,,,,,,,1.5,1.0,1.2*27
$GPRMC,100051.00,A,4155.815195,N,01236.695061,E,000.0,,150319,,,A*75
$GPGGA,100052.00,4155.815195,N,01236.695061,E,1,15,0.6,61.5,M,45.0,M,,*54
$GPGSV,3,1,09,13,85,014,16,28,54,059,31,15,51,305,25,05,26,201,21*7A
$GPGSV,3,2,09,30,26,071,39,24,21,272,22,17,21,122,38,19,09,146,28*7F
$GPGSV,3,3,09,20,07,324,19*48
$GLGSV,2,1,07,69,75,254,19,79,71,326,19,68,36,169,22,80,30,250,11*69
$GLGSV,2,2,07,70,25,326,13,88,10,074,36,87,09,030,25*52
$GPGSA,A,3,05,13,15,17,19,20,24,28,30,,,,1.5,1.0,1.2*34
$GNGSA,A,3,05,13,15,17,19,20,24,28,30,,,,1.5,1.0,1.2*2A
$GNGSA,A,3,68,69,70,79,87,88,,,,,,,1.5,1.0,1.2*2D
$QZGSA,A,3,,,,,,,,,,,,,1.5,1.0,1.2*28
$IMGSA,A,3,,,,,,,,,,,,,1.5,1.0,1.2*27
$GPRMC,100052.00,A,4155.815195,N,01236.695061,E,000.0,,150319,,,A*76
$GPGGA,100053.00,4155.815195,N,01236.695061,E,1,14,0.8,61.5,M,45.0,M,,*5A
$GPGSV,3,1,09,13,85,014,16,28,54,059,31,15,51,305,25,05,26,201,21*7A
$GPGSV,3,2,09,30,26,071,39,24,21,273,22,17,21,122,38,19,09,146,28*7E
$GPGSV,3,3,09,20,07,324,19*48
$GLGSV,2,1,07,69,74,254,19,79,71,326,19,68,36,169,22,80,30,250,11*68
$GLGSV,2,2,07,70,25,326,13,88,10,074,36,87,09,030,25*52
$GPGSA,A,3,05,13,15,17,19,20,24,28,30,,,,2.7,1.5,2.2*33
$GNGSA,A,3,05,13,15,17,19,20,24,28,30,,,,2.7,1.5,2.2*2D
$GNGSA,A,3,68,69,79,87,88,,,,,,,,2.7,1.5,2.2*2D
$QZGSA,A,3,,,,,,,,,,,,,2.7,1.5,2.2*2F
$IMGSA,A,3,,,,,,,,,,,,,2.7,1.5,2.2*20
$GPRMC,100053.00,A,4155.815195,N,01236.695061,E,000.0,,150319,,,A*77
$GPGGA,100054.00,4155.815195,N,01236.695061,E,1,14,0.6,61.5,M,45.0,M,,*53
$GPGSV,3,1,09,13,85,014,16,28,54,059,31,15,51,305,25,05,26,201,21*7A
$GPGSV,3,2,09,30,26,071,39,24,21,273,22,17,21,122,38,19,09,146,28*7E
$GPGSV,3,3,09,20,07,324,20*42
$GLGSV,2,1,07,69,74,254,19,79,71,326,19,68,36,169,22,80,30,250,11*68
$GLGSV,2,2,07,70,25,326,13,88,10,074,36,87,09,030,25*52
$GPGSA,A,3,05,13,15,17,19,20,24,28,30,,,,1.7,1.0,1.4*30
$GNGSA,A,3,05,13,15,17,19,20,24,28,30,,,,1.7,1.0,1.4*2E
$GNGSA,A,3,68,69,79,87,88,,,,,,,,1.7,1.0,1.4*2E
$QZGSA,A,3,,,,,,,,,,,,,1.7,1.0,1.4*2C
$IMGSA,A,3,,,,,,,,,,,,,1.7,1.0,1.4*23
$GPRMC,100054.00,A,4155.815195,N,01236.695061,E,000.0,,150319,,,A*70
$GPGGA,100055.00,4155.815195,N,01236.695061,E,1,15,0.6,61.5,M,45.0,M,,*53
$GPGSV,3,1,09,13,85,014,16,28,54,059,31,15,51,305,24,05,26,201,21*7B
$GPGSV,3,2,09,30,26,071,39,24,21,273,21,17,21,122,38,19,09,146,28*7D
$GPGSV,3,3,09,20,07,324,20*42
$GLGSV,2,1,07,69,74,254,19,79,71,326,19,68,36,169,22,80,30,250,12*6B
$GLGSV,2,2,07,70,25,326,13,88,10,074,36,87,09,030,25*52
$GPGSA,A,3,05,13,15,17,19,20,24,28,30,,,,1.7,1.0,1.4*30
$GNGSA,A,3,05,13,15,17,19,20,24,28,30,,,,1.7,1.0,1.4*2E
$GNGSA,A,3,68,69,79,80,87,88,,,,,,,1.7,1.0,1.4*26
$QZGSA,A,3,,,,,,,,,,,,,1.7,1.0,1.4*2C
$IMGSA,A,3,,,,,,,,,,,,,1.7,1.0,1.4*23
$GPRMC,100055.00,A,4155.815195,N,01236.695061,E,000.0,,150319,,,A*71
$GPGGA,100056.00,4155.815195,N,01236.695061,E,1,15,0.6,61.5,M,45.0,M,,*50
$GPGSV,3,1,09,13,85,014,16,28,54,059,31,15,51,305,24,05,26,201,22*78
$GPGSV,3,2,09,30,26,071,39,24,21,273,21,17,21,122,38,19,09,146,29*7C
$GPGSV,3,3,09,20,07,324,20*42
$GLGSV,2,1,07,69,74,254,18,79,71,326,19,68,36,169,22,80,30,250,12*6A
$GLGSV,2,2,07,70,25,326,13,88,10,074,36,87,09,030,24*53
$GPGSA,A,3,05,13,15,17,19,20,24,28,30,,,,1.7,1.0,1.4*30
$GNGSA,A,3,05,13,15,17,19,20,24,28,30,,,,1.7,1.0,1.4*2E
$GNGSA,A,3,68,69,79,80,87,88,,,,,,,1.7,1.0,1.4*26
$QZGSA,A,3,,,,,,,,,,,,,1.7,1.0,1.4*2C
$IMGSA,A,3,,,,,,,,,,,,,1.7,1.0,1.4*23
$GPRMC,100056.00,A,4155.815195,N,01236.695061,E,000.0,,150319,,,A*72
$GPGGA,100057.00,4155.815195,N,01236.695061,E,1,15,0.6,61.5,M,45.0,M,,*51
$GPGSV,3,1,09,13,85,014,16,28,54,059,31,15,51,305,24,05,26,201,21*7B
$GPGSV,3,2,09,30,26,071,39,24,21,273,21,17,21,122,38,19,09,146,29*7C
$GPGSV,3,3,09,20,07,324,20*42
$GLGSV,2,1,07,69,74,254,18,79,71,326,19,68,36,169,22,80,30,250,12*6A
$GLGSV,2,2,07,70,25,326,13,88,10,074,36,87,09,030,24*53
$GPGSA,A,3,05,13,15,17,19,20,24,28,30,,,,1.7,1.0,1.4*30
$GNGSA,A,3,05,13,15,17,19,20,24,28,30,,,,1.7,1.0,1.4*2E
$GNGSA,A,3,68,69,79,80,87,88,,,,,,,1.7,1.0,1.4*26
$QZGSA,A,3,,,,,,,,,,,,,1.7,1.0,1.4*2C
$IMGSA,A,3,,,,,,,,,,,,,1.7,1.0,1.4*23
$GPRMC,100057.00,A,4155.815195,N,01236.695061,E,000.0,,150319,,,A*73
$GPGGA,100058.00,4155.815195,N,01236.695061,E,1,15,0.6,61.4,M,45.0,M,,*5F
$GPGSV,3,1,09,13,85,014,16,28,54,059,31,15,51,305,24,05,26,201,22*78
$GPGSV,3,2,09,30,26,071,39,17,22,122,38,24,21,273,21,19,09,146,29*7F
$GPGSV,3,3,09,20,07,324,21*43
$GLGSV,2,1,07,69,74,254,18,79,71,326,19,68,36,169,22,80,30,250,14*6C
$GLGSV,2,2,07,70,25,326,12,88,10,074,36,87,09,030,23*55
$GPGSA,A,3,05,13,15,17,19,20,24,28,30,,,,1.7,1.0,1.4*30
$GNGSA,A,3,05,13,15,17,19,20,24,28,30,,,,1.7,1.0,1.4*2E
$GNGSA,A,3,68,69,79,80,87,88,,,,,,,1.7,1.0,1.4*26
$QZGSA,A,3,,,,,,,,,,,,,1.7,1.0,1.4*2C
$IMGSA,A,3,,,,,,,,,,,,,1.7,1.0,1.4*23
$GPRMC,100058.00,A,4155.815195,N,01236.695061,E,000.0,,150319,,,A*7C
$GPGGA,100059.00,4155.815195,N,01236.695061,E,1,15,0.6,61.4,M,45.0,M,,*5E
$GPGSV,3,1,09,13,85,014,16,28,54,059,31,15,51,305,24,05,26,201,22*78
$GPGSV,3,2,09,30,26,071,39,17,22,122,38,24,21,273,21,19,09,146,29*7F
$GPGSV,3,3,09,20,07,324,21*43
$GLGSV,2,1,07,69,74,254,17,79,71,326,19,68,36,169,22,80,30,250,14*63
$GLGSV,2,2,07,70,25,326,12,88,10,074,36,87,09,030,23*55
$GPGSA,A,3,05,13,15,17,19,20,24,28,30,,,,1.6,0.9,1.2*3F
$GNGSA,A,3,05,13,15,17,19,20,24,28,30,,,,1.6,0.9,1.2*21
$GNGSA,A,3,68,69,79,80,87,88,,,,,,,1.6,0.9,1.2*29
$QZGSA,A,3,,,,,,,,,,,,,1.6,0.9,1.2*23
$IMGSA,A,3,,,,,,,,,,,,,1.6,0.9,1.2*2C
$GPRMC,100059.00,A,4155.815195,N,01236.695061,E,000.0,,150319,,,A*7D
$GPGGA,100100.00,4155.815195,N,01236.695061,E,1,15,0.6,61.3,M,45.0,M,,*54
$GPGSV,3,1,09,13,85,014,16,28,54,059,31,15,51,305,24,05,26,201,22*78
$GPGSV,3,2,09,30,26,071,39,17,22,122,38,24,21,273,21,19,09,146,29*7F
$GPGSV,3,3,09,20,07,324,20*42
$GLGSV,2,1,07,69,74,254,17,79,71,326,19,68,36,169,22,80,30,250,14*63
$GLGSV,2,2,07,70,25,326,12,88,10,074,36,87,09,030,22*54
$GPGSA,A,3,05,13,15,17,19,20,24,28,30,,,,1.7,1.3,1.2*35
$GNGSA,A,3,05,13,15,17,19,20,24,28,30,,,,1.7,1.3,1.2*2B
$GNGSA,A,3,68,69,79,80,87,88,,,,,,,1.7,1.3,1.2*23
$QZGSA,A,3,,,,,,,,,,,,,1.7,1.3,1.2*29
$IMGSA,A,3,,,,,,,,,,,,,1.7,1.3,1.2*26
$GPRMC,100100.00,A,4155.815195,N,01236.695061,E,000.0,,150319,,,A*70
$GPGGA,100101.00,4155.815195,N,01236.695061,E,1,15,0.6,61.3,M,45.0,M,,*55
$GPGSV,3,1,09,13,85,014,16,28,54,059,31,15,51,305,24,05,26,201,22*78
$GPGSV,3,2,09,30,26,071,39,17,22,122,38,24,21,273,21,19,09,146,29*7F
$GPGSV,3,3,09,20,07,324,20*42
$GLGSV,2,1,07,69,74,254,17,79,71,326,19,68,36,169,22,80,30,251,14*62
$GLGSV,2,2,07,70,25,326,12,88,10,074,36,87,09,030,22*54
$GPGSA,A,3,05,13,15,17,19,20,24,28,30,,,,1.7,1.2,1.1*37
$GNGSA,A,3,05,13,15,17,19,20,24,28,30,,,,1.7,1.2,1.1*29
$GNGSA,A,3,68,69,79,80,87,88,,,,,,,1.7,1.2,1.1*21
$QZGSA,A,3,,,,,,,,,,,,,1.7,1.2,1.1*2B
$IMGSA,A,3,,,,,,,,,,,,,1.7,1.2,1.1*24
$GPRMC,100101.00,A,4155.815195,N,01236.695061,E,000.0,,150319,,,A*71
$GPGGA,100102.00,4155.815195,N,01236.695061,E,1,15,1.6,61.3,M,45.0,M,,*57
$GPGSV,3,1,09,13,85,014,16,28,54,059,31,15,51,305,24,05,26,201,22*78
$GPGSV,3,2,09,30,26,071,39,17,22,122,38,24,21,273,20,19,09,146,29*7E
$GPGSV,3,3,09,20,07,324,21*43
$GLGSV,2,1,07,69,74,254,17,79,71,326,19,68,36,169,21,80,30,251,14*61
$GLGSV,2,2,07,70,25,326,12,88,10,074,36,87,09,030,22*54
$GPGSA,A,3,05,13,15,17,19,20,24,28,30,,,,1.4,0.9,1.1*3E
$GNGSA,A,3,05,13,15,17,19,20,24,28,30,,,,1.4,0.9,1.1*20
$GNGSA,A,3,68,69,79,80,87,88,,,,,,,1.4,0.9,1.1*28
$QZGSA,A,3,,,,,,,,,,,,,1.4,0.9,1.1*22
$IMGSA,A,3,,,,,,,,,,,,,1.4,0.9,1.1*2D
$GPRMC,100102.00,A,4155.815195,N,01236.695061,E,000.0,,150319,,,A*72
$GPGGA,100103.00,4155.815195,N,01236.695061,E,1,15,3.2,61.2,M,45.0,M,,*51
$GPGSV,3,1,09,13,85,014,16,28,54,058,32,15,51,305,23,05,26,201,22*7D
$GPGSV,3,2,09,30,26,071,39,17,22,122,38,24,21,273,20,19,09,146,29*7E
$GPGSV,3,3,09,20,07,324,21*43
$GLGSV,2,1,07,69,74,254,16,79,71,326,19,68,36,169,21,80,30,251,13*67
$GLGSV,2,2,07,70,25,326,12,88,10,074,36,87,09,030,21*57
$GPGSA,A,3,05,13,15,17,19,20,24,28,30,,,,1.7,1.3,1.2*35
$GNGSA,A,3,05,13,15,17,19,20,24,28,30,,,,1.7,1.3,1.2*2B
$GNGSA,A,3,68,69,79,80,87,88,,,,,,,1.7,1.3,1.2*23
$QZGSA,A,3,,,,,,,,,,,,,1.7,1.3,1.2*29
$IMGSA,A,3,,,,,,,,,,,,,1.7,1.3,1.2*26
$GPRMC,100103.00,A,4155.815195,N,01236.695061,E,000.0,,150319,,,A*73
$GPGGA,100104.00,4155.815195,N,01236.695061,E,1,15,3.2,61.2,M,45.0,M,,*56
$GPGSV,3,1,09,13,85,015,16,28,54,058,32,15,51,305,23,05,26,201,21*7F
$GPGSV,3,2,09,30,26,071,39,17,22,122,38,24,21,273,20,19,09,146,29*7E
$GPGSV,3,3,09,20,07,324,21*43
$GLGSV,2,1,07,69,74,254,16,79,71,326,19,68,36,169,22,80,30,251,13*64
$GLGSV,2,2,07,70,25,326,12,88,10,074,36,87,09,030,21*57
$GPGSA,A,3,05,13,15,17,19,20,24,28,30,,,,1.5,0.9,1.2*3C
$GNGSA,A,3,05,13,15,17,19,20,24,28,30,,,,1.5,0.9,1.2*22
$GNGSA,A,3,68,69,79,80,87,88,,,,,,,1.5,0.9,1.2*2A
$QZGSA,A,3,,,,,,,,,,,,,1.5,0.9,1.2*20
$IMGSA,A,3,,,,,,,,,,,,,1.5,0.9,1.2*2F
$GPRMC,100104.00,A,4155.815195,N,01236.695061,E,000.0,,150319,,,A*74
$GPGGA,100105.00,4155.815195,N,01236.695061,E,1,15,3.2,61.2,M,45.0,M,,*57
$GPGSV,3,1,09,13,85,015,16,28,54,058,32,15,51,305,23,05,26,201,21*7F
$GPGSV,3,2,09,30,26,071,39,17,22,122,38,24,21,273,20,19,09,146,29*7E
$GPGSV,3,3,09,20,07,324,21*43
$GLGSV,2,1,07,69,74,254,16,79,71,326,18,68,36,169,22,80,30,251,13*65
$GLGSV,2,2,07,70,25,326,12,88,10,074,36,87,09,030,21*57
$GPGSA,A,3,05,13,15,17,19,20,24,28,30,,,,1.5,0.9,1.2*3C
$GNGSA,A,3,05,13,15,17,19,20,24,28,30,,,,1.5,0.9,1.2*22
$GNGSA,A,3,68,69,79,80,87,88,,,,,,,1.5,0.9,1.2*2A
$QZGSA,A,3,,,,,,,,,,,,,1.5,0.9,1.2*20
$IMGSA,A,3,,,,,,,,,,,,,1.5,0.9,1.2*2F
$GPRMC,100105.00,A,4155.815195,N,01236.695061,E,000.0,,150319,,,A*75
$GPGGA,100106.00,4155.815195,N,01236.695061,E,1,15,3.2,61.2,M,45.0,M,,*54
$GPGSV,3,1,09,13,85,015,16,28,54,058,32,15,51,305,23,05,26,201,21*7F
$GPGSV,3,2,09,30,26,071,40,17,22,122,38,24,21,273,20,19,09,146,29*70
$GPGSV,3,3,09,20,07,324,21*43
$GLGSV,2,1,07,69,74,254,16,79,71,326,18,68,36,169,22,80,30,251,13*65
$GLGSV,2,2,07,70,25,326,11,88,10,074,36,87,09,030,21*54
$GPGSA,A,3,05,13,15,17,19,20,24,28,30,,,,1.7,1.3,1.2*35
$GNGSA,A,3,05,13,15,17,19,20,24,28,30,,,,1.7,1.3,1.2*2B
$GNGSA,A,3,68,69,79,80,87,88,,,,,,,1.7,1.3,1.2*23
$QZGSA,A,3,,,,,,,,,,,,,1.7,1.3,1.2*29
$IMGSA,A,3,,,,,,,,,,,,,1.7,1.3,1.2*26
$GPRMC,100106.00,A,4155.815195,N,01236.695061,E,000.0,,150319,,,A*76
$GPGGA,100107.00,4155.815195,N,01236.695061,E,1,14,3.2,61.1,M,45.0,M,,*57
$GPGSV,3,1,09,13,85,015,16,28,54,058,32,15,51,305,23,05,26,201,20*7E
$GPGSV,3,2,09,30,26,071,40,17,22,122,38,24,21,273,20,19,09,146,29*70
$GPGSV,3,3,09,20,07,324,21*43
$GLGSV,2,1,07,69,74,254,17,79,71,326,17,68,36,169,22,80,30,251,13*6B
$GLGSV,2,2,07,70,25,326,11,88,10,074,36,87,09,030,22*57
$GPGSA,A,3,05,13,15,17,19,20,24,28,30,,,,1.6,1.2,1.0*37
$GNGSA,A,3,05,13,15,17,19,20,24,28,30,,,,1.6,1.2,1.0*29
$GNGSA,A,3,68,69,79,87,88,,,,,,,,1.6,1.2,1.0*29
$QZGSA,A,3,,,,,,,,,,,,,1.6,1.2,1.0*2B
$IMGSA,A,3,,,,,,,,,,,,,1.6,1.2,1.0*24
$GPRMC,100107.00,A,4155.815195,N,01236.695061,E,000.0,,150319,,,A*77
$GPGGA,100108.00,4155.815195,N,01236.695061,E,1,14,3.2,61.1,M,45.0,M,,*58
$GPGSV,3,1,09,13,85,015,17,28,54,058,32,15,51,305,23,05,26,201,20*7F
$GPGSV,3,2,09,30,26,071,40,17,22,122,38,24,21,273,19,19,09,146,29*7A
$GPGSV,3,3,09,20,07,324,21*43
$GLGSV,2,1,07,69,74,254,17,79,71,326,17,68,36,169,22,80,30,251,13*6B
$GLGSV,2,2,07,70,26,326,11,88,10,074,36,87,09,030,21*57
$GPGSA,A,3,05,13,15,17,19,20,24,28,30,,,,1.5,1.1,1.1*36
$GNGSA,A,3,05,13,15,17,19,20,24,28,30,,,,1.5,1.1,1.1*28
$GNGSA,A,3,68,69,79,87,88,,,,,,,,1.5,1.1,1.1*28
$QZGSA,A,3,,,,,,,,,,,,,1.5,1.1,1.1*2A
$IMGSA,A,3,,,,,,,,,,,,,1.5,1.1,1.1*25
$GPRMC,100108.00,A,4155.815195,N,01236.695061,E,000.0,,150319,,,A*78
$GPGGA,100109.00,4155.815195,N,01236.695061,E,1,15,3.2,61.1,M,45.0,M,,*58
$GPGSV,3,1,09,13,85,015,17,28,54,058,32,15,51,305,23,05,26,201,19*75
$GPGSV,3,2,09,30,26,071,40,17,22,122,38,24,21,273,19,19,09,146,29*7A
$GPGSV,3,3,09,20,07,324,21*43
$GLGSV,2,1,07,69,74,254,17,79,71,326,17,68,36,169,22,80,30,251,13*6B
$GLGSV,2,2,07,70,26,326,11,88,10,074,36,87,09,030,22*54
$GPGSA,A,3,05,13,15,17,19,20,24,28,30,,,,1.4,0.9,1.1*3E
$GNGSA,A,3,05,13,15,17,19,20,24,28,30,,,,1.4,0.9,1.1*20
$GNGSA,A,3,68,69,79,80,87,88,,,,,,,1.4,0.9,1.1*28
$QZGSA,A,3,,,,,,,,,,,,,1.4,0.9,1.1*22
$IMGSA,A,3,,,,,,,,,,,,,1.4,0.9,1.1*2D
$GPRMC,100109.00,A,4155.815195,N,01236.695061,E,000.0,,150319,,,A*79
$GPGGA,100110.00,4155.815195,N,01236.695061,E,1,14,3.2,61.1,M,45.0,M,,*51
$GPGSV,3,1,09,13,85,015,18,28,54,058,32,15,51,305,23,05,26,201,18*7B
$GPGSV,3,2,09,30,26,071,40,17,22,122,38,24,21,273,19,19,09,146,29*7A
$GPGSV,3,3,09,20,07,324,21*43
$GLGSV,2,1,07,69,74,254,19,79,71,326,17,68,36,169,21,80,30,251,13*66
$GLGSV,2,2,07,70,26,326,11,88,10,074,36,87,09,030,23*55
$GPGSA,A,3,05,13,15,17,19,20,24,28,30,,,,1.6,1.1,1.2*36
$GNGSA,A,3,05,13,15,17,19,20,24,28,30,,,,1.6,1.1,1.2*28
$GNGSA,A,3,68,69,79,87,88,,,,,,,,1.6,1.1,1.2*28
$QZGSA,A,3,,,,,,,,,,,,,1.6,1.1,1.2*2A
$IMGSA,A,3,,,,,,,,,,,,,1.6,1.1,1.2*25
$GPRMC,100110.00,A,4155.815195,N,01236.695061,E,000.0,,150319,,,A*71
$GPGGA,100111.00,4155.815195,N,01236.695061,E,1,14,3.2,61.1,M,45.0,M,,*50
$GPGSV,3,1,09,13,85,015,18,28,54,058,32,15,51,305,23,05,26,201,18*7B
$GPGSV,3,2,09,30,26,071,40,17,22,122,38,24,21,273,19,19,09,146,29*7A
$GPGSV,3,3,09,20,07,324,21*43
$GLGSV,2,1,07,69,74,254,19,79,71,326,17,68,36,169,21,80,30,251,12*67
$GLGSV,2,2,07,70,26,326,11,88,10,074,36,87,09,030,23*55
$GPGSA,A,3,05,13,15,17,19,20,24,28,30,,,,1.4,0.9,1.0*3F
$GNGSA,A,3,05,13,15,17,19,20,24,28,30,,,,1.4,0.9,1.0*21
$GNGSA,A,3,68,69,79,87,88,,,,,,,,1.4,0.9,1.0*21
$QZGSA,A,3,,,,,,,,,,,,,1.4,0.9,1.0*23
$IMGSA,A,3,,,,,,,,,,,,,1.4,0.9,1.0*2C
$GPRMC,100111.00,A,4155.815195,N,01236.695061,E,000.0,,150319,,,A*70
$GPGGA,100112.00,4155.815195,N,01236.695061,E,1,14,3.2,61.1,M,45.0,M,,*53
$GPGSV,3,1,09,13,85,015,19,28,54,058,32,15,51,305,23,05,26,201,17*75
$GPGSV,3,2,09,30,26,071,40,17,22,122,38,24,21,273,19,19,09,146,29*7A
$GPGSV,3,3,09,20,07,324,20*42
$GLGSV,2,1,07,69,74,254,19,79,71,326,17,68,36,169,21,80,30,251,12*67
$GLGSV,2,2,07,70,26,326,11,88,10,074,36,87,09,030,23*55
$GPGSA,A,3,05,13,15,17,19,20,24,28,30,,,,1.7,1.2,1.2*34
$GNGSA,A,3,05,13,15,17,19,20,24,28,30,,,,1.7,1.2,1.2*2A
$GNGSA,A,3,68,69,79,87,88,,,,,,,,1.7,1.2,1.2*2A
$QZGSA,A,3,,,,,,,,,,,,,1.7,1.2,1.2*28
$IMGSA,A,3,,,,,,,,,,,,,1.7,1.2,1.2*27
$GPRMC,100112.00,A,4155.815195,N,01236.695061,E,000.0,,150319,,,A*73
$GPGGA,100113.00,4155.815195,N,01236.695061,E,1,14,3.2,61.1,M,45.0,M,,*52
$GPGSV,3,1,09,13,85,015,19,28,54,058,32,15,51,305,24,05,26,201,17*72
$GPGSV,3,2,09,30,26,071,40,17,22,122,38,24,21,273,19,19,09,146,29*7A
$GPGSV,3,3,09,20,07,324,20*42
$GLGSV,2,1,07,69,74,254,20,79,71,326,16,68,36,169,21,80,30,251,12*6C
$GLGSV,2,2,07,70,26,326,12,88,10,074,36,87,09,030,23*56
$GPGSA,A,3,05,13,15,17,19,20,24,28,30,,,,1.6,1.1,1.1*35
$GNGSA,A,3,05,13,15,17,19,20,24,28,30,,,,1.6,1.1,1.1*2B
$GNGSA,A,3,68,69,79,87,88,,,,,,,,1.6,1.1,1.1*2B
$QZGSA,A,3,,,,,,,,,,,,,1.6,1.1,1.1*29
$IMGSA,A,3,,,,,,,,,,,,,1.6,1.1,1.1*26
$GPRMC,100113.00,A,4155.815195,N,01236.695061,E,000.0,,150319,,,A*72
$GPGGA,100114.00,4155.815195,N,01236.695061,E,1,14,3.2,61.0,M,45.0,M,,*54
$GPGSV,3,1,09,13,85,015,19,28,54,058,32,15,51,305,24,05,26,201,17*72
$GPGSV,3,2,09,30,26,071,40,17,22,122,38,24,21,273,19,19,09,146,29*7A
$GPGSV,3,3,09,20,07,324,20*42
$GLGSV,2,1,07,69,74,254,21,79,71,326,16,68,36,169,21,80,30,251,12*6D
$GLGSV,2,2,07,70,26,326,12,88,10,074,36,87,09,030,22*57
$GPGSA,A,3,05,13,15,17,19,20,24,28,30,,,,2.0,1.5,1.3*36
$GNGSA,A,3,05,13,15,17,19,20,24,28,30,,,,2.0,1.5,1.3*28
$GNGSA,A,3,68,69,79,87,88,,,,,,,,2.0,1.5,1.3*28
$QZGSA,A,3,,,,,,,,,,,,,2.0,1.5,1.3*2A
$IMGSA,A,3,,,,,,,,,,,,,2.0,1.5,1.3*25
$GPRMC,100114.00,A,4155.815195,N,01236.695061,E,000.0,,150319,,,A*75
$GPGGA,100115.00,4155.815195,N,01236.695061,E,1,14,3.2,61.0,M,45.0,M,,*55
$GPGSV,3,1,09,13,85,015,19,28,54,058,32,15,51,305,24,05,26,201,16*73
$GPGSV,3,2,09,30,26,071,40,17,22,122,38,24,21,273,19,19,09,146,28*7B
$GPGSV,3,3,09,20,07,324,20*42
$GLGSV,2,1,07,69,74,254,21,79,71,326,16,68,36,169,21,80,30,251,12*6D
$GLGSV,2,2,07,70,26,326,12,88,10,074,36,87,09,030,22*57
$GPGSA,A,3,05,13,15,17,19,20,24,28,30,,,,1.7,1.2,1.1*37
$GNGSA,A,3,05,13,15,17,19,20,24,28,30,,,,1.7,1.2,1.1*29
$GNGSA,A,3,68,69,79,87,88,,,,,,,,1.7,1.2,1.1*29
$QZGSA,A,3,,,,,,,,,,,,,1.7,1.2,1.1*2B
$IMGSA,A,3,,,,,,,,,,,,,1.7,1.2,1.1*24
$GPRMC,100115.00,A,4155.815195,N,01236.695061,E,000.0,,150319,,,A*74
$GPGGA,100116.00,4155.815195,N,01236.695061,E,1,14,3.2,61.0,M,45.0,M,,*56
$GPGSV,3,1,09,13,85,015,18,28,54,058,32,15,51,305,24,05,26,201,16*72
$GPGSV,3,2,09,30,26,071,40,17,22,122,38,24,21,273,19,19,09,146,28*7B
$GPGSV,3,3,09,20,07,324,20*42
$GLGSV,2,1,07,69,74,253,21,79,71,326,16,68,36,169,21,80,30,251,12*6A
$GLGSV,2,2,07,70,26,326,11,88,10,074,36,87,09,030,22*54
$GPGSA,A,3,05,13,15,17,19,20,24,28,30,,,,2.0,1.5,1.3*36
$GNGSA,A,3,05,13,15,17,19,20,24,28,30,,,,2.0,1.5,1.3*28
$GNGSA,A,3,68,69,79,87,88,,,,,,,,2.0,1.5,1.3*28
$QZGSA,A,3,,,,,,,,,,,,,2.0,1.5,1.3*2A
$IMGSA,A,3,,,,,,,,,,,,,2.0,1.5,1.3*25
$GPRMC,100116.00,A,4155.815195,N,01236.695061,E,000.0,,150319,,,A*77
$GPGGA,100117.00,4155.815195,N,01236.695061,E,1,14,3.2,61.0,M,45.0,M,,*57
$GPGSV,3,1,09,13,85,015,18,28,54,058,33,15,51,305,25,05,26,201,16*72
$GPGSV,3,2,09,30,26,071,41,17,22,122,38,24,21,273,19,19,09,146,28*7A
$GPGSV,3,3,09,20,07,324,19*48
$GLGSV,2,1,07,69,74,253,21,79,71,326,16,68,35,169,21,80,30,251,12*69
$GLGSV,2,2,07,70,26,326,11,88,10,074,36,87,09,030,21*57
$GPGSA,A,3,05,13,15,17,19,20,24,28,30,,,,1.7,1.2,1.1*37
$GNGSA,A,3,05,13,15,17,19,20,24,28,30,,,,1.7,1.2,1.1*29
$GNGSA,A,3,68,69,79,87,88,,,,,,,,1.7,1.2,1.1*29
$QZGSA,A,3,,,,,,,,,,,,,1.7,1.2,1.1*2B
$IMGSA,A,3,,,,,,,,,,,,,1.7,1.2,1.1*24
$GPRMC,100117.00,A,4155.815195,N,01236.695061,E,000.0,,150319,,,A*76
$GPGGA,100118.00,4155.815195,N,01236.695061,E,1,15,3.2,61.0,M,45.0,M,,*59
$GPGSV,3,1,09,13,85,016,18,28,54,058,32,15,51,305,25,05,26,201,16*70
$GPGSV,3,2,09,30,26,071,41,17,22,122,38,24,21,273,19,19,09,146,28*7A
$GPGSV,3,3,09,20,07,324,19*48
$GLGSV,2,1,07,69,74,253,21,79,71,326,17,68,35,169,21,80,30,251,12*68
$GLGSV,2,2,07,70,26,326,11,88,10,074,36,87,09,030,21*57
$GPGSA,A,3,05,13,15,17,19,20,24,28,30,,,,1.5,0.9,1.2*3C
$GNGSA,A,3,05,13,15,17,19,20,24,28,30,,,,1.5,0.9,1.2*22
$GNGSA,A,3,68,69,79,80,87,88,,,,,,,1.5,0.9,1.2*2A
$QZGSA,A,3,,,,,,,,,,,,,1.5,0.9,1.2*20
$IMGSA,A,3,,,,,,,,,,,,,1.5,0.9,1.2*2F
$GPRMC,100118.00,A,4155.815195,N,01236.695061,E,000.0,,150319,,,A*79
$GPGGA,100119.00,4155.815195,N,01236.695061,E,1,15,3.2,61.0,M,45.0,M,,*58
$GPGSV,3,1,09,13,85,016,18,28,54,058,32,15,51,305,24,05,26,201,15*72
$GPGSV,3,2,09,30,26,071,41,17,22,122,38,24,21,273,20,19,09,146,27*7F
$GPGSV,3,3,09,20,07,324,19*48
$GLGSV,2,1,07,69,74,253,20,79,71,326,18,68,35,169,20,80,30,251,12*67
$GLGSV,2,2,07,70,26,326,11,88,10,074,36,87,09,030,21*57
$GPGSA,A,3,05,13,15,17,19,20,24,28,30,,,,1.7,1.0,1.4*30
$GNGSA,A,3,05,13,15,17,19,20,24,28,30,,,,1.7,1.0,1.4*2E
$GNGSA,A,3,68,69,79,80,87,88,,,,,,,1.7,1.0,1.4*26
$QZGSA,A,3,,,,,,,,,,,,,1.7,1.0,1.4*2C
$IMGSA,A,3,,,,,,,,,,,,,1.7,1.0,1.4*23
$GPRMC,100119.00,A,4155.815195,N,01236.695061,E,000.0,,150319,,,A*78
$GPGGA,100120.00,4155.815195,N,01236.695061,E,1,14,3.2,60.9,M,45.0,M,,*5B
$GPGSV,3,1,09,13,85,016,18,28,54,058,32,15,51,305,24,05,26,201,15*72
$GPGSV,3,2,09,30,26,071,41,17,22,122,38,24,21,273,20,19,09,146,27*7F
$GPGSV,3,3,09,20,07,324,19*48
$GLGSV,2,1,07,69,74,253,20,79,71,327,19,68,35,169,20,80,30,251,12*67
$GLGSV,2,2,07,70,26,326,11,88,10,074,36,87,09,030,20*56
$GPGSA,A,3,05,13,15,17,19,20,24,28,30,,,,1.7,1.1,1.2*37
$GNGSA,A,3,05,13,15,17,19,20,24,28,30,,,,1.7,1.1,1.2*29
$GNGSA,A,3,68,69,79,87,88,,,,,,,,1.7,1.1,1.2*29
$QZGSA,A,3,,,,,,,,,,,,,1.7,1.1,1.2*2B
$IMGSA,A,3,,,,,,,,,,,,,1.7,1.1,1.2*24
$GPRMC,100120.00,A,4155.815195,N,01236.695061,E,000.0,,150319,,,A*72
$GPGGA,100121.00,4155.815195,N,01236.695061,E,1,14,3.2,60.9,M,45.0,M,,*5A
$GPGSV,3,1,09,13,85,016,18,28,54,058,32,15,51,305,24,05,26,201,15*72
$GPGSV,3,2,09,30,26,071,41,17,22,122,38,24,21,273,20,19,09,146,27*7F
$GPGSV,3,3,09,20,07,324,18*49
$GLGSV,2,1,07,69,74,253,20,79,71,327,20,68,35,169,20,80,30,251,12*6D
$GLGSV,2,2,07,70,26,326,11,88,10,074,36,87,09,030,20*56
$GPGSA,A,3,05,13,15,17,19,20,24,28,30,,,,1.5,1.0,1.2*34
$GNGSA,A,3,05,13,15,17,19,20,24,28,30,,,,1.5,1.0,1.2*2A
$GNGSA,A,3,68,69,79,87,88,,,,,,,,1.5,1.0,1.2*2A
$QZGSA,A,3,,,,,,,,,,,,,1.5,1.0,1.2*28
$IMGSA,A,3,,,,,,,,,,,,,1.5,1.0,1.2*27
$GPRMC,100121.00,A,4155.815195,N,01236.695061,E,000.0,,150319,,,A*73
$GPGGA,100122.00,4155.815195,N,01236.695061,E,1,14,3.2,60.9,M,45.0,M,,*59
$GPGSV,3,1,09,13,85,016,17,28,54,058,32,15,51,305,24,05,26,201,15*7D
$GPGSV,3,2,09,30,26,071,41,17,22,122,38,24,21,273,20,19,09,146,27*7F
$GPGSV,3,3,09,20,07,324,18*49
$GLGSV,2,1,07,69,74,253,20,79,71,327,20,68,35,169,20,80,30,251,12*6D
$GLGSV,2,2,07,70,26,326,11,88,10,074,36,87,09,030,20*56
$GPGSA,A,3,05,13,15,17,19,20,24,28,30,,,,1.5,1.0,1.2*34
$GNGSA,A,3,05,13,15,17,19,20,24,28,30,,,,1.5,1.0,1.2*2A
$GNGSA,A,3,68,69,79,87,88,,,,,,,,1.5,1.0,1.2*2A
$QZGSA,A,3,,,,,,,,,,,,,1.5,1.0,1.2*28
$IMGSA,A,3,,,,,,,,,,,,,1.5,1.0,1.2*27
$GPRMC,100122.00,A,4155.815195,N,01236.695061,E,000.0,,150319,,,A*70
$GPGGA,100123.00,4155.815195,N,01236.695061,E,1,14,3.2,60.9,M,45.0,M,,*58
$GPGSV,3,1,09,13,85,016,17,28,54,058,32,15,51,305,24,05,26,201,15*7D
$GPGSV,3,2,09,30,26,071,41,17,22,122,38,24,21,273,21,19,09,146,26*7F
$GPGSV,3,3,09,20,07,324,18*49
$GLGSV,2,1,07,69,74,253,19,79,71,327,20,68,35,169,20,80,30,251,12*67
$GLGSV,2,2,07,70,26,326,11,88,10,074,36,87,09,030,20*56
$GPGSA,A,3,05,13,15,17,19,20,24,28,30,,,,1.5,1.0,1.2*34
$GNGSA,A,3,05,13,15,17,19,20,24,28,30,,,,1.5,1.0,1.2*2A
$GNGSA,A,3,68,69,79,87,88,,,,,,,,1.5,1.0,1.2*2A
$QZGSA,A,3,,,,,,,,,,,,,1.5,1.0,1.2*28
$IMGSA,A,3,,,,,,,,,,,,,1.5,1.0,1.2*27
$GPRMC,100123.00,A,4155.815195,N,01236.695061,E,000.0,,150319,,,A*71
$GPGGA,100124.00,4155.815195,N,01236.695061,E,1,14,3.2,60.9,M,45.0,M,,*5F
$GPGSV,3,1,09,13,85,016,17,28,54,058,33,15,51,305,24,05,26,201,14*7D
$GPGSV,3,2,09,30,26,071,41,17,22,122,39,24,21,273,22,19,09,146,26*7D
$GPGSV,3,3,09,20,07,324,17*46
$GLGSV,2,1,07,69,74,253,19,79,71,327,20,68,35,169,20,80,30,251,12*67
$GLGSV,2,2,07,70,26,326,11,88,10,074,36,87,09,030,20*56
$GPGSA,A,3,05,13,15,17,19,20,24,28,30,,,,1.5,1.0,1.2*34
$GNGSA,A,3,05,13,15,17,19,20,24,28,30,,,,1.5,1.0,1.2*2A
$GNGSA,A,3,68,69,79,87,88,,,,,,,,1.5,1.0,1.2*2A
