$GPGGA,100039.00,4155.799937,N,01236.694813,E,1,07,0.6,0.0,M,45.0,M,,*6F
$GPGSV,3,1,10,05,33,205,51,30,32,066,51,17,16,127,50,24,16,267,51*7C
$GPGSV,3,2,10,20,03,328,,19,03,150,,07,02,074,,13,78,339,51*78
$GPGSV,3,3,10,28,59,069,51,15,44,307,51*71
$GLGSV,2,1,08,65,76,263,,75,70,287,,72,43,166,,74,39,036,*6C
$GLGSV,2,2,08,76,29,245,,66,21,328,,83,07,024,,84,05,076,*6C
$GPGSA,A,3,05,17,24,30,,,,,,,,,4.1,1.3,3.8*38
$GNGSA,A,3,05,17,24,30,,,,,,,,,4.1,1.3,3.8*26
$GNGSA,A,3,,,,,,,,,,,,,4.1,1.3,3.8*20
$QZGSA,A,3,,,,,,,,,,,,,4.1,1.3,3.8*22
$IMGSA,A,3,,,,,,,,,,,,,4.1,1.3,3.8*2D
$GPRMC,100039.00,A,4155.799937,N,01236.694813,E,,,110319,,,A*56
$GPGGA,100040.00,4155.794211,N,01236.691975,E,1,07,0.8,0.0,M,45.0,M,,*69
$GPGSV,3,1,10,05,33,205,51,30,32,066,51,17,16,127,51,24,16,267,51*7D
$GPGSV,3,2,10,20,03,328,,19,03,150,,07,02,074,,13,78,339,51*78
$GPGSV,3,3,10,28,59,069,51,15,44,307,51*71
$GLGSV,2,1,08,65,76,263,,75,70,287,,72,43,166,,74,39,036,*6C
$GLGSV,2,2,08,76,30,245,,66,21,328,,83,07,024,,84,05,076,*64
$GPGSA,A,3,05,17,24,30,,,,,,,,,4.1,1.3,3.8*38
$GNGSA,A,3,05,17,24,30,,,,,,,,,4.1,1.3,3.8*26
$GNGSA,A,3,,,,,,,,,,,,,4.1,1.3,3.8*20
$QZGSA,A,3,,,,,,,,,,,,,4.1,1.3,3.8*22
$IMGSA,A,3,,,,,,,,,,,,,4.1,1.3,3.8*2D
$GPRMC,100040.00,A,4155.794211,N,01236.691975,E,,,110319,,,A*5E
$GPGGA,100041.00,4155.794211,N,01236.691975,E,1,07,0.8,0.0,M,45.0,M,,*68
$GPGSV,3,1,10,05,33,205,51,30,32,066,51,17,16,127,51,24,16,267,51*7D
$GPGSV,3,2,10,20,03,328,,19,03,150,,07,02,074,,13,78,339,51*78
$GPGSV,3,3,10,28,59,069,51,15,44,307,51*71
$GLGSV,2,1,08,65,76,263,,75,70,287,,72,43,166,,74,39,036,*6C
$GLGSV,2,2,08,76,30,245,,66,21,328,,83,07,024,,84,05,076,*64
$GPGSA,A,3,05,17,24,30,,,,,,,,,4.1,1.3,3.8*38
$GNGSA,A,3,05,17,24,30,,,,,,,,,4.1,1.3,3.8*26
$GNGSA,A,3,,,,,,,,,,,,,4.1,1.3,3.8*20
$QZGSA,A,3,,,,,,,,,,,,,4.1,1.3,3.8*22
$IMGSA,A,3,,,,,,,,,,,,,4.1,1.3,3.8*2D
$GPRMC,100041.00,A,4155.794211,N,01236.691975,E,,,110319,,,A*5F
$GPGGA,100042.00,4155.794211,N,01236.691975,E,1,07,0.8,0.0,M,45.0,M,,*6B
$GPGSV,3,1,10,05,33,205,51,30,32,066,51,17,16,127,50,24,16,267,50*7D
$GPGSV,3,2,10,20,03,328,,19,03,150,,07,02,074,,13,78,339,51*78
$GPGSV,3,3,10,28,59,069,52,15,44,307,51*72
$GLGSV,2,1,08,65,76,263,,75,70,287,,72,43,166,,74,39,036,*6C
$GLGSV,2,2,08,76,30,245,,66,21,328,,83,07,024,,84,05,076,*64
$GPGSA,A,3,05,17,24,30,,,,,,,,,4.1,1.3,3.8*38
$GNGSA,A,3,05,17,24,30,,,,,,,,,4.1,1.3,3.8*26
$GNGSA,A,3,,,,,,,,,,,,,4.1,1.3,3.8*20
$QZGSA,A,3,,,,,,,,,,,,,4.1,1.3,3.8*22
$IMGSA,A,3,,,,,,,,,,,,,4.1,1.3,3.8*2D
$GPRMC,100042.00,A,4155.794211,N,01236.691975,E,,,110319,,,A*5C
$GPGGA,100043.00,4155.794211,N,01236.691975,E,1,07,0.8,0.0,M,45.0,M,,*6A
$GPGSV,3,1,10,05,33,205,51,30,32,066,51,17,16,127,51,24,16,267,50*7C
$GPGSV,3,2,10,20,03,328,,19,03,150,,07,02,074,,13,78,339,51*78
$GPGSV,3,3,10,28,59,069,52,15,44,307,51*72
$GLGSV,2,1,08,65,76,263,,75,70,287,,72,43,166,,74,39,036,*6C
$GLGSV,2,2,08,76,30,245,,66,21,328,,83,07,024,,84,05,076,*64
$GPGSA,A,3,05,17,24,30,,,,,,,,,4.1,1.3,3.8*38
$GNGSA,A,3,05,17,24,30,,,,,,,,,4.1,1.3,3.8*26
$GNGSA,A,3,,,,,,,,,,,,,4.1,1.3,3.8*20
$QZGSA,A,3,,,,,,,,,,,,,4.1,1.3,3.8*22
$IMGSA,A,3,,,,,,,,,,,,,4.1,1.3,3.8*2D
$GPRMC,100043.00,A,4155.794211,N,01236.691975,E,,,110319,,,A*5D
$GPGGA,100044.00,4155.790203,N,01236.691454,E,1,07,0.6,0.0,M,45.0,M,,*6A
$GPGSV,3,1,10,05,33,205,51,30,32,066,51,17,16,127,50,24,16,267,51*7C
$GPGSV,3,2,10,20,03,328,,19,03,150,,07,02,074,,13,78,339,51*78
$GPGSV,3,3,10,28,59,069,52,15,44,307,51*72
$GLGSV,2,1,08,65,76,263,,75,70,287,,72,43,166,,74,39,036,*6C
$GLGSV,2,2,08,76,30,245,,66,21,328,,83,07,024,,84,05,076,*64
$GPGSA,A,3,05,17,24,30,,,,,,,,,4.1,1.3,3.8*38
$GNGSA,A,3,05,17,24,30,,,,,,,,,4.1,1.3,3.8*26
$GNGSA,A,3,,,,,,,,,,,,,4.1,1.3,3.8*20
$QZGSA,A,3,,,,,,,,,,,,,4.1,1.3,3.8*22
$IMGSA,A,3,,,,,,,,,,,,,4.1,1.3,3.8*2D
$GPRMC,100044.00,A,4155.790203,N,01236.691454,E,,,110319,,,A*53
$GPGGA,100045.00,4155.793539,N,01236.692967,E,1,07,0.6,0.0,M,45.0,M,,*68
$GPGSV,3,1,10,05,33,205,51,30,32,066,51,17,16,127,50,24,16,267,50*7D
$GPGSV,3,2,10,20,03,328,,19,03,150,,07,02,074,,13,78,339,51*78
$GPGSV,3,3,10,28,59,069,52,15,44,307,51*72
$GLGSV,2,1,08,65,76,263,,75,70,287,,72,43,166,,74,39,036,*6C
$GLGSV,2,2,08,76,30,245,,66,21,328,,83,07,024,,84,05,076,*64
$GPGSA,A,3,05,17,24,30,,,,,,,,,4.1,1.3,3.8*38
$GNGSA,A,3,05,17,24,30,,,,,,,,,4.1,1.3,3.8*26
$GNGSA,A,3,,,,,,,,,,,,,4.1,1.3,3.8*20
$QZGSA,A,3,,,,,,,,,,,,,4.1,1.3,3.8*22
$IMGSA,A,3,,,,,,,,,,,,,4.1,1.3,3.8*2D
$GPRMC,100045.00,A,4155.793539,N,01236.692967,E,,,110319,,,A*51
$GPGGA,100046.00,4155.793539,N,01236.692967,E,1,07,0.6,0.0,M,45.0,M,,*6B
$GPGSV,3,1,10,05,33,205,51,30,32,066,51,17,16,127,50,24,16,267,50*7D
$GPGSV,3,2,10,20,03,328,,19,03,150,,07,02,074,,13,78,339,51*78
$GPGSV,3,3,10,28,59,069,51,15,44,307,51*71
$GLGSV,2,1,08,65,76,263,,75,70,287,,72,43,166,,74,39,036,*6C
$GLGSV,2,2,08,76,30,245,,66,21,328,,83,07,024,,84,05,076,*64
$GPGSA,A,3,05,17,24,30,,,,,,,,,4.1,1.3,3.8*38
$GNGSA,A,3,05,17,24,30,,,,,,,,,4.1,1.3,3.8*26
$GNGSA,A,3,,,,,,,,,,,,,4.1,1.3,3.8*20
$QZGSA,A,3,,,,,,,,,,,,,4.1,1.3,3.8*22
$IMGSA,A,3,,,,,,,,,,,,,4.1,1.3,3.8*2D
$GPRMC,100046.00,A,4155.793539,N,01236.692967,E,,,110319,,,A*52
$GPGGA,100047.00,4155.797312,N,01236.694588,E,1,07,0.6,0.0,M,45.0,M,,*6A
$GPGSV,3,1,10,05,33,205,51,30,32,066,51,17,16,127,50,24,16,267,50*7D
$GPGSV,3,2,10,19,04,150,,20,03,328,,07,02,074,,13,78,339,51*7F
$GPGSV,3,3,10,28,59,069,51,15,44,307,51*71
$GLGSV,2,1,08,65,76,263,,75,70,287,,72,43,166,,74,39,036,*6C
$GLGSV,2,2,08,76,30,245,,66,21,328,,83,07,024,,84,05,076,*64
$GPGSA,A,3,05,17,24,30,,,,,,,,,4.1,1.3,3.8*38
$GNGSA,A,3,05,17,24,30,,,,,,,,,4.1,1.3,3.8*26
$GNGSA,A,3,,,,,,,,,,,,,4.1,1.3,3.8*20
$QZGSA,A,3,,,,,,,,,,,,,4.1,1.3,3.8*22
$IMGSA,A,3,,,,,,,,,,,,,4.1,1.3,3.8*2D
$GPRMC,100047.00,A,4155.797312,N,01236.694588,E,,,110319,,,A*53
$GPGGA,100048.00,4155.803400,N,01236.696730,E,1,07,1.2,0.0,M,45.0,M,,*65
$GPGSV,3,1,10,05,33,205,51,30,32,066,51,17,16,127,50,24,16,267,50*7D
$GPGSV,3,2,10,19,04,150,,20,03,328,,07,02,074,,13,78,339,51*7F
$GPGSV,3,3,10,28,59,069,51,15,44,307,51*71
$GLGSV,2,1,08,65,76,263,,75,70,287,,72,43,166,,74,39,036,*6C
$GLGSV,2,2,08,76,30,245,,66,21,328,,83,07,024,,84,05,076,*64
$GPGSA,A,3,05,17,24,30,,,,,,,,,4.1,1.3,3.8*38
$GNGSA,A,3,05,17,24,30,,,,,,,,,4.1,1.3,3.8*26
$GNGSA,A,3,,,,,,,,,,,,,4.1,1.3,3.8*20
$QZGSA,A,3,,,,,,,,,,,,,4.1,1.3,3.8*22
$IMGSA,A,3,,,,,,,,,,,,,4.1,1.3,3.8*2D
$GPRMC,100048.00,A,4155.803400,N,01236.696730,E,000.9,,110319,,,A*7E
$GPGGA,100049.00,4155.803400,N,01236.696730,E,1,07,1.2,0.0,M,45.0,M,,*64
$GPGSV,3,1,10,05,33,204,51,30,32,066,51,17,16,127,50,24,16,267,50*7C
$GPGSV,3,2,10,19,04,150,,20,03,328,,07,02,074,,13,78,339,51*7F
$GPGSV,3,3,10,28,59,068,51,15,44,307,51*70
$GLGSV,2,1,08,65,76,263,,75,70,287,,72,43,166,,74,39,036,*6C
$GLGSV,2,2,08,76,30,245,,66,21,328,,83,07,024,,84,05,076,*64
$GPGSA,A,3,05,17,24,30,,,,,,,,,4.1,1.3,3.8*38
$GNGSA,A,3,05,17,24,30,,,,,,,,,4.1,1.3,3.8*26
$GNGSA,A,3,,,,,,,,,,,,,4.1,1.3,3.8*20
$QZGSA,A,3,,,,,,,,,,,,,4.1,1.3,3.8*22
$IMGSA,A,3,,,,,,,,,,,,,4.1,1.3,3.8*2D
$GPRMC,100049.00,A,4155.803400,N,01236.696730,E,000.0,,110319,,,A*76
$GPGGA,100050.00,4155.806249,N,01236.696579,E,1,07,1.2,0.0,M,45.0,M,,*6D
$GPGSV,3,1,10,05,33,204,51,30,32,066,51,17,16,127,50,24,16,267,50*7C
$GPGSV,3,2,10,19,04,150,,20,03,328,,07,02,074,,13,78,339,51*7F
$GPGSV,3,3,10,28,59,068,51,15,44,307,51*70
$GLGSV,2,1,08,65,76,263,,75,70,287,,72,43,166,,74,39,036,*6C
$GLGSV,2,2,08,76,30,245,,66,21,328,,83,07,024,,84,05,076,*64
$GPGSA,A,3,05,17,24,30,,,,,,,,,4.1,1.3,3.9*39
$GNGSA,A,3,05,17,24,30,,,,,,,,,4.1,1.3,3.9*27
$GNGSA,A,3,,,,,,,,,,,,,4.1,1.3,3.9*21
$QZGSA,A,3,,,,,,,,,,,,,4.1,1.3,3.9*23
$IMGSA,A,3,,,,,,,,,,,,,4.1,1.3,3.9*2C
$GPRMC,100050.00,A,4155.806249,N,01236.696579,E,001.1,,110319,,,A*7F
$GPGGA,100051.00,4155.806379,N,01236.696295,E,1,07,1.2,0.0,M,45.0,M,,*6B
$GPGSV,3,1,10,05,33,204,51,30,32,066,51,17,16,127,50,24,16,267,50*7C
$GPGSV,3,2,10,19,04,150,,20,03,328,,07,02,074,,13,78,339,51*7F
$GPGSV,3,3,10,28,59,068,51,15,44,307,51*70
$GLGSV,2,1,08,65,76,263,,75,70,287,,72,43,166,,74,39,036,*6C
$GLGSV,2,2,08,76,30,245,,66,21,328,,83,07,024,,84,05,076,*64
$GPGSA,A,3,05,17,24,30,,,,,,,,,4.1,1.3,3.9*39
$GNGSA,A,3,05,17,24,30,,,,,,,,,4.1,1.3,3.9*27
$GNGSA,A,3,,,,,,,,,,,,,4.1,1.3,3.9*21
$QZGSA,A,3,,,,,,,,,,,,,4.1,1.3,3.9*23
$IMGSA,A,3,,,,,,,,,,,,,4.1,1.3,3.9*2C
$GPRMC,100051.00,A,4155.806379,N,01236.696295,E,,,110319,,,A*57
$GPGGA,100052.00,4155.805962,N,01236.696561,E,1,07,1.2,0.0,M,45.0,M,,*67
$GPGSV,3,1,10,05,33,204,51,30,32,066,51,17,16,127,51,24,16,267,50*7D
$GPGSV,3,2,10,19,04,150,,20,03,328,,07,02,074,,13,78,339,51*7F
$GPGSV,3,3,10,28,59,068,51,15,44,307,51*70
$GLGSV,2,1,08,65,76,263,,75,70,287,,72,43,166,,74,38,036,*6D
$GLGSV,2,2,08,76,30,245,,66,21,328,,83,07,024,,84,05,076,*64
$GPGSA,A,3,05,17,24,30,,,,,,,,,4.1,1.3,3.9*39
$GNGSA,A,3,05,17,24,30,,,,,,,,,4.1,1.3,3.9*27
$GNGSA,A,3,,,,,,,,,,,,,4.1,1.3,3.9*21
$QZGSA,A,3,,,,,,,,,,,,,4.1,1.3,3.9*23
$IMGSA,A,3,,,,,,,,,,,,,4.1,1.3,3.9*2C
$GPRMC,100052.00,A,4155.805962,N,01236.696561,E,001.5,,110319,,,A*71
$GPGGA,100053.00,4155.805962,N,01236.696561,E,1,07,1.2,0.0,M,45.0,M,,*66
$GPGSV,3,1,10,05,33,204,51,30,32,066,51,17,16,127,51,24,16,267,50*7D
$GPGSV,3,2,10,19,04,150,,20,03,328,,07,02,075,,13,78,339,51*7E
$GPGSV,3,3,10,28,59,068,51,15,44,307,51*70
$GLGSV,2,1,08,65,76,263,,75,70,287,,72,43,166,,74,38,036,*6D
$GLGSV,2,2,08,76,30,245,,66,21,328,,83,07,024,,84,05,076,*64
$GPGSA,A,3,05,17,24,30,,,,,,,,,4.1,1.3,3.9*39
$GNGSA,A,3,05,17,24,30,,,,,,,,,4.1,1.3,3.9*27
$GNGSA,A,3,,,,,,,,,,,,,4.1,1.3,3.9*21
$QZGSA,A,3,,,,,,,,,,,,,4.1,1.3,3.9*23
$IMGSA,A,3,,,,,,,,,,,,,4.1,1.3,3.9*2C
$GPRMC,100053.00,A,4155.805962,N,01236.696561,E,,,110319,,,A*5A
$GPGGA,100054.00,4155.805962,N,01236.696561,E,1,07,1.2,0.0,M,45.0,M,,*61
$GPGSV,3,1,10,05,33,204,51,30,32,066,51,17,16,127,51,24,16,267,50*7D
$GPGSV,3,2,10,19,04,150,,20,03,328,,07,02,075,,13,78,339,51*7E
$GPGSV,3,3,10,28,59,068,51,15,44,307,51*70
$GLGSV,2,1,08,65,76,262,,75,70,287,,72,43,166,,74,38,036,*6C
$GLGSV,2,2,08,76,30,245,,66,21,328,,83,07,024,,84,05,076,*64
$GPGSA,A,3,05,17,24,30,,,,,,,,,4.1,1.3,3.9*39
$GNGSA,A,3,05,17,24,30,,,,,,,,,4.1,1.3,3.9*27
$GNGSA,A,3,,,,,,,,,,,,,4.1,1.3,3.9*21
$QZGSA,A,3,,,,,,,,,,,,,4.1,1.3,3.9*23
$IMGSA,A,3,,,,,,,,,,,,,4.1,1.3,3.9*2C
$GPRMC,100054.00,A,4155.805962,N,01236.696561,E,,,110319,,,A*5D
$GPGGA,100055.00,4155.805962,N,01236.696561,E,1,07,1.2,0.0,M,45.0,M,,*60
$GPGSV,3,1,10,05,33,204,51,30,32,066,51,17,16,127,51,24,16,268,50*72
$GPGSV,3,2,10,19,04,150,,20,03,328,,07,02,075,,13,78,339,51*7E
$GPGSV,3,3,10,28,59,068,51,15,44,307,51*70
$GLGSV,2,1,08,65,76,262,,75,70,287,,72,43,166,,74,38,036,*6C
$GLGSV,2,2,08,76,30,245,,66,21,328,,83,07,024,,84,05,076,*64
$GPGSA,A,3,05,17,24,30,,,,,,,,,4.1,1.3,3.9*39
$GNGSA,A,3,05,17,24,30,,,,,,,,,4.1,1.3,3.9*27
$GNGSA,A,3,,,,,,,,,,,,,4.1,1.3,3.9*21
$QZGSA,A,3,,,,,,,,,,,,,4.1,1.3,3.9*23
$IMGSA,A,3,,,,,,,,,,,,,4.1,1.3,3.9*2C
$GPRMC,100055.00,A,4155.805962,N,01236.696561,E,,,110319,,,A*5C
$GPGGA,100056.00,4155.799087,N,01236.693966,E,1,07,1.2,0.0,M,45.0,M,,*65
$GPGSV,3,1,10,05,33,204,51,30,32,066,51,17,16,127,50,24,16,268,50*73
$GPGSV,3,2,10,19,04,150,,20,03,328,,07,02,075,,13,78,339,51*7E
$GPGSV,3,3,10,28,59,068,51,15,44,307,51*70
$GLGSV,2,1,08,65,76,262,,75,70,288,,72,43,166,,74,38,036,*63
$GLGSV,2,2,08,76,30,245,,66,21,328,,83,07,024,,84,05,076,*64
$GPGSA,A,3,05,17,24,30,,,,,,,,,4.1,1.3,3.9*39
$GNGSA,A,3,05,17,24,30,,,,,,,,,4.1,1.3,3.9*27
$GNGSA,A,3,,,,,,,,,,,,,4.1,1.3,3.9*21
$QZGSA,A,3,,,,,,,,,,,,,4.1,1.3,3.9*23
$IMGSA,A,3,,,,,,,,,,,,,4.1,1.3,3.9*2C
$GPRMC,100056.00,A,4155.799087,N,01236.693966,E,,,110319,,,A*59
$GPGGA,100057.00,4155.799087,N,01236.693966,E,1,07,1.2,0.0,M,45.0,M,,*64
$GPGSV,3,1,10,05,33,204,51,30,32,066,51,17,16,127,50,24,16,268,50*73
$GPGSV,3,2,10,19,04,150,,20,03,328,,07,02,075,,13,78,339,51*7E
$GPGSV,3,3,10,28,59,068,51,15,44,307,51*70
$GLGSV,2,1,08,65,76,262,,75,70,288,,72,43,166,,74,38,036,*63
$GLGSV,2,2,08,76,30,245,,66,21,328,,83,07,024,,84,05,076,*64
$GPGSA,A,3,05,17,24,30,,,,,,,,,4.1,1.3,3.9*39
$GNGSA,A,3,05,17,24,30,,,,,,,,,4.1,1.3,3.9*27
$GNGSA,A,3,,,,,,,,,,,,,4.1,1.3,3.9*21
$QZGSA,A,3,,,,,,,,,,,,,4.1,1.3,3.9*23
$IMGSA,A,3,,,,,,,,,,,,,4.1,1.3,3.9*2C
$GPRMC,100057.00,A,4155.799087,N,01236.693966,E,,,110319,,,A*58
$GPGGA,100058.00,4155.799087,N,01236.693966,E,1,07,1.2,0.0,M,45.0,M,,*6B
$GPGSV,3,1,10,05,33,204,51,30,32,066,51,17,16,127,50,24,16,268,50*73
$GPGSV,3,2,10,19,04,150,,20,03,328,,07,02,075,,13,78,339,51*7E
$GPGSV,3,3,10,28,59,068,51,15,44,307,51*70
$GLGSV,2,1,08,65,76,262,,75,70,288,,72,43,166,,74,38,036,*63
$GLGSV,2,2,08,76,30,245,,66,21,328,,83,07,024,,84,05,076,*64
$GPGSA,A,3,05,17,24,30,,,,,,,,,4.1,1.3,3.9*39
$GNGSA,A,3,05,17,24,30,,,,,,,,,4.1,1.3,3.9*27
$GNGSA,A,3,,,,,,,,,,,,,4.1,1.3,3.9*21
$QZGSA,A,3,,,,,,,,,,,,,4.1,1.3,3.9*23
$IMGSA,A,3,,,,,,,,,,,,,4.1,1.3,3.9*2C
$GPRMC,100058.00,A,4155.799087,N,01236.693966,E,,,110319,,,A*57
$GPGGA,100059.00,4155.796881,N,01236.695178,E,1,07,1.2,0.0,M,45.0,M,,*6A
$GPGSV,3,1,10,05,33,204,51,30,32,066,51,17,16,127,50,24,16,268,50*73
$GPGSV,3,2,10,19,04,150,,20,03,328,,07,02,075,,13,78,339,51*7E
$GPGSV,3,3,10,28,59,068,51,15,44,307,51*70
$GLGSV,2,1,08,65,76,262,,75,70,288,,72,43,166,,74,38,036,*63
$GLGSV,2,2,08,76,30,245,,66,21,328,,83,07,024,,84,05,076,*64
$GPGSA,A,3,05,17,24,30,,,,,,,,,4.1,1.3,3.9*39
$GNGSA,A,3,05,17,24,30,,,,,,,,,4.1,1.3,3.9*27
$GNGSA,A,3,,,,,,,,,,,,,4.1,1.3,3.9*21
$QZGSA,A,3,,,,,,,,,,,,,4.1,1.3,3.9*23
$IMGSA,A,3,,,,,,,,,,,,,4.1,1.3,3.9*2C
$GPRMC,100059.00,A,4155.796881,N,01236.695178,E,001.8,,110319,,,A*71
$GPGGA,100100.00,4155.796881,N,01236.695178,E,1,07,0.8,0.0,M,45.0,M,,*6C
$GPGSV,3,1,10,05,33,204,51,30,32,066,51,17,16,127,50,24,16,268,50*73
$GPGSV,3,2,10,19,04,150,,20,03,328,,07,02,075,,13,78,339,51*7E
$GPGSV,3,3,10,28,59,068,51,15,44,307,51*70
$GLGSV,2,1,08,65,76,262,,75,70,288,,72,43,166,,74,38,036,*63
$GLGSV,2,2,08,76,30,245,,66,21,328,,83,07,024,,84,05,076,*64
$GPGSA,A,3,05,17,24,30,,,,,,,,,4.1,1.3,3.9*39
$GNGSA,A,3,05,17,24,30,,,,,,,,,4.1,1.3,3.9*27
$GNGSA,A,3,,,,,,,,,,,,,4.1,1.3,3.9*21
$QZGSA,A,3,,,,,,,,,,,,,4.1,1.3,3.9*23
$IMGSA,A,3,,,,,,,,,,,,,4.1,1.3,3.9*2C
$GPRMC,100100.00,A,4155.796881,N,01236.695178,E,,,110319,,,A*5B
$GPGGA,100101.00,4155.797664,N,01236.695659,E,1,07,0.8,0.0,M,45.0,M,,*6D
$GPGSV,3,1,10,05,33,204,51,30,32,066,51,17,16,127,50,24,16,268,50*73
$GPGSV,3,2,10,19,04,150,,20,03,328,,07,02,075,,13,78,339,51*7E
$GPGSV,3,3,10,28,59,068,51,15,44,307,51*70
$GLGSV,2,1,08,65,76,262,,75,70,288,,72,43,166,,74,38,036,*63
$GLGSV,2,2,08,76,30,245,,66,21,328,,83,07,024,,84,05,076,*64
$GPGSA,A,3,05,17,24,30,,,,,,,,,4.1,1.3,3.9*39
$GNGSA,A,3,05,17,24,30,,,,,,,,,4.1,1.3,3.9*27
$GNGSA,A,3,,,,,,,,,,,,,4.1,1.3,3.9*21
$QZGSA,A,3,,,,,,,,,,,,,4.1,1.3,3.9*23
$IMGSA,A,3,,,,,,,,,,,,,4.1,1.3,3.9*2C
$GPRMC,100101.00,A,4155.797664,N,01236.695659,E,001.0,,110319,,,A*75
$GPGGA,100102.00,4155.797664,N,01236.695659,E,1,07,0.8,0.0,M,45.0,M,,*6E
$GPGSV,3,1,10,05,33,204,51,30,32,066,51,17,16,127,50,24,16,268,50*73
$GPGSV,3,2,10,19,04,150,,20,03,328,,07,02,075,,13,78,339,51*7E
$GPGSV,3,3,10,28,59,068,51,15,44,307,51*70
$GLGSV,2,1,08,65,76,262,,75,70,288,,72,43,166,,74,38,036,*63
$GLGSV,2,2,08,76,30,245,,66,21,328,,83,07,024,,84,05,076,*64
$GPGSA,A,3,05,17,24,30,,,,,,,,,4.1,1.3,3.9*39
$GNGSA,A,3,05,17,24,30,,,,,,,,,4.1,1.3,3.9*27
$GNGSA,A,3,,,,,,,,,,,,,4.1,1.3,3.9*21
$QZGSA,A,3,,,,,,,,,,,,,4.1,1.3,3.9*23
$IMGSA,A,3,,,,,,,,,,,,,4.1,1.3,3.9*2C
$GPRMC,100102.00,A,4155.797664,N,01236.695659,E,,,110319,,,A*59
$GPGGA,100103.00,4155.797664,N,01236.695659,E,1,07,0.8,0.0,M,45.0,M,,*6F
$GPGSV,3,1,10,05,33,204,51,30,32,066,51,17,16,127,50,24,16,268,50*73
$GPGSV,3,2,10,19,04,150,,20,03,328,,07,02,075,,13,78,339,51*7E
$GPGSV,3,3,10,28,59,068,51,15,44,307,51*70
$GLGSV,2,1,08,65,76,262,,75,70,288,,72,43,166,,74,38,036,*63
$GLGSV,2,2,08,76,30,245,,66,21,328,,83,07,024,,84,05,076,*64
$GPGSA,A,3,05,17,24,30,,,,,,,,,4.1,1.3,3.9*39
$GNGSA,A,3,05,17,24,30,,,,,,,,,4.1,1.3,3.9*27
$GNGSA,A,3,,,,,,,,,,,,,4.1,1.3,3.9*21
$QZGSA,A,3,,,,,,,,,,,,,4.1,1.3,3.9*23
$IMGSA,A,3,,,,,,,,,,,,,4.1,1.3,3.9*2C
$GPRMC,100103.00,A,4155.797664,N,01236.695659,E,,,110319,,,A*58
$GPGGA,100104.00,4155.799604,N,01236.694181,E,1,07,0.6,0.0,M,45.0,M,,*6D
$GPGSV,3,1,10,05,33,204,51,30,32,066,51,17,16,127,50,24,16,268,50*73
$GPGSV,3,2,10,19,04,150,,20,03,328,,07,02,075,,13,78,339,51*7E
$GPGSV,3,3,10,28,59,068,51,15,44,307,51*70
$GLGSV,2,1,08,65,76,262,,75,70,288,,72,43,166,,74,38,036,*63
$GLGSV,2,2,08,76,30,245,,66,21,328,,83,07,024,,84,05,076,*64
$GPGSA,A,3,05,17,24,30,,,,,,,,,4.1,1.3,3.9*39
$GNGSA,A,3,05,17,24,30,,,,,,,,,4.1,1.3,3.9*27
$GNGSA,A,3,,,,,,,,,,,,,4.1,1.3,3.9*21
$QZGSA,A,3,,,,,,,,,,,,,4.1,1.3,3.9*23
$IMGSA,A,3,,,,,,,,,,,,,4.1,1.3,3.9*2C
$GPRMC,100104.00,A,4155.799604,N,01236.694181,E,001.4,,110319,,,A*7F
$GPGGA,100105.00,4155.799536,N,01236.694462,E,1,07,0.6,0.0,M,45.0,M,,*66
$GPGSV,3,1,10,05,33,204,51,30,32,066,51,17,16,127,50,24,16,268,50*73
$GPGSV,3,2,10,19,04,150,,20,03,328,,07,02,075,,13,78,340,51*70
$GPGSV,3,3,10,28,59,068,51,15,44,307,51*70
$GLGSV,2,1,08,65,76,262,,75,70,288,,72,43,166,,74,38,036,*63
$GLGSV,2,2,08,76,30,245,,66,21,328,,83,07,024,,84,05,076,*64
$GPGSA,A,3,05,17,24,30,,,,,,,,,4.1,1.3,3.9*39
$GNGSA,A,3,05,17,24,30,,,,,,,,,4.1,1.3,3.9*27
$GNGSA,A,3,,,,,,,,,,,,,4.1,1.3,3.9*21
$QZGSA,A,3,,,,,,,,,,,,,4.1,1.3,3.9*23
$IMGSA,A,3,,,,,,,,,,,,,4.1,1.3,3.9*2C
$GPRMC,100105.00,A,4155.799536,N,01236.694462,E,002.3,,110319,,,A*70
$GPGGA,100106.00,4155.799536,N,01236.694462,E,1,07,0.6,0.0,M,45.0,M,,*65
$GPGSV,3,1,10,05,33,204,51,30,32,066,51,17,16,127,50,24,16,268,50*73
$GPGSV,3,2,10,19,04,150,,20,03,328,,07,02,075,,13,78,340,51*70
$GPGSV,3,3,10,28,59,068,51,15,44,307,51*70
$GLGSV,2,1,08,65,76,262,,75,70,288,,72,43,166,,74,38,036,*63
$GLGSV,2,2,08,76,30,245,,66,21,328,,83,07,024,,84,05,076,*64
$GPGSA,A,3,05,17,24,30,,,,,,,,,4.1,1.3,3.9*39
$GNGSA,A,3,05,17,24,30,,,,,,,,,4.1,1.3,3.9*27
$GNGSA,A,3,,,,,,,,,,,,,4.1,1.3,3.9*21
$QZGSA,A,3,,,,,,,,,,,,,4.1,1.3,3.9*23
$IMGSA,A,3,,,,,,,,,,,,,4.1,1.3,3.9*2C
$GPRMC,100106.00,A,4155.799536,N,01236.694462,E,,,110319,,,A*5C
$GPGGA,100107.00,4155.799536,N,01236.694462,E,1,07,0.6,0.0,M,45.0,M,,*64
$GPGSV,3,1,10,05,33,204,51,30,32,066,51,17,16,127,50,24,16,268,50*73
$GPGSV,3,2,10,19,04,150,,20,03,328,,07,02,075,,13,78,340,51*70
$GPGSV,3,3,10,28,59,068,51,15,44,307,51*70
$GLGSV,2,1,08,65,76,262,,75,70,288,,72,43,166,,74,38,036,*63
$GLGSV,2,2,08,76,30,245,,66,21,328,,83,07,024,,84,05,076,*64
$GPGSA,A,3,05,17,24,30,,,,,,,,,4.1,1.3,3.9*39
$GNGSA,A,3,05,17,24,30,,,,,,,,,4.1,1.3,3.9*27
$GNGSA,A,3,,,,,,,,,,,,,4.1,1.3,3.9*21
$QZGSA,A,3,,,,,,,,,,,,,4.1,1.3,3.9*23
$IMGSA,A,3,,,,,,,,,,,,,4.1,1.3,3.9*2C
$GPRMC,100107.00,A,4155.799536,N,01236.694462,E,,,110319,,,A*5D
$GPGGA,100108.00,4155.799670,N,01236.695509,E,1,07,0.6,0.0,M,45.0,M,,*67
$GPGSV,3,1,10,05,33,204,51,30,32,066,51,17,16,127,50,24,16,268,50*73
$GPGSV,3,2,10,19,04,150,,20,03,328,,07,02,075,,13,78,340,51*70
$GPGSV,3,3,10,28,59,068,51,15,44,307,51*70
$GLGSV,2,1,08,65,76,262,,75,70,288,,72,43,166,,74,38,036,*63
$GLGSV,2,2,08,76,30,245,,66,21,328,,83,07,024,,84,05,076,*64
$GPGSA,A,3,05,17,24,30,,,,,,,,,4.1,1.3,3.9*39
$GNGSA,A,3,05,17,24,30,,,,,,,,,4.1,1.3,3.9*27
$GNGSA,A,3,,,,,,,,,,,,,4.1,1.3,3.9*21
$QZGSA,A,3,,,,,,,,,,,,,4.1,1.3,3.9*23
$IMGSA,A,3,,,,,,,,,,,,,4.1,1.3,3.9*2C
$GPRMC,100108.00,A,4155.799670,N,01236.695509,E,001.2,,110319,,,A*73
$GPGGA,100109.00,4155.799670,N,01236.695509,E,1,07,0.6,0.0,M,45.0,M,,*66
$GPGSV,3,1,10,05,33,204,51,30,32,066,51,17,16,127,50,24,16,268,50*73
$GPGSV,3,2,10,19,04,150,,20,03,328,,07,02,075,,13,78,340,52*73
$GPGSV,3,3,10,28,59,068,51,15,44,307,51*70
$GLGSV,2,1,08,65,76,262,,75,70,288,,72,43,166,,74,38,036,*63
$GLGSV,2,2,08,76,30,245,,66,21,328,,83,07,024,,84,05,076,*64
$GPGSA,A,3,05,17,24,30,,,,,,,,,4.1,1.3,3.9*39
$GNGSA,A,3,05,17,24,30,,,,,,,,,4.1,1.3,3.9*27
$GNGSA,A,3,,,,,,,,,,,,,4.1,1.3,3.9*21
$QZGSA,A,3,,,,,,,,,,,,,4.1,1.3,3.9*23
$IMGSA,A,3,,,,,,,,,,,,,4.1,1.3,3.9*2C
$GPRMC,100109.00,A,4155.799670,N,01236.695509,E,,,110319,,,A*5F
$GPGGA,100110.00,4155.799670,N,01236.695509,E,1,07,0.6,0.0,M,45.0,M,,*6E
$GPGSV,3,1,10,05,33,204,51,30,32,066,51,17,16,127,50,24,16,268,50*73
$GPGSV,3,2,10,19,04,150,,20,03,328,,07,02,075,,13,78,340,52*73
$GPGSV,3,3,10,28,59,068,51,15,44,307,51*70
$GLGSV,2,1,08,65,76,262,,75,70,288,,72,43,166,,74,38,036,*63
$GLGSV,2,2,08,76,30,245,,66,21,328,,83,07,024,,84,05,076,*64
$GPGSA,A,3,05,17,24,30,,,,,,,,,4.1,1.3,3.9*39
$GNGSA,A,3,05,17,24,30,,,,,,,,,4.1,1.3,3.9*27
$GNGSA,A,3,,,,,,,,,,,,,4.1,1.3,3.9*21
$QZGSA,A,3,,,,,,,,,,,,,4.1,1.3,3.9*23
$IMGSA,A,3,,,,,,,,,,,,,4.1,1.3,3.9*2C
$GPRMC,100110.00,A,4155.799670,N,01236.695509,E,,,110319,,,A*57
$GPGGA,100111.00,4155.799670,N,01236.695509,E,1,07,0.6,0.0,M,45.0,M,,*6F
$GPGSV,3,1,10,05,33,204,51,30,32,066,51,17,16,127,50,24,16,268,50*73
$GPGSV,3,2,10,19,04,150,,20,03,328,,07,02,075,,13,78,340,52*73
$GPGSV,3,3,10,28,59,068,51,15,44,307,51*70
$GLGSV,2,1,08,65,76,262,,75,70,288,,72,43,166,,74,38,036,*63
$GLGSV,2,2,08,76,30,245,,66,21,328,,83,07,024,,84,05,076,*64
$GPGSA,A,3,05,17,24,30,,,,,,,,,4.1,1.3,3.9*39
$GNGSA,A,3,05,17,24,30,,,,,,,,,4.1,1.3,3.9*27
$GNGSA,A,3,,,,,,,,,,,,,4.1,1.3,3.9*21
$QZGSA,A,3,,,,,,,,,,,,,4.1,1.3,3.9*23
$IMGSA,A,3,,,,,,,,,,,,,4.1,1.3,3.9*2C
$GPRMC,100111.00,A,4155.799670,N,01236.695509,E,,,110319,,,A*56
$GPGGA,100112.00,4155.799670,N,01236.695509,E,1,07,0.6,0.0,M,45.0,M,,*6C
$GPGSV,3,1,10,05,33,204,51,30,32,066,51,17,16,127,50,24,16,268,50*73
$GPGSV,3,2,10,19,04,150,,20,03,328,,07,02,075,,13,78,340,52*73
$GPGSV,3,3,10,28,59,068,51,15,44,307,51*70
$GLGSV,2,1,08,65,76,262,,75,70,288,,72,43,166,,74,38,036,*63
$GLGSV,2,2,08,76,30,245,,66,21,328,,83,07,024,,84,05,076,*64
$GPGSA,A,3,05,17,24,30,,,,,,,,,4.1,1.3,3.9*39
$GNGSA,A,3,05,17,24,30,,,,,,,,,4.1,1.3,3.9*27
$GNGSA,A,3,,,,,,,,,,,,,4.1,1.3,3.9*21
$QZGSA,A,3,,,,,,,,,,,,,4.1,1.3,3.9*23
$IMGSA,A,3,,,,,,,,,,,,,4.1,1.3,3.9*2C
$GPRMC,100112.00,A,4155.799670,N,01236.695509,E,,,110319,,,A*55
$GPGGA,100113.00,4155.799670,N,01236.695509,E,1,07,0.6,0.0,M,45.0,M,,*6D
$GPGSV,3,1,10,05,33,204,51,30,32,066,51,17,16,127,51,24,16,268,50*72
$GPGSV,3,2,10,19,04,150,,20,03,328,,07,02,075,,13,78,340,52*73
$GPGSV,3,3,10,28,59,068,51,15,44,307,51*70
$GLGSV,2,1,08,65,76,262,,75,70,288,,72,43,166,,74,38,036,*63
$GLGSV,2,2,08,76,30,245,,66,21,328,,83,07,024,,84,05,076,*64
$GPGSA,A,3,05,17,24,30,,,,,,,,,4.1,1.3,3.9*39
$GNGSA,A,3,05,17,24,30,,,,,,,,,4.1,1.3,3.9*27
$GNGSA,A,3,,,,,,,,,,,,,4.1,1.3,3.9*21
$QZGSA,A,3,,,,,,,,,,,,,4.1,1.3,3.9*23
$IMGSA,A,3,,,,,,,,,,,,,4.1,1.3,3.9*2C
$GPRMC,100113.00,A,4155.799670,N,01236.695509,E,,,110319,,,A*54
$GPGGA,100114.00,4155.799670,N,01236.695509,E,1,07,0.6,0.0,M,45.0,M,,*6A
$GPGSV,3,1,10,05,33,204,51,30,32,066,51,17,16,127,51,24,16,268,50*72
$GPGSV,3,2,10,19,04,150,,20,03,328,,07,02,075,,13,78,340,52*73
$GPGSV,3,3,10,28,59,068,51,15,44,307,51*70
$GLGSV,2,1,08,65,76,262,,75,70,288,,72,43,166,,74,38,036,*63
$GLGSV,2,2,08,76,30,245,,66,21,328,,83,07,024,,84,05,076,*64
$GPGSA,A,3,05,17,24,30,,,,,,,,,4.1,1.3,3.9*39
$GNGSA,A,3,05,17,24,30,,,,,,,,,4.1,1.3,3.9*27
$GNGSA,A,3,,,,,,,,,,,,,4.1,1.3,3.9*21
$QZGSA,A,3,,,,,,,,,,,,,4.1,1.3,3.9*23
$IMGSA,A,3,,,,,,,,,,,,,4.1,1.3,3.9*2C
$GPRMC,100114.00,A,4155.799670,N,01236.695509,E,,,110319,,,A*53
$GPGGA,100115.00,4155.799670,N,01236.695509,E,1,07,0.6,0.0,M,45.0,M,,*6B
$GPGSV,3,1,10,05,33,204,51,30,32,066,51,17,16,127,51,24,16,268,50*72
$GPGSV,3,2,10,19,04,150,,20,03,328,,07,02,075,,13,78,340,52*73
$GPGSV,3,3,10,28,59,068,52,15,44,307,51*73
$GLGSV,2,1,08,65,76,262,,75,70,288,,72,43,166,,74,38,036,*63
$GLGSV,2,2,08,76,30,245,,66,21,328,,83,07,024,,84,05,076,*64
$GPGSA,A,3,05,17,24,30,,,,,,,,,4.1,1.3,3.9*39
$GNGSA,A,3,05,17,24,30,,,,,,,,,4.1,1.3,3.9*27
$GNGSA,A,3,,,,,,,,,,,,,4.1,1.3,3.9*21
$QZGSA,A,3,,,,,,,,,,,,,4.1,1.3,3.9*23
$IMGSA,A,3,,,,,,,,,,,,,4.1,1.3,3.9*2C
$GPRMC,100115.00,A,4155.799670,N,01236.695509,E,,,110319,,,A*52
$GPGGA,100116.00,4155.799670,N,01236.695509,E,1,07,3.2,0.0,M,45.0,M,,*6F
$GPGSV,3,1,10,05,33,204,51,30,32,066,51,17,16,127,50,24,16,268,50*73
$GPGSV,3,2,10,19,04,150,,20,03,328,,07,02,075,,13,78,340,51*70
$GPGSV,3,3,10,28,59,068,51,15,44,307,51*70
$GLGSV,2,1,08,65,76,262,,75,70,288,,72,43,166,,74,38,036,*63
$GLGSV,2,2,08,76,30,245,,66,21,328,,83,07,023,,84,05,076,*63
$GPGSA,A,3,05,17,24,30,,,,,,,,,4.2,1.3,3.9*3A
$GNGSA,A,3,05,17,24,30,,,,,,,,,4.2,1.3,3.9*24
$GNGSA,A,3,,,,,,,,,,,,,4.2,1.3,3.9*22
$QZGSA,A,3,,,,,,,,,,,,,4.2,1.3,3.9*20
$IMGSA,A,3,,,,,,,,,,,,,4.2,1.3,3.9*2F
$GPRMC,100116.00,A,4155.799670,N,01236.695509,E,,,110319,,,A*51
$GPGGA,100117.00,4155.799670,N,01236.695509,E,1,07,3.2,0.0,M,45.0,M,,*6E
$GPGSV,3,1,10,05,33,204,51,30,32,066,51,17,16,127,50,24,16,268,50*73
$GPGSV,3,2,10,19,04,150,,20,03,328,,07,02,075,,13,78,340,52*73
$GPGSV,3,3,10,28,59,068,51,15,44,307,51*70
$GLGSV,2,1,08,65,76,261,,75,70,288,,72,43,166,,74,38,036,*60
$GLGSV,2,2,08,76,30,245,,66,21,328,,83,07,023,,84,05,076,*63
$GPGSA,A,3,05,17,24,30,,,,,,,,,4.2,1.3,3.9*3A
$GNGSA,A,3,05,17,24,30,,,,,,,,,4.2,1.3,3.9*24
$GNGSA,A,3,,,,,,,,,,,,,4.2,1.3,3.9*22
$QZGSA,A,3,,,,,,,,,,,,,4.2,1.3,3.9*20
$IMGSA,A,3,,,,,,,,,,,,,4.2,1.3,3.9*2F
$GPRMC,100117.00,A,4155.799670,N,01236.695509,E,,,110319,,,A*50
$GPGGA,100118.00,4155.799670,N,01236.695509,E,1,07,3.2,0.0,M,45.0,M,,*61
$GPGSV,3,1,10,05,33,204,51,30,32,066,51,17,16,127,50,24,16,268,50*73
$GPGSV,3,2,10,19,04,150,,20,03,328,,07,02,075,,13,78,340,52*73
$GPGSV,3,3,10,28,59,068,51,15,44,307,51*70
$GLGSV,2,1,08,65,76,261,,75,70,288,,72,43,166,,74,38,036,*60
$GLGSV,2,2,08,76,30,245,,66,21,328,,83,07,023,,84,05,076,*63
$GPGSA,A,3,05,17,24,30,,,,,,,,,4.2,1.3,3.9*3A
$GNGSA,A,3,05,17,24,30,,,,,,,,,4.2,1.3,3.9*24
$GNGSA,A,3,,,,,,,,,,,,,4.2,1.3,3.9*22
$QZGSA,A,3,,,,,,,,,,,,,4.2,1.3,3.9*20
$IMGSA,A,3,,,,,,,,,,,,,4.2,1.3,3.9*2F
$GPRMC,100118.00,A,4155.799670,N,01236.695509,E,,,110319,,,A*5F
$GPGGA,100119.00,4155.799670,N,01236.695509,E,1,07,3.2,0.0,M,45.0,M,,*60
$GPGSV,3,1,10,05,33,204,51,30,32,066,51,17,16,127,50,24,16,268,50*73
$GPGSV,3,2,10,19,04,150,,20,03,328,,07,02,075,,13,78,340,52*73
$GPGSV,3,3,10,28,59,068,51,15,44,307,51*70
$GLGSV,2,1,08,65,76,261,,75,70,288,,72,43,166,,74,38,036,*60
$GLGSV,2,2,08,76,30,245,,66,21,328,,83,07,023,,84,05,076,*63
$GPGSA,A,3,05,17,24,30,,,,,,,,,4.2,1.3,3.9*3A
$GNGSA,A,3,05,17,24,30,,,,,,,,,4.2,1.3,3.9*24
$GNGSA,A,3,,,,,,,,,,,,,4.2,1.3,3.9*22
$QZGSA,A,3,,,,,,,,,,,,,4.2,1.3,3.9*20
$IMGSA,A,3,,,,,,,,,,,,,4.2,1.3,3.9*2F
$GPRMC,100119.00,A,4155.799670,N,01236.695509,E,,,110319,,,A*5E
$GPGGA,100120.00,4155.799670,N,01236.695509,E,1,07,3.2,0.0,M,45.0,M,,*6A
$GPGSV,3,1,10,05,33,204,51,30,32,066,51,17,16,127,50,24,16,268,50*73
$GPGSV,3,2,10,19,04,150,,20,03,328,,07,02,075,,13,78,340,52*73
$GPGSV,3,3,10,28,59,068,51,15,44,307,51*70
$GLGSV,2,1,08,65,76,261,,75,70,288,,72,43,166,,74,38,036,*60
$GLGSV,2,2,08,76,30,245,,66,21,328,,83,07,023,,84,05,076,*63
$GPGSA,A,3,05,17,24,30,,,,,,,,,4.2,1.3,3.9*3A
$GNGSA,A,3,05,17,24,30,,,,,,,,,4.2,1.3,3.9*24
$GNGSA,A,3,,,,,,,,,,,,,4.2,1.3,3.9*22
$QZGSA,A,3,,,,,,,,,,,,,4.2,1.3,3.9*20
$IMGSA,A,3,,,,,,,,,,,,,4.2,1.3,3.9*2F
$GPRMC,100120.00,A,4155.799670,N,01236.695509,E,,,110319,,,A*54
$GPGGA,100121.00,4155.799670,N,01236.695509,E,1,07,3.2,0.0,M,45.0,M,,*6B
$GPGSV,3,1,10,05,33,204,51,30,32,066,51,17,16,127,50,24,16,268,50*73
$GPGSV,3,2,10,19,04,150,,20,03,328,,07,02,075,,13,78,340,52*73
$GPGSV,3,3,10,28,59,068,51,15,44,307,51*70
$GLGSV,2,1,08,65,76,261,,75,70,288,,72,43,166,,74,38,036,*60
$GLGSV,2,2,08,76,30,245,,66,21,328,,83,07,023,,84,05,076,*63
$GPGSA,A,3,05,17,24,30,,,,,,,,,4.2,1.3,3.9*3A
$GNGSA,A,3,05,17,24,30,,,,,,,,,4.2,1.3,3.9*24
$GNGSA,A,3,,,,,,,,,,,,,4.2,1.3,3.9*22
$QZGSA,A,3,,,,,,,,,,,,,4.2,1.3,3.9*20
$IMGSA,A,3,,,,,,,,,,,,,4.2,1.3,3.9*2F
$GPRMC,100121.00,A,4155.799670,N,01236.695509,E,,,110319,,,A*55
$GPGGA,100122.00,4155.799670,N,01236.695509,E,1,07,3.2,0.0,M,45.0,M,,*68
$GPGSV,3,1,10,05,33,204,51,30,32,067,51,17,16,127,50,24,16,268,50*72
$GPGSV,3,2,10,19,04,150,,20,03,328,,07,02,075,,13,78,340,52*73
$GPGSV,3,3,10,28,59,068,52,15,44,307,51*73
$GLGSV,2,1,08,65,76,261,,75,70,288,,72,43,166,,74,38,036,*60
$GLGSV,2,2,08,76,30,245,,66,21,328,,83,07,023,,84,05,076,*63
$GPGSA,A,3,05,17,24,30,,,,,,,,,4.2,1.3,3.9*3A
$GNGSA,A,3,05,17,24,30,,,,,,,,,4.2,1.3,3.9*24
$GNGSA,A,3,,,,,,,,,,,,,4.2,1.3,3.9*22
$QZGSA,A,3,,,,,,,,,,,,,4.2,1.3,3.9*20
$IMGSA,A,3,,,,,,,,,,,,,4.2,1.3,3.9*2F
$GPRMC,100122.00,A,4155.799670,N,01236.695509,E,,,110319,,,A*56
$GPGGA,100123.00,4155.799670,N,01236.695509,E,1,07,3.2,0.0,M,45.0,M,,*69
$GPGSV,3,1,10,05,33,204,51,30,32,067,51,17,16,127,50,24,16,268,50*72
$GPGSV,3,2,10,19,04,150,,20,03,328,,07,02,075,,13,78,340,52*73
$GPGSV,3,3,10,28,59,068,51,15,44,307,51*70
$GLGSV,2,1,08,65,76,261,,75,70,288,,72,43,166,,74,38,036,*60
$GLGSV,2,2,08,76,30,245,,66,21,328,,83,07,023,,84,05,076,*63
$GPGSA,A,3,05,17,24,30,,,,,,,,,4.2,1.3,3.9*3A
$GNGSA,A,3,05,17,24,30,,,,,,,,,4.2,1.3,3.9*24
$GNGSA,A,3,,,,,,,,,,,,,4.2,1.3,3.9*22
$QZGSA,A,3,,,,,,,,,,,,,4.2,1.3,3.9*20
$IMGSA,A,3,,,,,,,,,,,,,4.2,1.3,3.9*2F
$GPRMC,100123.00,A,4155.799670,N,01236.695509,E,,,110319,,,A*57
$GPGGA,100124.00,4155.799670,N,01236.695509,E,1,07,3.2,0.0,M,45.0,M,,*6E
$GPGSV,3,1,10,05,33,204,51,30,32,067,51,17,16,127,50,24,16,268,50*72
$GPGSV,3,2,10,19,04,150,,20,03,328,,07,02,075,,13,78,340,52*73
$GPGSV,3,3,10,28,59,068,51,15,44,307,51*70
$GLGSV,2,1,08,65,76,261,,75,70,288,,72,43,166,,74,38,036,*60
$GLGSV,2,2,08,76,30,245,,66,21,328,,83,07,023,,84,05,076,*63
$GPGSA,A,3,05,17,24,30,,,,,,,,,4.2,1.3,3.9*3A
$GNGSA,A,3,05,17,24,30,,,,,,,,,4.2,1.3,3.9*24
$GNGSA,A,3,,,,,,,,,,,,,4.2,1.3,3.9*22
$QZGSA,A,3,,,,,,,,,,,,,4.2,1.3,3.9*20
$IMGSA,A,3,,,,,,,,,,,,,4.2,1.3,3.9*2F
$GPRMC,100124.00,A,4155.799670,N,01236.695509,E,,,110319,,,A*50
$GPGGA,100125.00,4155.799670,N,01236.695509,E,1,08,3.2,0.0,M,45.0,M,,*60
$GPGSV,3,1,10,05,33,204,51,30,32,067,51,17,16,127,50,24,16,268,50*72
$GPGSV,3,2,10,19,04,150,,20,03,328,,07,02,075,,13,78,340,52*73
$GPGSV,3,3,10,28,59,068,51,15,44,307,51*70
$GLGSV,2,1,08,65,76,261,,75,70,288,,72,43,166,,74,38,036,*60
$GLGSV,2,2,08,76,30,245,,66,21,328,,83,07,023,,84,05,076,*63
$GPGSA,A,3,05,15,17,24,30,,,,,,,,3.3,1.2,3.0*30
$GNGSA,A,3,05,15,17,24,30,,,,,,,,3.3,1.2,3.0*2E
$GNGSA,A,3,,,,,,,,,,,,,3.3,1.2,3.0*2C
$QZGSA,A,3,,,,,,,,,,,,,3.3,1.2,3.0*2E
$IMGSA,A,3,,,,,,,,,,,,,3.3,1.2,3.0*21
$GPRMC,100125.00,A,4155.799670,N,01236.695509,E,000.0,,110319,,,A*7F
$GPGGA,100126.00,4155.803490,N,01236.688431,E,1,08,3.2,0.0,M,45.0,M,,*65
$GPGSV,3,1,10,15,44,307,51,05,33,204,51,30,32,067,51,24,16,268,50*76
$GPGSV,3,2,10,17,16,127,50,19,04,150,,20,03,328,,07,02,075,*7E
$GPGSV,3,3,10,13,78,340,52,28,59,068,51*79
$GLGSV,2,1,08,65,76,261,,75,70,288,,72,43,166,,74,38,036,*60
$GLGSV,2,2,08,76,30,245,,66,21,328,,83,07,023,,84,05,076,*63
$GPGSA,A,3,05,15,17,24,30,,,,,,,,3.3,1.2,3.0*30
$GNGSA,A,3,05,15,17,24,30,,,,,,,,3.3,1.2,3.0*2E
$GNGSA,A,3,,,,,,,,,,,,,3.3,1.2,3.0*2C
$QZGSA,A,3,,,,,,,,,,,,,3.3,1.2,3.0*2E
$IMGSA,A,3,,,,,,,,,,,,,3.3,1.2,3.0*21
$GPRMC,100126.00,A,4155.803490,N,01236.688431,E,000.0,,110319,,,A*7A
$GPGGA,100127.00,4155.803490,N,01236.688431,E,1,08,3.2,0.0,M,45.0,M,,*64
$GPGSV,3,1,10,15,44,307,51,05,33,204,51,30,32,067,51,24,16,268,50*76
$GPGSV,3,2,10,17,16,127,51,19,04,150,,20,03,328,,07,02,075,*7F
$GPGSV,3,3,10,13,78,340,52,28,59,068,51*79
$GLGSV,2,1,08,65,76,261,,75,70,288,,72,43,166,,74,38,036,*60
$GLGSV,2,2,08,76,30,245,,66,21,328,,83,07,023,,84,05,076,*63
$GPGSA,A,3,05,15,17,24,30,,,,,,,,3.3,1.2,3.0*30
$GNGSA,A,3,05,15,17,24,30,,,,,,,,3.3,1.2,3.0*2E
$GNGSA,A,3,,,,,,,,,,,,,3.3,1.2,3.0*2C
$QZGSA,A,3,,,,,,,,,,,,,3.3,1.2,3.0*2E
$IMGSA,A,3,,,,,,,,,,,,,3.3,1.2,3.0*21
$GPRMC,100127.00,A,4155.803490,N,01236.688431,E,000.0,,110319,,,A*7B
$GPGGA,100128.00,4155.803490,N,01236.688431,E,1,08,3.2,0.0,M,45.0,M,,*6B
$GPGSV,3,1,10,15,44,307,51,05,33,204,51,30,32,067,51,24,16,268,50*76
$GPGSV,3,2,10,17,16,127,50,19,04,150,,20,03,328,,07,02,075,*7E
$GPGSV,3,3,10,13,78,340,52,28,59,068,51*79
$GLGSV,2,1,08,65,76,261,,75,70,288,,72,43,166,,74,38,036,*60
$GLGSV,2,2,08,76,30,245,,66,21,328,,83,07,023,,84,05,076,*63
$GPGSA,A,3,05,15,17,24,30,,,,,,,,3.3,1.2,3.1*31
$GNGSA,A,3,05,15,17,24,30,,,,,,,,3.3,1.2,3.1*2F
$GNGSA,A,3,,,,,,,,,,,,,3.3,1.2,3.1*2D
$QZGSA,A,3,,,,,,,,,,,,,3.3,1.2,3.1*2F
$IMGSA,A,3,,,,,,,,,,,,,3.3,1.2,3.1*20
$GPRMC,100128.00,A,4155.803490,N,01236.688431,E,000.0,,110319,,,A*74
$GPGGA,100129.00,4155.803490,N,01236.688431,E,1,08,3.2,0.0,M,45.0,M,,*6A
$GPGSV,3,1,10,15,44,307,51,05,33,204,51,30,32,067,51,24,16,268,50*76
$GPGSV,3,2,10,17,16,127,50,19,04,150,,20,03,328,,07,02,075,*7E
$GPGSV,3,3,10,13,78,340,52,28,59,068,51*79
$GLGSV,2,1,08,65,76,261,,75,70,288,,72,43,166,,74,38,036,*60
$GLGSV,2,2,08,76,30,245,,66,21,328,,83,07,023,,84,05,075,*60
$GPGSA,A,3,05,15,17,24,30,,,,,,,,3.3,1.2,3.1*31
$GNGSA,A,3,05,15,17,24,30,,,,,,,,3.3,1.2,3.1*2F
$GNGSA,A,3,,,,,,,,,,,,,3.3,1.2,3.1*2D
$QZGSA,A,3,,,,,,,,,,,,,3.3,1.2,3.1*2F
$IMGSA,A,3,,,,,,,,,,,,,3.3,1.2,3.1*20
$GPRMC,100129.00,A,4155.803490,N,01236.688431,E,000.0,,110319,,,A*75
$GPGGA,100130.00,4155.803490,N,01236.688431,E,1,08,3.2,0.0,M,45.0,M,,*62
$GPGSV,3,1,10,15,44,307,51,05,33,204,51,30,32,067,51,24,16,268,50*76
$GPGSV,3,2,10,17,16,127,50,19,04,150,,20,03,328,,07,02,075,*7E
$GPGSV,3,3,10,13,78,340,52,28,59,068,51*79
$GLGSV,2,1,08,65,76,261,,75,70,288,,72,43,166,,74,38,036,*60
$GLGSV,2,2,08,76,30,245,,66,21,328,,83,07,023,,84,05,075,*60
$GPGSA,A,3,05,15,17,24,30,,,,,,,,3.3,1.2,3.1*31
$GNGSA,A,3,05,15,17,24,30,,,,,,,,3.3,1.2,3.1*2F
$GNGSA,A,3,,,,,,,,,,,,,3.3,1.2,3.1*2D
$QZGSA,A,3,,,,,,,,,,,,,3.3,1.2,3.1*2F
$IMGSA,A,3,,,,,,,,,,,,,3.3,1.2,3.1*20
$GPRMC,100130.00,A,4155.803490,N,01236.688431,E,000.0,,110319,,,A*7D
$GPGGA,100131.00,4155.803490,N,01236.688431,E,1,08,3.2,0.0,M,45.0,M,,*63
$GPGSV,3,1,10,15,44,307,51,05,33,204,51,30,32,067,51,24,16,268,50*76
$GPGSV,3,2,10,17,16,127,50,19,04,150,,20,03,328,,07,02,075,*7E
$GPGSV,3,3,10,13,78,340,51,28,59,068,52*79
$GLGSV,2,1,08,65,76,261,,75,70,288,,72,43,166,,74,38,036,*60
$GLGSV,2,2,08,76,30,245,,66,21,328,,83,07,023,,84,05,075,*60
$GPGSA,A,3,05,15,17,24,30,,,,,,,,3.3,1.2,3.1*31
$GNGSA,A,3,05,15,17,24,30,,,,,,,,3.3,1.2,3.1*2F
$GNGSA,A,3,,,,,,,,,,,,,3.3,1.2,3.1*2D
$QZGSA,A,3,,,,,,,,,,,,,3.3,1.2,3.1*2F
$IMGSA,A,3,,,,,,,,,,,,,3.3,1.2,3.1*20
$GPRMC,100131.00,A,4155.803490,N,01236.688431,E,000.0,,110319,,,A*7C
$GPGGA,100132.00,4155.803490,N,01236.688431,E,1,08,3.2,0.0,M,45.0,M,,*60
$GPGSV,3,1,10,15,44,307,51,05,33,204,51,30,32,067,51,24,16,268,50*76
$GPGSV,3,2,10,17,16,127,50,19,04,150,,20,03,328,,07,02,075,*7E
$GPGSV,3,3,10,13,78,340,52,28,59,068,52*7A
$GLGSV,2,1,08,65,76,261,,75,70,289,,72,43,166,,74,38,036,*61
$GLGSV,2,2,08,76,30,245,,66,21,328,,83,07,023,,84,05,075,*60
$GPGSA,A,3,05,15,17,24,30,,,,,,,,3.3,1.2,3.1*31
$GNGSA,A,3,05,15,17,24,30,,,,,,,,3.3,1.2,3.1*2F
$GNGSA,A,3,,,,,,,,,,,,,3.3,1.2,3.1*2D
$QZGSA,A,3,,,,,,,,,,,,,3.3,1.2,3.1*2F
$IMGSA,A,3,,,,,,,,,,,,,3.3,1.2,3.1*20
$GPRMC,100132.00,A,4155.803490,N,01236.688431,E,000.0,,110319,,,A*7F
$GPGGA,100133.00,4155.803490,N,01236.688431,E,1,08,3.2,0.0,M,45.0,M,,*61
$GPGSV,3,1,10,15,44,307,51,05,33,204,51,30,32,067,51,24,16,268,50*76
$GPGSV,3,2,10,17,16,127,50,19,04,150,,20,03,328,,07,02,075,*7E
$GPGSV,3,3,10,13,78,340,52,28,59,068,52*7A
$GLGSV,2,1,08,65,76,261,,75,70,289,,72,42,166,,74,38,036,*60
$GLGSV,2,2,08,76,30,245,,66,21,328,,83,07,023,,84,05,075,*60
$GPGSA,A,3,05,15,17,24,30,,,,,,,,4.2,1.3,4.0*30
$GNGSA,A,3,05,15,17,24,30,,,,,,,,4.2,1.3,4.0*2E
$GNGSA,A,3,,,,,,,,,,,,,4.2,1.3,4.0*2C
$QZGSA,A,3,,,,,,,,,,,,,4.2,1.3,4.0*2E
$IMGSA,A,3,,,,,,,,,,,,,4.2,1.3,4.0*21
$GPRMC,100133.00,A,4155.803490,N,01236.688431,E,,,110319,,,A*50
$GPGGA,100134.00,4155.803490,N,01236.688431,E,1,08,3.2,0.0,M,45.0,M,,*66
$GPGSV,3,1,10,15,44,307,52,05,33,204,51,30,32,067,51,24,16,268,50*75
$GPGSV,3,2,10,17,16,127,50,19,04,150,,20,03,328,,07,02,075,*7E
$GPGSV,3,3,10,13,78,340,52,28,59,068,52*7A
$GLGSV,2,1,08,65,76,261,,75,70,289,,72,42,166,,74,38,036,*60
$GLGSV,2,2,08,76,30,245,,66,21,328,,83,07,023,,84,05,075,*60
$GPGSA,A,3,05,15,17,24,30,,,,,,,,4.2,1.3,4.0*30
$GNGSA,A,3,05,15,17,24,30,,,,,,,,4.2,1.3,4.0*2E
$GNGSA,A,3,,,,,,,,,,,,,4.2,1.3,4.0*2C
$QZGSA,A,3,,,,,,,,,,,,,4.2,1.3,4.0*2E
$IMGSA,A,3,,,,,,,,,,,,,4.2,1.3,4.0*21
$GPRMC,100134.00,A,4155.803490,N,01236.688431,E,,,110319,,,A*57
$GPGGA,100135.00,4155.801165,N,01236.695219,E,1,08,3.2,0.0,M,45.0,M,,*6A
$GPGSV,3,1,10,15,44,307,52,05,33,204,51,30,32,067,51,24,16,268,51*74
$GPGSV,3,2,10,17,16,127,50,19,04,150,,20,03,328,,07,02,075,*7E
$GPGSV,3,3,10,13,78,340,52,28,59,068,51*79
$GLGSV,2,1,08,65,76,261,,75,70,289,,72,42,166,,74,38,036,*60
$GLGSV,2,2,08,76,30,245,,66,21,328,,83,07,023,,84,05,075,*60
$GPGSA,A,3,05,15,17,24,30,,,,,,,,3.3,1.2,3.1*31
$GNGSA,A,3,05,15,17,24,30,,,,,,,,3.3,1.2,3.1*2F
$GNGSA,A,3,,,,,,,,,,,,,3.3,1.2,3.1*2D
$QZGSA,A,3,,,,,,,,,,,,,3.3,1.2,3.1*2F
$IMGSA,A,3,,,,,,,,,,,,,3.3,1.2,3.1*20
$GPRMC,100135.00,A,4155.801165,N,01236.695219,E,000.0,,110319,,,A*75
$GPGGA,100136.00,4155.801165,N,01236.695219,E,1,08,3.2,0.0,M,45.0,M,,*69
$GPGSV,3,1,10,15,44,307,52,05,33,204,51,30,32,067,51,24,16,268,51*74
$GPGSV,3,2,10,17,16,127,50,19,04,150,,20,03,328,,07,02,075,*7E
$GPGSV,3,3,10,13,78,340,52,28,59,068,51*79
$GLGSV,2,1,08,65,76,261,,75,70,289,,72,42,166,,74,38,036,*60
$GLGSV,2,2,08,76,30,245,,66,21,328,,83,07,023,,84,05,075,*60
$GPGSA,A,3,05,15,17,24,30,,,,,,,,3.3,1.2,3.1*31
$GNGSA,A,3,05,15,17,24,30,,,,,,,,3.3,1.2,3.1*2F
$GNGSA,A,3,,,,,,,,,,,,,3.3,1.2,3.1*2D
$QZGSA,A,3,,,,,,,,,,,,,3.3,1.2,3.1*2F
$IMGSA,A,3,,,,,,,,,,,,,3.3,1.2,3.1*20
$GPRMC,100136.00,A,4155.801165,N,01236.695219,E,000.0,,110319,,,A*76
$GPGGA,100137.00,4155.801165,N,01236.695219,E,1,08,3.2,0.0,M,45.0,M,,*68
$GPGSV,3,1,10,15,44,307,52,05,33,204,51,30,32,067,51,24,16,268,51*74
$GPGSV,3,2,10,17,16,127,50,19,04,150,,20,03,328,,07,02,075,*7E
$GPGSV,3,3,10,13,79,340,52,28,59,068,51*78
$GLGSV,2,1,08,65,76,261,,75,70,289,,72,42,166,,74,38,036,*60
$GLGSV,2,2,08,76,30,245,,66,21,328,,83,07,023,,84,05,075,*60
$GPGSA,A,3,05,15,17,24,30,,,,,,,,3.3,1.2,3.1*31
$GNGSA,A,3,05,15,17,24,30,,,,,,,,3.3,1.2,3.1*2F
$GNGSA,A,3,,,,,,,,,,,,,3.3,1.2,3.1*2D
$QZGSA,A,3,,,,,,,,,,,,,3.3,1.2,3.1*2F
$IMGSA,A,3,,,,,,,,,,,,,3.3,1.2,3.1*20
$GPRMC,100137.00,A,4155.801165,N,01236.695219,E,000.0,,110319,,,A*77
$GPGGA,100138.00,4155.801165,N,01236.695219,E,1,08,3.2,0.0,M,45.0,M,,*67
$GPGSV,3,1,10,15,44,307,51,05,33,204,51,30,32,067,51,24,16,268,51*77
$GPGSV,3,2,10,17,16,127,50,19,04,150,,20,03,328,,07,02,075,*7E
$GPGSV,3,3,10,13,79,340,52,28,59,068,51*78
$GLGSV,2,1,08,65,76,261,,75,70,289,,72,42,166,,74,38,036,*60
$GLGSV,2,2,08,76,30,245,,66,21,328,,83,07,023,,84,05,075,*60
$GPGSA,A,3,05,15,17,24,30,,,,,,,,3.3,1.2,3.1*31
$GNGSA,A,3,05,15,17,24,30,,,,,,,,3.3,1.2,3.1*2F
$GNGSA,A,3,,,,,,,,,,,,,3.3,1.2,3.1*2D
$QZGSA,A,3,,,,,,,,,,,,,3.3,1.2,3.1*2F
$IMGSA,A,3,,,,,,,,,,,,,3.3,1.2,3.1*20
$GPRMC,100138.00,A,4155.801165,N,01236.695219,E,000.0,,110319,,,A*78
$GPGGA,100139.00,4155.801165,N,01236.695219,E,1,08,3.2,0.0,M,45.0,M,,*66
$GPGSV,3,1,10,15,44,307,51,05,33,204,51,30,32,067,51,24,16,268,50*76
$GPGSV,3,2,10,17,16,127,50,19,04,150,,20,03,328,,07,02,075,*7E
$GPGSV,3,3,10,13,79,340,52,28,59,068,51*78
$GLGSV,2,1,08,65,76,261,,75,70,289,,72,42,166,,74,38,036,*60
$GLGSV,2,2,08,76,30,245,,66,21,328,,83,07,023,,84,05,075,*60
$GPGSA,A,3,05,15,17,24,30,,,,,,,,3.3,1.2,3.1*31
$GNGSA,A,3,05,15,17,24,30,,,,,,,,3.3,1.2,3.1*2F
$GNGSA,A,3,,,,,,,,,,,,,3.3,1.2,3.1*2D
$QZGSA,A,3,,,,,,,,,,,,,3.3,1.2,3.1*2F
$IMGSA,A,3,,,,,,,,,,,,,3.3,1.2,3.1*20
$GPRMC,100139.00,A,4155.801165,N,01236.695219,E,000.0,,110319,,,A*79
$GPGGA,100140.00,4155.801165,N,01236.695219,E,1,08,3.2,0.0,M,45.0,M,,*68
$GPGSV,3,1,10,15,44,307,51,05,33,204,51,30,32,067,51,24,16,268,50*76
$GPGSV,3,2,10,17,16,127,50,19,04,150,,20,03,328,,07,02,075,*7E
$GPGSV,3,3,10,13,79,340,51,28,59,068,51*7B
$GLGSV,2,1,08,65,76,261,,75,70,289,,72,42,166,,74,38,036,*60
$GLGSV,2,2,08,76,30,245,,66,21,328,,83,07,023,,84,05,075,*60
$GPGSA,A,3,05,15,17,24,30,,,,,,,,4.2,1.3,4.0*30
$GNGSA,A,3,05,15,17,24,30,,,,,,,,4.2,1.3,4.0*2E
$GNGSA,A,3,,,,,,,,,,,,,4.2,1.3,4.0*2C
$QZGSA,A,3,,,,,,,,,,,,,4.2,1.3,4.0*2E
$IMGSA,A,3,,,,,,,,,,,,,4.2,1.3,4.0*21
$GPRMC,100140.00,A,4155.801165,N,01236.695219,E,,,110319,,,A*59
$GPGGA,100141.00,4155.801165,N,01236.695219,E,1,08,3.2,0.0,M,45.0,M,,*69
$GPGSV,3,1,10,15,44,307,51,05,33,204,51,30,32,067,51,24,16,268,50*76
$GPGSV,3,2,10,17,16,127,50,19,04,150,,20,03,328,,07,02,075,*7E
$GPGSV,3,3,10,13,79,340,51,28,59,068,51*7B
$GLGSV,2,1,08,65,76,260,,75,70,289,,72,42,166,,74,38,036,*61
$GLGSV,2,2,08,76,30,245,,66,21,328,,83,07,023,,84,05,075,*60
$GPGSA,A,3,05,15,17,24,30,,,,,,,,3.3,1.2,3.1*31
$GNGSA,A,3,05,15,17,24,30,,,,,,,,3.3,1.2,3.1*2F
$GNGSA,A,3,,,,,,,,,,,,,3.3,1.2,3.1*2D
$QZGSA,A,3,,,,,,,,,,,,,3.3,1.2,3.1*2F
$IMGSA,A,3,,,,,,,,,,,,,3.3,1.2,3.1*20
$GPRMC,100141.00,A,4155.801165,N,01236.695219,E,000.0,,110319,,,A*76
$GPGGA,100142.00,4155.801165,N,01236.695219,E,1,08,3.2,0.0,M,45.0,M,,*6A
$GPGSV,3,1,10,15,44,307,51,05,33,204,51,30,32,067,51,24,16,268,50*76
$GPGSV,3,2,10,17,16,127,50,19,04,150,,20,03,328,,07,02,075,*7E
$GPGSV,3,3,10,13,79,340,51,28,59,068,51*7B
$GLGSV,2,1,08,65,76,260,,75,70,289,,72,42,166,,74,38,036,*61
$GLGSV,2,2,08,76,30,245,,66,21,328,,83,07,023,,84,05,075,*60
$GPGSA,A,3,05,15,17,24,30,,,,,,,,3.3,1.2,3.1*31
$GNGSA,A,3,05,15,17,24,30,,,,,,,,3.3,1.2,3.1*2F
$GNGSA,A,3,,,,,,,,,,,,,3.3,1.2,3.1*2D
$QZGSA,A,3,,,,,,,,,,,,,3.3,1.2,3.1*2F
$IMGSA,A,3,,,,,,,,,,,,,3.3,1.2,3.1*20
$GPRMC,100142.00,A,4155.801165,N,01236.695219,E,000.0,,110319,,,A*75
$GPGGA,100143.00,4155.801165,N,01236.695219,E,1,08,3.2,0.0,M,45.0,M,,*6B
$GPGSV,3,1,10,15,44,307,51,05,33,204,51,30,32,067,51,24,16,268,50*76
$GPGSV,3,2,10,17,16,127,50,19,04,150,,20,03,328,,07,02,075,*7E
$GPGSV,3,3,10,13,79,340,51,28,59,068,51*7B
$GLGSV,2,1,08,65,76,260,,75,70,289,,72,42,166,,74,38,036,*61
$GLGSV,2,2,08,76,30,245,,66,21,328,,83,07,023,,84,05,075,*60
$GPGSA,A,3,05,15,17,24,30,,,,,,,,3.3,1.2,3.1*31
$GNGSA,A,3,05,15,17,24,30,,,,,,,,3.3,1.2,3.1*2F
$GNGSA,A,3,,,,,,,,,,,,,3.3,1.2,3.1*2D
$QZGSA,A,3,,,,,,,,,,,,,3.3,1.2,3.1*2F
$IMGSA,A,3,,,,,,,,,,,,,3.3,1.2,3.1*20
$GPRMC,100143.00,A,4155.801165,N,01236.695219,E,000.0,,110319,,,A*74
$GPGGA,100144.00,4155.801165,N,01236.695219,E,1,08,3.2,0.0,M,45.0,M,,*6C
$GPGSV,3,1,10,15,44,307,51,05,33,204,51,30,32,067,51,24,16,268,50*76
$GPGSV,3,2,10,17,16,127,50,19,04,150,,20,03,328,,07,02,075,*7E
$GPGSV,3,3,10,13,79,340,51,28,59,068,51*7B
$GLGSV,2,1,08,65,76,260,,75,70,289,,72,42,166,,74,38,036,*61
$GLGSV,2,2,08,76,30,245,,66,21,328,,83,07,023,,84,05,075,*60
$GPGSA,A,3,05,15,17,24,30,,,,,,,,3.3,1.2,3.1*31
$GNGSA,A,3,05,15,17,24,30,,,,,,,,3.3,1.2,3.1*2F
$GNGSA,A,3,,,,,,,,,,,,,3.3,1.2,3.1*2D
$QZGSA,A,3,,,,,,,,,,,,,3.3,1.2,3.1*2F
$IMGSA,A,3,,,,,,,,,,,,,3.3,1.2,3.1*20
$GPRMC,100144.00,A,4155.801165,N,01236.695219,E,000.0,,110319,,,A*73
$GPGGA,100145.00,4155.801165,N,01236.695219,E,1,08,3.2,0.0,M,45.0,M,,*6D
$GPGSV,3,1,10,15,44,307,51,05,33,204,51,30,32,067,51,24,16,268,50*76
$GPGSV,3,2,10,17,16,127,50,19,04,150,,20,03,328,,07,02,075,*7E
$GPGSV,3,3,10,13,79,340,51,28,59,068,51*7B
$GLGSV,2,1,08,65,76,260,,75,70,289,,72,42,166,,74,38,036,*61
$GLGSV,2,2,08,76,30,245,,66,21,328,,83,07,023,,84,05,075,*60
$GPGSA,A,3,05,15,17,24,30,,,,,,,,3.3,1.2,3.1*31
$GNGSA,A,3,05,15,17,24,30,,,,,,,,3.3,1.2,3.1*2F
$GNGSA,A,3,,,,,,,,,,,,,3.3,1.2,3.1*2D
$QZGSA,A,3,,,,,,,,,,,,,3.3,1.2,3.1*2F
$IMGSA,A,3,,,,,,,,,,,,,3.3,1.2,3.1*20
$GPRMC,100145.00,A,4155.801165,N,01236.695219,E,000.0,,110319,,,A*72
$GPGGA,100146.00,4155.807257,N,01236.698285,E,1,08,3.2,0.0,M,45.0,M,,*62
$GPGSV,3,1,10,15,44,307,51,05,33,204,51,30,32,067,51,24,16,268,50*76
$GPGSV,3,2,10,17,16,127,50,19,04,150,,20,03,328,,07,02,075,*7E
$GPGSV,3,3,10,13,79,340,51,28,59,068,51*7B
$GLGSV,2,1,08,65,76,260,,75,70,289,,72,42,166,,74,38,036,*61
$GLGSV,2,2,08,76,30,245,,66,21,328,,83,07,023,,84,05,075,*60
$GPGSA,A,3,05,15,17,24,30,,,,,,,,3.3,1.2,3.1*31
$GNGSA,A,3,05,15,17,24,30,,,,,,,,3.3,1.2,3.1*2F
$GNGSA,A,3,,,,,,,,,,,,,3.3,1.2,3.1*2D
$QZGSA,A,3,,,,,,,,,,,,,3.3,1.2,3.1*2F
$IMGSA,A,3,,,,,,,,,,,,,3.3,1.2,3.1*20
$GPRMC,100146.00,A,4155.807257,N,01236.698285,E,000.0,,110319,,,A*7D
$GPGGA,100147.00,4155.807257,N,01236.698285,E,1,08,3.2,0.0,M,45.0,M,,*63
$GPGSV,3,1,10,15,44,307,51,05,33,204,51,30,32,067,51,24,16,268,50*76
$GPGSV,3,2,10,17,16,127,50,19,04,150,,20,03,328,,07,02,075,*7E
$GPGSV,3,3,10,13,79,340,51,28,59,068,51*7B
$GLGSV,2,1,08,65,76,260,,75,70,289,,72,42,166,,74,38,036,*61
$GLGSV,2,2,08,76,30,245,,66,21,328,,83,07,023,,84,05,075,*60
$GPGSA,A,3,05,15,17,24,30,,,,,,,,3.3,1.2,3.1*31
$GNGSA,A,3,05,15,17,24,30,,,,,,,,3.3,1.2,3.1*2F
$GNGSA,A,3,,,,,,,,,,,,,3.3,1.2,3.1*2D
$QZGSA,A,3,,,,,,,,,,,,,3.3,1.2,3.1*2F
$IMGSA,A,3,,,,,,,,,,,,,3.3,1.2,3.1*20
$GPRMC,100147.00,A,4155.807257,N,01236.698285,E,000.0,,110319,,,A*7C
$GPGGA,100148.00,4155.807257,N,01236.698285,E,1,08,3.2,0.0,M,45.0,M,,*6C
$GPGSV,3,1,10,15,44,307,51,05,33,204,51,30,32,067,51,24,16,268,50*76
$GPGSV,3,2,10,17,16,127,50,19,04,150,,20,03,328,,07,02,075,*7E
$GPGSV,3,3,10,13,79,340,51,28,59,068,51*7B
$GLGSV,2,1,08,65,76,260,,75,70,289,,72,42,166,,74,38,036,*61
$GLGSV,2,2,08,76,30,245,,66,21,328,,83,07,023,,84,05,075,*60
$GPGSA,A,3,05,15,17,24,30,,,,,,,,3.3,1.2,3.1*31
$GNGSA,A,3,05,15,17,24,30,,,,,,,,3.3,1.2,3.1*2F
$GNGSA,A,3,,,,,,,,,,,,,3.3,1.2,3.1*2D
$QZGSA,A,3,,,,,,,,,,,,,3.3,1.2,3.1*2F
$IMGSA,A,3,,,,,,,,,,,,,3.3,1.2,3.1*20
$GPRMC,100148.00,A,4155.807257,N,01236.698285,E,000.0,,110319,,,A*73
$GPGGA,100149.00,4155.807257,N,01236.698285,E,1,08,3.2,0.0,M,45.0,M,,*6D
$GPGSV,3,1,10,15,44,307,51,05,33,204,51,30,32,067,51,24,16,268,50*76
$GPGSV,3,2,10,17,16,127,50,19,04,150,,20,03,328,,07,02,075,*7E
$GPGSV,3,3,10,13,79,340,51,28,59,068,51*7B
$GLGSV,2,1,08,65,76,260,,75,70,289,,72,42,166,,74,38,036,*61
$GLGSV,2,2,08,76,30,245,,66,21,328,,83,07,023,,84,05,075,*60
$GPGSA,A,3,05,15,17,24,30,,,,,,,,3.3,1.2,3.1*31
$GNGSA,A,3,05,15,17,24,30,,,,,,,,3.3,1.2,3.1*2F
$GNGSA,A,3,,,,,,,,,,,,,3.3,1.2,3.1*2D
$QZGSA,A,3,,,,,,,,,,,,,3.3,1.2,3.1*2F
$IMGSA,A,3,,,,,,,,,,,,,3.3,1.2,3.1*20
$GPRMC,100149.00,A,4155.807257,N,01236.698285,E,000.0,,110319,,,A*72
$GPGGA,100150.00,4155.807257,N,01236.698285,E,1,08,3.2,0.0,M,45.0,M,,*65
$GPGSV,3,1,10,15,44,307,51,05,33,204,51,30,32,067,51,24,16,268,50*76
$GPGSV,3,2,10,17,16,127,50,19,04,150,,20,03,328,,07,02,075,*7E
$GPGSV,3,3,10,13,79,340,51,28,59,068,51*7B
$GLGSV,2,1,08,65,76,260,,75,70,289,,72,42,166,,74,38,036,*61
$GLGSV,2,2,08,76,30,245,,66,21,328,,83,07,023,,84,05,075,*60
$GPGSA,A,3,05,15,17,24,30,,,,,,,,3.3,1.2,3.1*31
$GNGSA,A,3,05,15,17,24,30,,,,,,,,3.3,1.2,3.1*2F
$GNGSA,A,3,,,,,,,,,,,,,3.3,1.2,3.1*2D
$QZGSA,A,3,,,,,,,,,,,,,3.3,1.2,3.1*2F
$IMGSA,A,3,,,,,,,,,,,,,3.3,1.2,3.1*20
$GPRMC,100150.00,A,4155.807257,N,01236.698285,E,000.0,,110319,,,A*7A
$GPGGA,100151.00,4155.807257,N,01236.698285,E,1,08,3.2,0.0,M,45.0,M,,*64
$GPGSV,3,1,10,15,44,307,51,05,33,204,51,30,32,067,51,24,16,268,50*76
$GPGSV,3,2,10,17,16,127,50,19,04,150,,20,03,328,,07,02,075,*7E
$GPGSV,3,3,10,13,79,340,51,28,59,068,51*7B
$GLGSV,2,1,08,65,76,260,,75,70,289,,72,42,166,,74,38,036,*61
$GLGSV,2,2,08,76,30,245,,66,21,328,,83,07,023,,84,05,075,*60
$GPGSA,A,3,05,15,17,24,30,,,,,,,,3.3,1.2,3.1*31
$GNGSA,A,3,05,15,17,24,30,,,,,,,,3.3,1.2,3.1*2F
$GNGSA,A,3,,,,,,,,,,,,,3.3,1.2,3.1*2D
$QZGSA,A,3,,,,,,,,,,,,,3.3,1.2,3.1*2F
$IMGSA,A,3,,,,,,,,,,,,,3.3,1.2,3.1*20
$GPRMC,100151.00,A,4155.807257,N,01236.698285,E,000.0,,110319,,,A*7B
$GPGGA,100152.00,4155.807257,N,01236.698285,E,1,08,3.2,0.0,M,45.0,M,,*67
$GPGSV,3,1,10,15,44,307,51,05,33,204,51,30,31,067,51,24,16,268,50*75
$GPGSV,3,2,10,17,16,127,50,19,04,150,,20,03,328,,07,02,075,*7E
$GPGSV,3,3,10,13,79,340,51,28,59,068,51*7B
$GLGSV,2,1,08,65,76,260,,75,70,289,,72,42,166,,74,38,036,*61
$GLGSV,2,2,08,76,30,245,,66,21,328,,83,07,023,,84,05,075,*60
$GPGSA,A,3,05,15,17,24,30,,,,,,,,3.3,1.2,3.1*31
$GNGSA,A,3,05,15,17,24,30,,,,,,,,3.3,1.2,3.1*2F
$GNGSA,A,3,,,,,,,,,,,,,3.3,1.2,3.1*2D
$QZGSA,A,3,,,,,,,,,,,,,3.3,1.2,3.1*2F
$IMGSA,A,3,,,,,,,,,,,,,3.3,1.2,3.1*20
$GPRMC,100152.00,A,4155.807257,N,01236.698285,E,000.0,,110319,,,A*78
$GPGGA,100153.00,4155.806355,N,01236.690329,E,1,08,3.2,0.0,M,45.0,M,,*6B
$GPGSV,3,1,10,15,44,307,51,05,33,204,51,30,31,067,51,24,16,268,50*75
$GPGSV,3,2,10,17,16,127,50,19,04,150,,20,03,328,,07,02,075,*7E
$GPGSV,3,3,10,13,79,340,51,28,59,068,51*7B
$GLGSV,2,1,08,65,76,260,,75,70,289,,72,42,166,,74,38,036,*61
$GLGSV,2,2,08,76,30,245,,66,21,328,,83,07,023,,84,05,075,*60
$GPGSA,A,3,05,15,17,24,30,,,,,,,,3.3,1.2,3.1*31
$GNGSA,A,3,05,15,17,24,30,,,,,,,,3.3,1.2,3.1*2F
$GNGSA,A,3,,,,,,,,,,,,,3.3,1.2,3.1*2D
$QZGSA,A,3,,,,,,,,,,,,,3.3,1.2,3.1*2F
$IMGSA,A,3,,,,,,,,,,,,,3.3,1.2,3.1*20
$GPRMC,100153.00,A,4155.806355,N,01236.690329,E,000.0,,110319,,,A*74
$GPGGA,100154.00,4155.806355,N,01236.690329,E,1,08,3.2,0.0,M,45.0,M,,*6C
$GPGSV,3,1,10,15,44,307,51,05,33,204,51,30,31,067,51,24,16,268,50*75
$GPGSV,3,2,10,17,16,127,50,19,04,150,,20,03,328,,07,01,075,49*70
$GPGSV,3,3,10,13,79,340,51,28,59,068,51*7B
$GLGSV,2,1,08,65,76,260,,75,70,289,,72,42,166,,74,38,036,*61
$GLGSV,2,2,08,76,30,245,,66,21,328,,83,07,023,,84,05,075,*60
$GPGSA,A,3,05,07,15,17,24,30,,,,,,,3.3,1.2,3.1*36
$GNGSA,A,3,05,07,15,17,24,30,,,,,,,3.3,1.2,3.1*28
$GNGSA,A,3,,,,,,,,,,,,,3.3,1.2,3.1*2D
$QZGSA,A,3,,,,,,,,,,,,,3.3,1.2,3.1*2F
$IMGSA,A,3,,,,,,,,,,,,,3.3,1.2,3.1*20
$GPRMC,100154.00,A,4155.806355,N,01236.690329,E,,,110319,,,A*5D
$GPGGA,100155.00,4155.806355,N,01236.690329,E,1,08,3.2,0.0,M,45.0,M,,*6D
$GPGSV,3,1,10,15,44,307,51,05,33,204,51,30,31,067,51,24,16,268,50*75
$GPGSV,3,2,10,17,16,127,50,19,04,150,,20,03,328,,07,01,075,49*70
$GPGSV,3,3,10,13,79,340,51,28,59,068,51*7B
$GLGSV,2,1,08,65,76,260,,75,70,289,,72,42,166,,74,38,036,*61
$GLGSV,2,2,08,76,30,245,,66,21,328,,83,07,023,,84,05,075,*60
$GPGSA,A,3,05,07,15,17,24,30,,,,,,,3.3,1.2,3.1*36
$GNGSA,A,3,05,07,15,17,24,30,,,,,,,3.3,1.2,3.1*28
$GNGSA,A,3,,,,,,,,,,,,,3.3,1.2,3.1*2D
$QZGSA,A,3,,,,,,,,,,,,,3.3,1.2,3.1*2F
$IMGSA,A,3,,,,,,,,,,,,,3.3,1.2,3.1*20
$GPRMC,100155.00,A,4155.806355,N,01236.690329,E,000.0,,110319,,,A*72
$GPGGA,100156.00,4155.806355,N,01236.690329,E,1,08,3.2,0.0,M,45.0,M,,*6E
$GPGSV,3,1,10,15,44,307,51,05,33,204,51,30,31,067,51,24,16,268,50*75
$GPGSV,3,2,10,17,16,127,50,19,04,150,,20,03,328,,07,01,075,49*70
$GPGSV,3,3,10,13,79,340,51,28,59,068,51*7B
$GLGSV,2,1,08,65,76,260,,75,70,289,,72,42,166,,74,38,036,*61
$GLGSV,2,2,08,76,30,245,,66,21,328,,83,07,023,,84,05,075,*60
$GPGSA,A,3,05,07,15,17,24,30,,,,,,,3.3,1.2,3.1*36
$GNGSA,A,3,05,07,15,17,24,30,,,,,,,3.3,1.2,3.1*28
$GNGSA,A,3,,,,,,,,,,,,,3.3,1.2,3.1*2D
$QZGSA,A,3,,,,,,,,,,,,,3.3,1.2,3.1*2F
$IMGSA,A,3,,,,,,,,,,,,,3.3,1.2,3.1*20
$GPRMC,100156.00,A,4155.806355,N,01236.690329,E,,,110319,,,A*5F
$GPGGA,100157.00,4155.806355,N,01236.690329,E,1,08,3.2,0.0,M,45.0,M,,*6F
$GPGSV,3,1,10,15,44,307,51,05,33,204,51,30,31,067,51,24,16,268,50*75
$GPGSV,3,2,10,17,16,127,50,19,04,150,,20,03,328,,07,01,075,49*70
$GPGSV,3,3,10,13,79,340,51,28,59,068,51*7B
$GLGSV,2,1,08,65,76,260,,75,70,289,,72,42,166,,74,38,036,*61
$GLGSV,2,2,08,76,30,245,,66,21,328,,83,07,023,,84,05,075,*60
$GPGSA,A,3,05,07,15,17,24,30,,,,,,,3.3,1.2,3.1*36
$GNGSA,A,3,05,07,15,17,24,30,,,,,,,3.3,1.2,3.1*28
$GNGSA,A,3,,,,,,,,,,,,,3.3,1.2,3.1*2D
$QZGSA,A,3,,,,,,,,,,,,,3.3,1.2,3.1*2F
$IMGSA,A,3,,,,,,,,,,,,,3.3,1.2,3.1*20
$GPRMC,100157.00,A,4155.806355,N,01236.690329,E,000.0,,110319,,,A*70
$GPGGA,100158.00,4155.806355,N,01236.690329,E,1,08,3.2,0.0,M,45.0,M,,*60
$GPGSV,3,1,10,15,44,307,51,05,33,204,51,30,31,067,51,24,16,268,50*75
$GPGSV,3,2,10,17,16,127,50,19,04,150,,20,03,328,,07,01,075,49*70
$GPGSV,3,3,10,13,79,340,51,28,59,068,51*7B
$GLGSV,2,1,08,65,76,260,,75,70,289,,72,42,166,,74,38,036,*61
$GLGSV,2,2,08,76,30,245,,66,21,328,,83,07,023,,84,05,075,*60
$GPGSA,A,3,05,07,15,17,24,30,,,,,,,3.3,1.2,3.1*36
$GNGSA,A,3,05,07,15,17,24,30,,,,,,,3.3,1.2,3.1*28
$GNGSA,A,3,,,,,,,,,,,,,3.3,1.2,3.1*2D
$QZGSA,A,3,,,,,,,,,,,,,3.3,1.2,3.1*2F
$IMGSA,A,3,,,,,,,,,,,,,3.3,1.2,3.1*20
$GPRMC,100158.00,A,4155.806355,N,01236.690329,E,000.0,,110319,,,A*7F
$GPGGA,100159.00,4155.806355,N,01236.690329,E,1,08,3.2,0.0,M,45.0,M,,*61
$GPGSV,3,1,10,15,44,307,51,05,33,204,51,30,31,067,51,24,16,268,50*75
$GPGSV,3,2,10,17,16,127,50,19,04,150,,20,03,328,,07,01,075,49*70
$GPGSV,3,3,10,13,79,340,51,28,59,068,51*7B
$GLGSV,2,1,08,65,76,260,,75,70,289,,72,42,166,,74,38,036,*61
$GLGSV,2,2,08,76,30,245,,66,21,328,,83,07,023,,84,05,075,*60
$GPGSA,A,3,05,07,15,17,24,30,,,,,,,3.3,1.2,3.1*36
$GNGSA,A,3,05,07,15,17,24,30,,,,,,,3.3,1.2,3.1*28
$GNGSA,A,3,,,,,,,,,,,,,3.3,1.2,3.1*2D
$QZGSA,A,3,,,,,,,,,,,,,3.3,1.2,3.1*2F
$IMGSA,A,3,,,,,,,,,,,,,3.3,1.2,3.1*20
$GPRMC,100159.00,A,4155.806355,N,01236.690329,E,000.0,,110319,,,A*7E
$GPGGA,100200.00,4155.806355,N,01236.690329,E,1,08,3.2,0.0,M,45.0,M,,*6E
$GPGSV,3,1,10,15,44,307,51,05,33,204,51,30,31,067,51,24,16,268,50*75
$GPGSV,3,2,10,17,16,127,50,19,04,150,,20,03,328,,07,01,075,49*70
$GPGSV,3,3,10,13,79,340,51,28,59,068,51*7B
$GLGSV,2,1,08,65,76,260,,75,70,289,,72,42,166,,74,38,036,*61
$GLGSV,2,2,08,76,30,245,,66,21,328,,83,07,023,,84,05,075,*60
$GPGSA,A,3,05,07,15,17,24,30,,,,,,,3.3,1.2,3.1*36
$GNGSA,A,3,05,07,15,17,24,30,,,,,,,3.3,1.2,3.1*28
$GNGSA,A,3,,,,,,,,,,,,,3.3,1.2,3.1*2D
$QZGSA,A,3,,,,,,,,,,,,,3.3,1.2,3.1*2F
$IMGSA,A,3,,,,,,,,,,,,,3.3,1.2,3.1*20
$GPRMC,100200.00,A,4155.806355,N,01236.690329,E,000.0,,110319,,,A*71
$GPGGA,100201.00,4155.806355,N,01236.690329,E,1,08,3.2,0.0,M,45.0,M,,*6F
$GPGSV,3,1,10,15,44,307,51,05,33,204,51,30,31,067,51,24,16,268,50*75
$GPGSV,3,2,10,17,16,127,50,19,04,150,,20,03,328,,07,01,075,49*70
$GPGSV,3,3,10,13,79,340,51,28,59,068,51*7B
$GLGSV,2,1,08,65,76,260,,75,70,289,,72,42,166,,74,38,036,*61
$GLGSV,2,2,08,76,30,245,,66,21,328,,83,07,023,,84,05,075,*60
$GPGSA,A,3,05,07,15,17,24,30,,,,,,,3.3,1.2,3.1*36
$GNGSA,A,3,05,07,15,17,24,30,,,,,,,3.3,1.2,3.1*28
$GNGSA,A,3,,,,,,,,,,,,,3.3,1.2,3.1*2D
$QZGSA,A,3,,,,,,,,,,,,,3.3,1.2,3.1*2F
$IMGSA,A,3,,,,,,,,,,,,,3.3,1.2,3.1*20
$GPRMC,100201.00,A,4155.806355,N,01236.690329,E,000.0,,110319,,,A*70
$GPGGA,100202.00,4155.806355,N,01236.690329,E,1,08,3.2,0.0,M,45.0,M,,*6C
$GPGSV,3,1,10,15,45,307,51,05,33,204,51,30,31,067,51,24,16,268,50*74
$GPGSV,3,2,10,17,16,127,50,19,04,150,,20,03,328,,07,01,075,49*70
$GPGSV,3,3,10,13,79,340,51,28,59,068,51*7B
$GLGSV,2,1,08,65,76,260,,75,70,289,,72,42,166,,74,38,036,*61
$GLGSV,2,2,08,76,30,245,,66,21,328,,83,07,023,,84,05,075,*60
$GPGSA,A,3,05,07,15,17,24,30,,,,,,,3.3,1.2,3.1*36
$GNGSA,A,3,05,07,15,17,24,30,,,,,,,3.3,1.2,3.1*28
$GNGSA,A,3,,,,,,,,,,,,,3.3,1.2,3.1*2D
$QZGSA,A,3,,,,,,,,,,,,,3.3,1.2,3.1*2F
$IMGSA,A,3,,,,,,,,,,,,,3.3,1.2,3.1*20
$GPRMC,100202.00,A,4155.806355,N,01236.690329,E,,,110319,,,A*5D
$GPGGA,100203.00,4155.806355,N,01236.690329,E,1,08,3.2,0.0,M,45.0,M,,*6D
$GPGSV,3,1,10,15,45,307,51,05,33,204,51,30,31,067,51,24,16,268,50*74
$GPGSV,3,2,10,17,16,127,50,19,04,150,,20,03,328,,07,01,075,49*70
$GPGSV,3,3,10,13,79,340,51,28,59,068,51*7B
$GLGSV,2,1,08,65,76,260,,75,70,289,,72,42,166,,74,38,036,*61
$GLGSV,2,2,08,76,30,245,,66,21,328,,83,07,023,,84,05,075,*60
$GPGSA,A,3,05,07,15,17,24,30,,,,,,,3.3,1.2,3.1*36
$GNGSA,A,3,05,07,15,17,24,30,,,,,,,3.3,1.2,3.1*28
$GNGSA,A,3,,,,,,,,,,,,,3.3,1.2,3.1*2D
$QZGSA,A,3,,,,,,,,,,,,,3.3,1.2,3.1*2F
$IMGSA,A,3,,,,,,,,,,,,,3.3,1.2,3.1*20
$GPRMC,100203.00,A,4155.806355,N,01236.690329,E,000.0,,110319,,,A*72
$GPGGA,100204.00,4155.806355,N,01236.690329,E,1,08,3.2,0.0,M,45.0,M,,*6A
$GPGSV,3,1,10,15,45,307,51,05,33,204,51,30,31,067,51,24,16,268,50*74
$GPGSV,3,2,10,17,16,127,50,19,04,150,,20,03,328,,07,01,075,49*70
$GPGSV,3,3,10,13,79,340,51,28,59,068,51*7B
$GLGSV,2,1,08,65,76,260,,75,70,289,,72,42,166,,74,38,036,*61
$GLGSV,2,2,08,76,30,245,,66,21,328,,83,07,023,,84,06,075,*63
$GPGSA,A,3,05,07,15,17,24,30,,,,,,,3.3,1.2,3.1*36
$GNGSA,A,3,05,07,15,17,24,30,,,,,,,3.3,1.2,3.1*28
$GNGSA,A,3,,,,,,,,,,,,,3.3,1.2,3.1*2D
$QZGSA,A,3,,,,,,,,,,,,,3.3,1.2,3.1*2F
$IMGSA,A,3,,,,,,,,,,,,,3.3,1.2,3.1*20
$GPRMC,100204.00,A,4155.806355,N,01236.690329,E,000.0,,110319,,,A*75
$GPGGA,100205.00,4155.806355,N,01236.690329,E,1,08,3.2,0.0,M,45.0,M,,*6B
$GPGSV,3,1,10,15,45,307,51,05,33,204,51,30,31,067,51,24,16,268,50*74
$GPGSV,3,2,10,17,16,127,50,19,04,150,,20,03,328,,07,01,075,49*70
$GPGSV,3,3,10,13,79,340,51,28,59,068,51*7B
$GLGSV,2,1,08,65,76,260,,75,70,289,,72,42,166,,74,38,036,*61
$GLGSV,2,2,08,76,30,245,,66,21,328,,83,07,023,,84,06,075,*63
$GPGSA,A,3,05,07,15,17,24,30,,,,,,,3.3,1.2,3.1*36
$GNGSA,A,3,05,07,15,17,24,30,,,,,,,3.3,1.2,3.1*28
$GNGSA,A,3,,,,,,,,,,,,,3.3,1.2,3.1*2D
$QZGSA,A,3,,,,,,,,,,,,,3.3,1.2,3.1*2F
$IMGSA,A,3,,,,,,,,,,,,,3.3,1.2,3.1*20
$GPRMC,100205.00,A,4155.806355,N,01236.690329,E,,,110319,,,A*5A
$GPGGA,100206.00,4155.806355,N,01236.690329,E,1,08,3.2,0.0,M,45.0,M,,*68
$GPGSV,3,1,10,15,45,307,51,05,33,204,51,30,31,067,51,24,16,268,50*74
$GPGSV,3,2,10,17,16,127,50,19,04,150,,20,03,328,,07,01,075,49*70
$GPGSV,3,3,10,13,79,340,51,28,59,068,51*7B
$GLGSV,2,1,08,65,76,260,,75,70,289,,72,42,166,,74,38,036,*61
$GLGSV,2,2,08,76,30,245,,66,21,328,,83,07,023,,84,06,075,*63
$GPGSA,A,3,05,07,15,17,24,30,,,,,,,3.3,1.2,3.1*36
$GNGSA,A,3,05,07,15,17,24,30,,,,,,,3.3,1.2,3.1*28
$GNGSA,A,3,,,,,,,,,,,,,3.3,1.2,3.1*2D
$QZGSA,A,3,,,,,,,,,,,,,3.3,1.2,3.1*2F
$IMGSA,A,3,,,,,,,,,,,,,3.3,1.2,3.1*20
$GPRMC,100206.00,A,4155.806355,N,01236.690329,E,000.0,,110319,,,A*77
$GPGGA,100207.00,4155.806355,N,01236.690329,E,1,08,3.2,0.0,M,45.0,M,,*69
$GPGSV,3,1,10,15,45,307,51,05,32,204,51,30,31,067,51,24,16,268,50*75
$GPGSV,3,2,10,17,16,127,50,19,04,150,,20,03,328,,07,01,075,49*70
$GPGSV,3,3,10,13,79,341,51,28,59,068,51*7A
$GLGSV,2,1,08,65,76,260,,75,70,289,,72,42,166,,74,38,036,*61
$GLGSV,2,2,08,76,30,245,,66,21,328,,83,07,023,,84,06,075,*63
$GPGSA,A,3,05,07,15,17,24,30,,,,,,,3.3,1.2,3.1*36
$GNGSA,A,3,05,07,15,17,24,30,,,,,,,3.3,1.2,3.1*28
$GNGSA,A,3,,,,,,,,,,,,,3.3,1.2,3.1*2D
$QZGSA,A,3,,,,,,,,,,,,,3.3,1.2,3.1*2F
$IMGSA,A,3,,,,,,,,,,,,,3.3,1.2,3.1*20
$GPRMC,100207.00,A,4155.806355,N,01236.690329,E,000.0,,110319,,,A*76
$GPGGA,100208.00,4155.801764,N,01236.691976,E,1,08,3.2,0.0,M,45.0,M,,*66
$GPGSV,3,1,10,15,45,307,51,05,32,204,51,30,31,067,51,24,16,268,50*75
$GPGSV,3,2,10,17,16,127,50,19,04,150,,20,03,328,,07,01,075,49*70
$GPGSV,3,3,10,13,79,341,51,28,59,068,51*7A
$GLGSV,2,1,08,65,76,260,,75,70,289,,72,42,166,,74,38,036,*61
$GLGSV,2,2,08,76,30,245,,66,21,328,,83,07,023,,84,06,075,*63
$GPGSA,A,3,05,07,15,17,24,30,,,,,,,3.3,1.2,3.1*36
$GNGSA,A,3,05,07,15,17,24,30,,,,,,,3.3,1.2,3.1*28
$GNGSA,A,3,,,,,,,,,,,,,3.3,1.2,3.1*2D
$QZGSA,A,3,,,,,,,,,,,,,3.3,1.2,3.1*2F
$IMGSA,A,3,,,,,,,,,,,,,3.3,1.2,3.1*20
$GPRMC,100208.00,A,4155.801764,N,01236.691976,E,001.1,,110319,,,A*79
$GPGGA,100209.00,4155.802465,N,01236.691958,E,1,08,3.2,0.0,M,45.0,M,,*6A
$GPGSV,3,1,10,15,45,307,51,05,32,204,51,30,31,067,51,24,16,268,50*75
$GPGSV,3,2,10,17,16,127,50,19,04,150,,20,03,328,,07,01,075,49*70
$GPGSV,3,3,10,13,79,341,51,28,59,068,51*7A
$GLGSV,2,1,08,65,76,260,,75,70,289,,72,42,166,,74,38,036,*61
$GLGSV,2,2,08,76,30,245,,66,21,328,,83,07,023,,84,06,075,*63
$GPGSA,A,3,05,07,15,17,24,30,,,,,,,3.3,1.2,3.1*36
$GNGSA,A,3,05,07,15,17,24,30,,,,,,,3.3,1.2,3.1*28
$GNGSA,A,3,,,,,,,,,,,,,3.3,1.2,3.1*2D
$QZGSA,A,3,,,,,,,,,,,,,3.3,1.2,3.1*2F
$IMGSA,A,3,,,,,,,,,,,,,3.3,1.2,3.1*20
$GPRMC,100209.00,A,4155.802465,N,01236.691958,E,,,110319,,,A*5B
$GPGGA,100210.00,4155.802465,N,01236.691958,E,1,08,3.2,0.0,M,45.0,M,,*62
$GPGSV,3,1,10,15,45,307,51,05,32,204,51,30,31,067,51,24,16,268,50*75
