$GPGGA,110209.00,4155.821407,N,01236.691847,E,1,09,3.2,61.9,M,45.0,M,,*5E
$GPGSV,3,1,12,13,74,332,16,28,61,075,35,15,40,307,22,05,37,207,16*72
$GPGSV,3,2,12,30,35,064,42,17,13,129,31,24,13,265,23,07,05,072,36*70
$GPGSV,3,3,12,19,01,152,08,20,00,330,,08,01,024,,04,,,19*4C
$GLGSV,3,1,09,73,48,033,24,74,70,281,21,75,19,238,25,82,07,030,23*67
$GLGSV,3,2,09,72,70,302,,71,50,165,,65,25,326,,83,04,075,*61
$GLGSV,3,3,09,70,01,155,*5B
$GPGSA,A,3,05,07,13,15,17,24,28,30,,,,,2.1,1.2,1.8*36
$GNGSA,A,3,05,07,13,15,17,24,28,30,,,,,2.1,1.2,1.8*28
$GNGSA,A,3,73,,,,,,,,,,,,2.1,1.2,1.8*21
$QZGSA,A,3,,,,,,,,,,,,,2.1,1.2,1.8*27
$IMGSA,A,3,,,,,,,,,,,,,2.1,1.2,1.8*28
$GPRMC,110209.00,A,4155.821407,N,01236.691847,E,000.7,,220219,,,A*78
$GPGGA,110210.00,4155.821372,N,01236.691706,E,1,09,3.2,61.9,M,45.0,M,,*59
$GPGSV,3,1,12,13,74,332,16,28,61,075,35,15,40,307,22,05,37,207,16*72
$GPGSV,3,2,12,30,35,064,42,17,13,129,31,24,13,265,22,07,05,072,35*72
$GPGSV,3,3,12,19,01,152,08,20,00,330,,08,01,024,07,04,,,19*4B
$GLGSV,3,1,09,73,48,033,25,74,70,281,21,75,19,238,25,82,07,030,23*66
$GLGSV,3,2,09,72,70,302,,71,50,165,,65,25,326,,83,04,075,*61
$GLGSV,3,3,09,70,01,155,*5B
$GPGSA,A,3,05,07,13,15,17,24,28,30,,,,,3.0,2.0,2.2*3E
$GNGSA,A,3,05,07,13,15,17,24,28,30,,,,,3.0,2.0,2.2*20
$GNGSA,A,3,73,,,,,,,,,,,,3.0,2.0,2.2*29
$QZGSA,A,3,,,,,,,,,,,,,3.0,2.0,2.2*2F
$IMGSA,A,3,,,,,,,,,,,,,3.0,2.0,2.2*20
$GPRMC,110210.00,A,4155.821372,N,01236.691706,E,000.7,,220219,,,A*7F
$GPGGA,110211.00,4155.821258,N,01236.691731,E,1,09,3.2,61.9,M,45.0,M,,*55
$GPGSV,3,1,12,13,74,332,16,28,61,075,35,15,40,307,22,05,37,207,15*71
$GPGSV,3,2,12,30,35,064,42,17,13,129,32,24,13,265,22,07,05,072,35*71
$GPGSV,3,3,12,19,01,152,08,20,00,330,,08,01,024,10,04,,,19*4D
$GLGSV,3,1,09,73,48,033,25,74,70,281,23,75,19,238,24,82,07,030,23*65
$GLGSV,3,2,09,72,70,302,,71,50,165,,65,25,326,,83,04,075,*61
$GLGSV,3,3,09,70,01,155,*5B
$GPGSA,A,3,05,07,13,15,17,24,28,30,,,,,2.4,1.5,1.8*34
$GNGSA,A,3,05,07,13,15,17,24,28,30,,,,,2.4,1.5,1.8*2A
$GNGSA,A,3,73,,,,,,,,,,,,2.4,1.5,1.8*23
$QZGSA,A,3,,,,,,,,,,,,,2.4,1.5,1.8*25
$IMGSA,A,3,,,,,,,,,,,,,2.4,1.5,1.8*2A
$GPRMC,110211.00,A,4155.821258,N,01236.691731,E,000.7,,220219,,,A*73
$GPGGA,110212.00,4155.820927,N,01236.691754,E,1,09,3.2,61.8,M,45.0,M,,*56
$GPGSV,3,1,12,13,74,332,16,28,61,075,35,15,40,307,22,05,37,207,15*71
$GPGSV,3,2,12,30,35,064,42,17,13,129,32,24,13,265,22,07,05,072,36*72
$GPGSV,3,3,12,19,01,152,09,20,00,330,,08,01,024,10,04,,,20*46
$GLGSV,3,1,09,73,48,033,24,74,70,281,24,75,19,238,24,82,07,030,22*62
$GLGSV,3,2,09,72,70,302,,71,50,165,,65,25,326,,83,04,075,*61
$GLGSV,3,3,09,70,01,155,*5B
$GPGSA,A,3,05,07,13,15,17,24,28,30,,,,,2.4,1.5,1.8*34
$GNGSA,A,3,05,07,13,15,17,24,28,30,,,,,2.4,1.5,1.8*2A
$GNGSA,A,3,73,,,,,,,,,,,,2.4,1.5,1.8*23
$QZGSA,A,3,,,,,,,,,,,,,2.4,1.5,1.8*25
$IMGSA,A,3,,,,,,,,,,,,,2.4,1.5,1.8*2A
$GPRMC,110212.00,A,4155.820927,N,01236.691754,E,000.5,,220219,,,A*73
$GPGGA,110213.00,4155.821011,N,01236.691459,E,1,09,3.2,61.8,M,45.0,M,,*54
$GPGSV,3,1,12,13,74,332,16,28,61,075,35,15,40,307,22,05,37,207,15*71
$GPGSV,3,2,12,30,35,064,42,17,13,129,31,24,13,265,21,07,05,072,36*72
$GPGSV,3,3,12,19,01,152,09,20,00,330,,08,01,024,10,04,,,20*46
$GLGSV,3,1,09,73,48,033,24,74,70,281,25,75,19,238,24,82,07,030,21*60
$GLGSV,3,2,09,72,70,302,,71,50,165,,65,25,326,,83,04,075,*61
$GLGSV,3,3,09,70,01,155,*5B
$GPGSA,A,3,05,07,13,15,17,24,28,30,,,,,2.4,1.5,1.8*34
$GNGSA,A,3,05,07,13,15,17,24,28,30,,,,,2.4,1.5,1.8*2A
$GNGSA,A,3,73,,,,,,,,,,,,2.4,1.5,1.8*23
$QZGSA,A,3,,,,,,,,,,,,,2.4,1.5,1.8*25
$IMGSA,A,3,,,,,,,,,,,,,2.4,1.5,1.8*2A
$GPRMC,110213.00,A,4155.821011,N,01236.691459,E,000.5,,220219,,,A*71
$GPGGA,110214.00,4155.821144,N,01236.691129,E,1,08,3.2,61.8,M,45.0,M,,*51
$GPGSV,3,1,12,13,74,332,16,28,61,075,35,15,40,307,22,05,37,207,15*71
$GPGSV,3,2,12,30,35,064,41,17,13,129,31,24,13,265,21,07,05,072,36*71
$GPGSV,3,3,12,19,01,152,10,20,00,330,,08,01,024,10,04,,,20*4E
$GLGSV,3,1,09,73,48,033,24,74,70,281,26,75,19,238,24,82,07,030,21*63
$GLGSV,3,2,09,72,70,302,,71,50,165,,65,25,326,,83,04,075,*61
$GLGSV,3,3,09,70,01,155,*5B
$GPGSA,A,3,07,13,15,17,24,28,30,,,,,,2.4,1.5,1.8*31
$GNGSA,A,3,07,13,15,17,24,28,30,,,,,,2.4,1.5,1.8*2F
$GNGSA,A,3,73,,,,,,,,,,,,2.4,1.5,1.8*23
$QZGSA,A,3,,,,,,,,,,,,,2.4,1.5,1.8*25
$IMGSA,A,3,,,,,,,,,,,,,2.4,1.5,1.8*2A
$GPRMC,110214.00,A,4155.821144,N,01236.691129,E,000.6,,220219,,,A*76
$GPGGA,110215.00,4155.821015,N,01236.690994,E,1,08,3.2,61.8,M,45.0,M,,*5A
$GPGSV,3,1,12,13,74,332,16,28,61,074,35,15,40,307,21,05,37,207,14*72
$GPGSV,3,2,12,30,35,064,41,17,13,129,31,24,13,265,21,07,05,072,35*72
$GPGSV,3,3,12,19,01,152,10,20,00,330,,08,01,024,12,04,,,20*4C
$GLGSV,3,1,09,73,48,033,24,74,70,281,26,75,19,238,24,82,07,030,21*63
$GLGSV,3,2,09,72,70,302,,71,50,165,,65,25,326,,83,04,075,*61
$GLGSV,3,3,09,70,01,155,*5B
$GPGSA,A,3,07,13,15,17,24,28,30,,,,,,2.4,1.5,1.8*31
$GNGSA,A,3,07,13,15,17,24,28,30,,,,,,2.4,1.5,1.8*2F
$GNGSA,A,3,73,,,,,,,,,,,,2.4,1.5,1.8*23
$QZGSA,A,3,,,,,,,,,,,,,2.4,1.5,1.8*25
$IMGSA,A,3,,,,,,,,,,,,,2.4,1.5,1.8*2A
$GPRMC,110215.00,A,4155.821015,N,01236.690994,E,000.5,,220219,,,A*7E
$GPGGA,110216.00,4155.820985,N,01236.691255,E,1,08,3.2,61.7,M,45.0,M,,*50
$GPGSV,3,1,12,13,74,332,16,28,61,074,35,15,40,307,21,05,37,207,14*72
$GPGSV,3,2,12,30,35,064,41,17,13,129,31,24,13,265,21,07,05,072,35*72
$GPGSV,3,3,12,19,01,152,10,20,00,330,,08,01,024,,04,,,20*4F
$GLGSV,3,1,09,73,48,033,24,74,70,281,26,75,19,238,24,82,07,030,21*63
$GLGSV,3,2,09,72,70,302,,71,50,165,,65,25,326,,83,04,075,*61
$GLGSV,3,3,09,70,01,155,*5B
$GPGSA,A,3,07,13,15,17,24,28,30,,,,,,2.4,1.5,1.8*31
$GNGSA,A,3,07,13,15,17,24,28,30,,,,,,2.4,1.5,1.8*2F
$GNGSA,A,3,73,,,,,,,,,,,,2.4,1.5,1.8*23
$QZGSA,A,3,,,,,,,,,,,,,2.4,1.5,1.8*25
$IMGSA,A,3,,,,,,,,,,,,,2.4,1.5,1.8*2A
$GPRMC,110216.00,A,4155.820985,N,01236.691255,E,001.2,,220219,,,A*7D
$GPGGA,110217.00,4155.821243,N,01236.692159,E,1,08,3.2,61.7,M,45.0,M,,*5D
$GPGSV,3,1,12,13,75,332,16,28,61,074,35,15,40,307,21,05,37,207,14*73
$GPGSV,3,2,12,30,35,064,41,17,13,129,31,24,13,265,21,07,05,072,35*72
$GPGSV,3,3,12,19,01,152,10,20,00,330,,08,01,024,,04,,,20*4F
$GLGSV,3,1,09,73,48,033,24,74,70,281,26,75,19,238,24,82,07,030,20*62
$GLGSV,3,2,09,72,70,302,,71,50,165,,65,25,326,,83,04,075,*61
$GLGSV,3,3,09,70,01,155,*5B
$GPGSA,A,3,07,13,15,17,24,28,30,,,,,,2.4,1.5,1.8*31
$GNGSA,A,3,07,13,15,17,24,28,30,,,,,,2.4,1.5,1.8*2F
$GNGSA,A,3,73,,,,,,,,,,,,2.4,1.5,1.8*23
$QZGSA,A,3,,,,,,,,,,,,,2.4,1.5,1.8*25
$IMGSA,A,3,,,,,,,,,,,,,2.4,1.5,1.8*2A
$GPRMC,110217.00,A,4155.821243,N,01236.692159,E,002.2,,220219,,,A*73
$GPGGA,110218.00,4155.821722,N,01236.693217,E,1,08,3.2,61.6,M,45.0,M,,*59
$GPGSV,3,1,12,13,75,332,16,28,61,074,35,15,40,307,20,05,37,207,13*75
$GPGSV,3,2,12,30,35,064,41,17,13,129,30,24,13,265,21,07,05,072,35*73
$GPGSV,3,3,12,19,01,152,10,20,00,330,,04,,,20,08,01,024,*4F
$GLGSV,3,1,09,73,48,033,24,74,70,281,26,75,19,238,24,82,07,030,20*62
$GLGSV,3,2,09,72,70,302,,71,50,165,,65,25,326,,83,04,075,*61
$GLGSV,3,3,09,70,01,155,*5B
$GPGSA,A,3,07,13,15,17,24,28,30,,,,,,2.4,1.5,1.8*31
$GNGSA,A,3,07,13,15,17,24,28,30,,,,,,2.4,1.5,1.8*2F
$GNGSA,A,3,73,,,,,,,,,,,,2.4,1.5,1.8*23
$QZGSA,A,3,,,,,,,,,,,,,2.4,1.5,1.8*25
$IMGSA,A,3,,,,,,,,,,,,,2.4,1.5,1.8*2A
$GPRMC,110218.00,A,4155.821722,N,01236.693217,E,002.1,,220219,,,A*75
$GPGGA,110219.00,4155.821914,N,01236.693537,E,1,09,3.2,61.6,M,45.0,M,,*57
$GPGSV,3,1,12,13,75,332,16,28,61,074,34,15,40,307,20,05,37,207,13*74
$GPGSV,3,2,12,30,35,064,41,17,13,129,30,24,13,265,21,07,05,072,35*73
$GPGSV,3,3,12,19,01,152,10,20,00,330,,04,,,20,08,01,024,*4F
$GLGSV,3,1,09,73,48,033,24,74,70,281,26,75,19,238,23,82,07,030,20*65
$GLGSV,3,2,09,72,70,302,,71,49,165,,65,25,326,,83,04,075,*69
$GLGSV,3,3,09,70,01,155,*5B
$GPGSA,A,3,05,07,13,15,17,24,28,30,,,,,2.4,1.5,1.8*34
$GNGSA,A,3,05,07,13,15,17,24,28,30,,,,,2.4,1.5,1.8*2A
$GNGSA,A,3,73,,,,,,,,,,,,2.4,1.5,1.8*23
$QZGSA,A,3,,,,,,,,,,,,,2.4,1.5,1.8*25
$IMGSA,A,3,,,,,,,,,,,,,2.4,1.5,1.8*2A
$GPRMC,110219.00,A,4155.821914,N,01236.693537,E,000.2,,220219,,,A*7B
$GPGGA,110220.00,4155.821236,N,01236.693189,E,1,09,3.2,61.6,M,45.0,M,,*57
$GPGSV,3,1,12,13,75,332,15,28,61,074,34,15,40,307,20,05,37,207,13*77
$GPGSV,3,2,12,30,35,064,41,17,13,129,30,24,13,265,21,07,05,072,35*73
$GPGSV,3,3,12,19,01,152,10,20,00,330,,04,,,20,08,01,024,*4F
$GLGSV,3,1,09,73,48,033,24,74,70,281,25,75,19,238,23,82,07,030,20*66
$GLGSV,3,2,09,72,70,302,,71,49,165,,65,25,326,,83,04,075,*69
$GLGSV,3,3,09,70,01,155,*5B
$GPGSA,A,3,05,07,13,15,17,24,28,30,,,,,2.4,1.5,1.8*34
$GNGSA,A,3,05,07,13,15,17,24,28,30,,,,,2.4,1.5,1.8*2A
$GNGSA,A,3,73,,,,,,,,,,,,2.4,1.5,1.8*23
$QZGSA,A,3,,,,,,,,,,,,,2.4,1.5,1.8*25
$IMGSA,A,3,,,,,,,,,,,,,2.4,1.5,1.8*2A
$GPRMC,110220.00,A,4155.821236,N,01236.693189,E,001.5,,220219,,,A*7D
$GPGGA,110221.00,4155.820807,N,01236.693343,E,1,09,3.2,61.6,M,45.0,M,,*5B
$GPGSV,3,1,12,13,75,332,15,28,61,074,34,15,40,307,19,05,37,207,14*7A
$GPGSV,3,2,12,30,35,064,41,17,13,129,29,24,13,265,21,07,05,072,36*78
$GPGSV,3,3,12,19,01,152,10,20,00,330,,04,,,21,08,01,024,*4E
$GLGSV,3,1,09,73,48,033,24,74,70,281,25,75,19,238,23,82,07,030,20*66
$GLGSV,3,2,09,72,70,302,,71,49,165,,65,25,326,,83,04,075,*69
$GLGSV,3,3,09,70,01,155,*5B
$GPGSA,A,3,05,07,13,15,17,24,28,30,,,,,2.4,1.5,1.8*34
$GNGSA,A,3,05,07,13,15,17,24,28,30,,,,,2.4,1.5,1.8*2A
$GNGSA,A,3,73,,,,,,,,,,,,2.4,1.5,1.8*23
$QZGSA,A,3,,,,,,,,,,,,,2.4,1.5,1.8*25
$IMGSA,A,3,,,,,,,,,,,,,2.4,1.5,1.8*2A
$GPRMC,110221.00,A,4155.820807,N,01236.693343,E,001.4,,220219,,,A*70
$GPGGA,110222.00,4155.820613,N,01236.693837,E,1,09,3.2,61.6,M,45.0,M,,*5B
$GPGSV,3,1,12,13,75,332,15,28,61,074,34,15,40,307,19,05,37,207,14*7A
$GPGSV,3,2,12,30,35,064,41,17,13,129,29,24,13,265,21,07,05,072,35*7B
$GPGSV,3,3,12,19,01,152,10,20,00,330,,04,,,21,08,01,024,*4E
$GLGSV,3,1,09,73,48,033,23,74,70,281,25,75,19,238,22,82,07,030,20*60
$GLGSV,3,2,09,72,70,302,,71,49,165,,65,25,326,,83,04,075,*69
$GLGSV,3,3,09,70,01,155,*5B
$GPGSA,A,3,05,07,13,15,17,24,28,30,,,,,2.4,1.5,1.8*34
$GNGSA,A,3,05,07,13,15,17,24,28,30,,,,,2.4,1.5,1.8*2A
$GNGSA,A,3,73,,,,,,,,,,,,2.4,1.5,1.8*23
$QZGSA,A,3,,,,,,,,,,,,,2.4,1.5,1.8*25
$IMGSA,A,3,,,,,,,,,,,,,2.4,1.5,1.8*2A
$GPRMC,110222.00,A,4155.820613,N,01236.693837,E,001.4,,220219,,,A*70
$GPGGA,110223.00,4155.820752,N,01236.694272,E,1,09,3.2,61.6,M,45.0,M,,*52
$GPGSV,3,1,12,13,75,332,15,28,61,074,34,15,40,307,19,05,37,207,15*7B
$GPGSV,3,2,12,30,35,064,41,17,13,129,29,24,13,265,21,07,05,072,35*7B
$GPGSV,3,3,12,19,01,152,10,20,00,330,,04,,,22,08,01,024,*4D
$GLGSV,3,1,09,73,48,033,23,74,70,281,24,75,19,238,22,82,07,030,19*6B
$GLGSV,3,2,09,72,70,302,,71,49,165,,65,25,326,,83,04,075,*69
$GLGSV,3,3,09,70,01,155,*5B
$GPGSA,A,3,05,07,13,15,17,24,28,30,,,,,2.4,1.5,1.8*34
$GNGSA,A,3,05,07,13,15,17,24,28,30,,,,,2.4,1.5,1.8*2A
$GNGSA,A,3,73,,,,,,,,,,,,2.4,1.5,1.8*23
$QZGSA,A,3,,,,,,,,,,,,,2.4,1.5,1.8*25
$IMGSA,A,3,,,,,,,,,,,,,2.4,1.5,1.8*2A
$GPRMC,110223.00,A,4155.820752,N,01236.694272,E,000.1,,220219,,,A*7D
$GPGGA,110224.00,4155.820815,N,01236.693901,E,1,09,3.2,61.6,M,45.0,M,,*51
$GPGSV,3,1,12,13,75,332,15,28,61,074,34,15,40,307,19,05,37,207,16*78
$GPGSV,3,2,12,30,35,064,41,17,13,129,28,24,13,265,21,07,05,072,35*7A
$GPGSV,3,3,12,19,01,152,10,20,00,330,,04,,,23,08,01,024,*4C
$GLGSV,3,1,09,73,48,033,23,74,70,281,24,75,19,238,22,82,07,029,19*63
$GLGSV,3,2,09,72,70,302,,71,49,165,,65,25,326,,83,04,075,*69
$GLGSV,3,3,09,70,01,155,*5B
$GPGSA,A,3,05,07,13,15,17,24,28,30,,,,,2.4,1.5,1.8*34
$GNGSA,A,3,05,07,13,15,17,24,28,30,,,,,2.4,1.5,1.8*2A
$GNGSA,A,3,73,,,,,,,,,,,,2.4,1.5,1.8*23
$QZGSA,A,3,,,,,,,,,,,,,2.4,1.5,1.8*25
$IMGSA,A,3,,,,,,,,,,,,,2.4,1.5,1.8*2A
$GPRMC,110224.00,A,4155.820815,N,01236.693901,E,000.9,,220219,,,A*76
$GPGGA,110225.00,4155.820906,N,01236.693690,E,1,09,3.2,61.7,M,45.0,M,,*55
$GPGSV,3,1,12,13,75,332,14,28,61,074,34,15,40,307,18,05,37,207,18*76
$GPGSV,3,2,12,30,35,064,40,17,13,129,28,24,13,265,21,07,05,072,35*7B
$GPGSV,3,3,12,19,01,152,10,20,00,330,,04,,,23,08,01,024,*4C
$GLGSV,3,1,09,73,48,033,23,74,70,281,24,75,19,238,22,82,07,029,19*63
$GLGSV,3,2,09,72,70,302,,71,49,165,,65,25,326,,83,04,075,*69
$GLGSV,3,3,09,70,01,155,*5B
$GPGSA,A,3,05,07,13,15,17,24,28,30,,,,,2.1,1.2,1.8*36
$GNGSA,A,3,05,07,13,15,17,24,28,30,,,,,2.1,1.2,1.8*28
$GNGSA,A,3,73,,,,,,,,,,,,2.1,1.2,1.8*21
$QZGSA,A,3,,,,,,,,,,,,,2.1,1.2,1.8*27
$IMGSA,A,3,,,,,,,,,,,,,2.1,1.2,1.8*28
$GPRMC,110225.00,A,4155.820906,N,01236.693690,E,001.2,,220219,,,A*79
$GPGGA,110226.00,4155.820478,N,01236.693379,E,1,08,3.2,61.7,M,45.0,M,,*51
$GPGSV,3,1,12,13,75,332,14,28,61,074,34,15,40,307,18,05,37,207,17*79
$GPGSV,3,2,12,30,35,064,40,17,13,129,28,24,13,265,20,07,05,072,35*7A
$GPGSV,3,3,12,19,01,152,10,20,00,330,,04,,,23,08,01,024,*4C
$GLGSV,3,1,09,73,48,033,23,74,70,281,23,75,19,238,21,82,07,029,19*67
$GLGSV,3,2,09,72,70,302,,71,49,165,,65,25,326,,83,04,075,*69
$GLGSV,3,3,09,70,01,155,*5B
$GPGSA,A,3,05,07,15,17,24,28,30,,,,,,2.1,1.2,1.8*34
$GNGSA,A,3,05,07,15,17,24,28,30,,,,,,2.1,1.2,1.8*2A
$GNGSA,A,3,73,,,,,,,,,,,,2.1,1.2,1.8*21
$QZGSA,A,3,,,,,,,,,,,,,2.1,1.2,1.8*27
$IMGSA,A,3,,,,,,,,,,,,,2.1,1.2,1.8*28
$GPRMC,110226.00,A,4155.820478,N,01236.693379,E,000.7,,220219,,,A*78
$GPGGA,110227.00,4155.820524,N,01236.693458,E,1,09,3.2,61.7,M,45.0,M,,*5D
$GPGSV,3,1,12,13,75,332,14,28,61,074,34,15,40,307,18,05,37,207,17*79
$GPGSV,3,2,12,30,35,064,40,17,13,129,27,24,13,265,21,07,05,072,35*74
$GPGSV,3,3,12,19,01,152,10,20,00,330,,04,,,22,08,01,024,*4D
$GLGSV,3,1,09,73,48,033,23,74,70,281,23,71,49,165,27,75,19,238,21*65
$GLGSV,3,2,09,82,07,029,20,72,70,302,,65,25,326,,83,04,075,*64
$GLGSV,3,3,09,70,01,155,*5B
$GPGSA,A,3,05,07,13,15,17,24,28,30,,,,,3.0,2.0,2.2*3E
$GNGSA,A,3,05,07,13,15,17,24,28,30,,,,,3.0,2.0,2.2*20
$GNGSA,A,3,73,,,,,,,,,,,,3.0,2.0,2.2*29
$QZGSA,A,3,,,,,,,,,,,,,3.0,2.0,2.2*2F
$IMGSA,A,3,,,,,,,,,,,,,3.0,2.0,2.2*20
$GPRMC,110227.00,A,4155.820524,N,01236.693458,E,000.8,,220219,,,A*7A
$GPGGA,110228.00,4155.820999,N,01236.693332,E,1,09,3.2,61.7,M,45.0,M,,*53
$GPGSV,3,1,12,13,75,332,14,28,61,074,34,15,40,307,18,05,37,207,19*77
$GPGSV,3,2,12,30,35,064,40,17,13,129,27,24,13,265,21,07,05,072,35*74
$GPGSV,3,3,12,19,01,152,10,20,00,330,,04,,,22,08,01,024,*4D
$GLGSV,3,1,09,73,48,033,23,74,70,281,22,71,49,165,28,75,19,238,21*6B
$GLGSV,3,2,09,82,07,029,20,72,70,302,,65,25,326,,83,04,075,*64
$GLGSV,3,3,09,70,01,155,*5B
$GPGSA,A,3,05,07,13,15,17,24,28,30,,,,,3.0,2.0,2.2*3E
$GNGSA,A,3,05,07,13,15,17,24,28,30,,,,,3.0,2.0,2.2*20
$GNGSA,A,3,73,,,,,,,,,,,,3.0,2.0,2.2*29
$QZGSA,A,3,,,,,,,,,,,,,3.0,2.0,2.2*2F
$IMGSA,A,3,,,,,,,,,,,,,3.0,2.0,2.2*20
$GPRMC,110228.00,A,4155.820999,N,01236.693332,E,000.5,,220219,,,A*79
$GPGGA,110229.00,4155.820972,N,01236.693273,E,1,09,3.2,61.8,M,45.0,M,,*5C
$GPGSV,3,1,12,13,75,332,14,28,61,074,33,15,40,307,17,05,37,207,19*7F
$GPGSV,3,2,12,30,35,064,40,17,13,129,27,24,13,265,21,07,05,072,35*74
$GPGSV,3,3,12,19,01,152,09,20,00,330,,04,,,22,08,01,024,*45
$GLGSV,3,1,09,73,48,033,24,74,70,281,21,71,49,165,28,75,19,238,21*6F
$GLGSV,3,2,09,82,07,029,21,72,70,302,,65,25,326,,83,04,075,*65
$GLGSV,3,3,09,70,01,155,*5B
$GPGSA,A,3,05,07,13,15,17,24,28,30,,,,,3.0,2.0,2.2*3E
$GNGSA,A,3,05,07,13,15,17,24,28,30,,,,,3.0,2.0,2.2*20
$GNGSA,A,3,73,,,,,,,,,,,,3.0,2.0,2.2*29
$QZGSA,A,3,,,,,,,,,,,,,3.0,2.0,2.2*2F
$IMGSA,A,3,,,,,,,,,,,,,3.0,2.0,2.2*20
$GPRMC,110229.00,A,4155.820972,N,01236.693273,E,000.7,,220219,,,A*7B
$GPGGA,110230.00,4155.820517,N,01236.693419,E,1,09,3.2,61.8,M,45.0,M,,*51
$GPGSV,3,1,12,13,75,332,14,28,61,074,33,15,40,307,17,05,37,207,19*7F
$GPGSV,3,2,12,30,35,064,40,17,13,129,26,24,13,265,21,07,05,072,35*75
$GPGSV,3,3,12,19,01,152,09,20,00,330,,04,,,22,08,01,024,*45
$GLGSV,3,1,09,73,48,033,24,74,70,281,21,71,49,165,28,75,19,238,21*6F
$GLGSV,3,2,09,82,07,029,23,72,70,302,,65,25,326,,83,04,075,*67
$GLGSV,3,3,09,70,01,155,*5B
$GPGSA,A,3,05,07,13,15,17,24,28,30,,,,,3.0,2.0,2.2*3E
$GNGSA,A,3,05,07,13,15,17,24,28,30,,,,,3.0,2.0,2.2*20
$GNGSA,A,3,73,,,,,,,,,,,,3.0,2.0,2.2*29
$QZGSA,A,3,,,,,,,,,,,,,3.0,2.0,2.2*2F
$IMGSA,A,3,,,,,,,,,,,,,3.0,2.0,2.2*20
$GPRMC,110230.00,A,4155.820517,N,01236.693419,E,000.7,,220219,,,A*76
$GPGGA,110231.00,4155.820567,N,01236.693061,E,1,09,3.2,61.8,M,45.0,M,,*5C
$GPGSV,3,1,12,13,75,332,14,28,61,074,33,15,40,307,17,05,37,207,19*7F
$GPGSV,3,2,12,30,35,064,39,17,13,129,26,24,13,265,20,07,05,072,36*79
$GPGSV,3,3,12,19,01,152,09,20,00,330,,04,,,22,08,01,024,*45
$GLGSV,3,1,09,73,48,033,25,74,70,281,20,71,49,165,28,75,19,238,22*6C
$GLGSV,3,2,09,82,07,029,23,72,70,302,,65,25,326,,83,04,075,*67
$GLGSV,3,3,09,70,01,155,*5B
$GPGSA,A,3,05,07,13,15,17,24,28,30,,,,,3.0,2.0,2.2*3E
$GNGSA,A,3,05,07,13,15,17,24,28,30,,,,,3.0,2.0,2.2*20
$GNGSA,A,3,73,,,,,,,,,,,,3.0,2.0,2.2*29
$QZGSA,A,3,,,,,,,,,,,,,3.0,2.0,2.2*2F
$IMGSA,A,3,,,,,,,,,,,,,3.0,2.0,2.2*20
$GPRMC,110231.00,A,4155.820567,N,01236.693061,E,000.8,,220219,,,A*74
$GPGGA,110232.00,4155.820376,N,01236.692842,E,1,09,3.2,61.9,M,45.0,M,,*50
$GPGSV,3,1,12,13,75,332,13,28,61,074,34,15,40,307,16,05,37,207,20*74
$GPGSV,3,2,12,30,35,064,39,17,13,129,26,24,13,265,20,07,05,072,36*79
$GPGSV,3,3,12,19,01,152,09,20,00,330,,04,,,22,08,01,024,*45
$GLGSV,3,1,09,73,48,033,25,74,70,281,20,71,49,165,28,75,19,238,22*6C
$GLGSV,3,2,09,82,07,029,22,72,70,302,,65,25,326,,83,04,075,*66
$GLGSV,3,3,09,70,01,155,*5B
$GPGSA,A,3,05,07,13,15,17,24,28,30,,,,,3.0,2.0,2.2*3E
$GNGSA,A,3,05,07,13,15,17,24,28,30,,,,,3.0,2.0,2.2*20
$GNGSA,A,3,73,,,,,,,,,,,,3.0,2.0,2.2*29
$QZGSA,A,3,,,,,,,,,,,,,3.0,2.0,2.2*2F
$IMGSA,A,3,,,,,,,,,,,,,3.0,2.0,2.2*20
$GPRMC,110232.00,A,4155.820376,N,01236.692842,E,001.2,,220219,,,A*72
$GPGGA,110233.00,4155.820604,N,01236.692161,E,1,09,3.2,61.9,M,45.0,M,,*59
$GPGSV,3,1,12,13,75,332,13,28,61,074,34,15,40,307,16,05,37,207,21*75
$GPGSV,3,2,12,30,35,064,39,17,13,129,25,24,13,265,20,07,05,072,36*7A
$GPGSV,3,3,12,19,01,152,09,20,00,330,,04,,,22,08,01,024,*45
$GLGSV,3,1,09,73,48,033,25,74,70,281,19,71,49,165,28,75,19,238,22*66
$GLGSV,3,2,09,82,07,029,22,72,70,302,,65,25,326,,83,04,075,*66
$GLGSV,3,3,09,70,01,155,*5B
$GPGSA,A,3,05,07,13,15,17,24,28,30,,,,,3.0,2.0,2.2*3E
$GNGSA,A,3,05,07,13,15,17,24,28,30,,,,,3.0,2.0,2.2*20
$GNGSA,A,3,73,,,,,,,,,,,,3.0,2.0,2.2*29
$QZGSA,A,3,,,,,,,,,,,,,3.0,2.0,2.2*2F
$IMGSA,A,3,,,,,,,,,,,,,3.0,2.0,2.2*20
$GPRMC,110233.00,A,4155.820604,N,01236.692161,E,001.2,,220219,,,A*7B
$GPGGA,110234.00,4155.820573,N,01236.691729,E,1,09,3.2,62.0,M,45.0,M,,*5E
$GPGSV,3,1,12,13,75,332,13,28,61,074,34,15,40,307,16,05,37,207,21*75
$GPGSV,3,2,12,30,35,064,39,17,13,129,25,24,13,265,21,07,05,072,36*7B
$GPGSV,3,3,12,19,01,152,09,20,00,330,,04,,,22,08,01,024,*45
$GLGSV,3,1,09,73,48,033,25,74,70,281,19,71,49,165,28,75,19,238,22*66
$GLGSV,3,2,09,82,07,029,21,72,70,302,,65,25,326,,83,04,075,*65
$GLGSV,3,3,09,70,01,155,*5B
$GPGSA,A,3,05,07,13,15,17,24,28,30,,,,,3.0,2.0,2.2*3E
$GNGSA,A,3,05,07,13,15,17,24,28,30,,,,,3.0,2.0,2.2*20
$GNGSA,A,3,73,,,,,,,,,,,,3.0,2.0,2.2*29
$QZGSA,A,3,,,,,,,,,,,,,3.0,2.0,2.2*2F
$IMGSA,A,3,,,,,,,,,,,,,3.0,2.0,2.2*20
$GPRMC,110234.00,A,4155.820573,N,01236.691729,E,001.0,,220219,,,A*74
$GPGGA,110235.00,4155.820764,N,01236.691357,E,1,09,3.2,62.0,M,45.0,M,,*56
$GPGSV,3,1,12,13,75,332,15,28,61,074,34,15,40,307,15,05,37,207,20*71
$GPGSV,3,2,12,30,35,064,39,17,13,129,25,24,13,265,21,07,05,072,36*7B
$GPGSV,3,3,12,19,01,152,,20,00,330,,04,,,22,08,01,024,*4C
$GLGSV,3,1,09,73,48,033,25,74,70,281,18,71,49,165,28,75,19,238,22*67
$GLGSV,3,2,09,82,07,029,21,72,71,302,,65,25,326,,83,04,075,*64
$GLGSV,3,3,09,70,01,155,*5B
$GPGSA,A,3,05,07,13,15,17,24,28,30,,,,,3.0,2.0,2.2*3E
$GNGSA,A,3,05,07,13,15,17,24,28,30,,,,,3.0,2.0,2.2*20
$GNGSA,A,3,73,,,,,,,,,,,,3.0,2.0,2.2*29
$QZGSA,A,3,,,,,,,,,,,,,3.0,2.0,2.2*2F
$IMGSA,A,3,,,,,,,,,,,,,3.0,2.0,2.2*20
$GPRMC,110235.00,A,4155.820764,N,01236.691357,E,000.8,,220219,,,A*75
$GPGGA,110236.00,4155.821125,N,01236.691051,E,1,09,3.2,62.0,M,45.0,M,,*52
$GPGSV,3,1,12,13,75,332,15,28,61,074,34,15,40,307,15,05,37,207,20*71
$GPGSV,3,2,12,30,35,064,39,17,13,129,25,24,13,265,22,07,05,072,36*78
$GPGSV,3,3,12,19,01,152,09,20,00,330,,04,,,22,08,01,024,*45
$GLGSV,3,1,09,73,48,033,25,74,70,281,18,71,49,165,28,75,19,238,23*66
$GLGSV,3,2,09,82,07,029,21,72,71,302,,65,25,326,,83,04,075,*64
$GLGSV,3,3,09,70,01,155,*5B
$GPGSA,A,3,05,07,13,15,17,24,28,30,,,,,2.9,1.9,2.2*3C
$GNGSA,A,3,05,07,13,15,17,24,28,30,,,,,2.9,1.9,2.2*22
$GNGSA,A,3,73,,,,,,,,,,,,2.9,1.9,2.2*2B
$QZGSA,A,3,,,,,,,,,,,,,2.9,1.9,2.2*2D
$IMGSA,A,3,,,,,,,,,,,,,2.9,1.9,2.2*22
$GPRMC,110236.00,A,4155.821125,N,01236.691051,E,000.7,,220219,,,A*7E
$GPGGA,110237.00,4155.821164,N,01236.690999,E,1,09,3.2,62.1,M,45.0,M,,*5B
$GPGSV,3,1,12,13,75,332,16,28,61,074,33,15,40,307,15,05,37,207,20*75
$GPGSV,3,2,12,30,35,064,39,17,13,129,25,24,13,265,22,07,05,072,36*78
$GPGSV,3,3,12,19,01,152,,20,00,330,,04,,,22,08,01,024,*4C
$GLGSV,3,1,09,73,48,033,26,74,70,281,18,71,49,165,28,75,19,238,23*65
$GLGSV,3,2,09,82,07,029,21,72,71,301,,65,25,326,,83,04,075,*67
$GLGSV,3,3,09,70,01,155,*5B
$GPGSA,A,3,05,07,13,15,17,24,28,30,,,,,2.9,1.9,2.2*3C
$GNGSA,A,3,05,07,13,15,17,24,28,30,,,,,2.9,1.9,2.2*22
$GNGSA,A,3,73,,,,,,,,,,,,2.9,1.9,2.2*2B
$QZGSA,A,3,,,,,,,,,,,,,2.9,1.9,2.2*2D
$IMGSA,A,3,,,,,,,,,,,,,2.9,1.9,2.2*22
$GPRMC,110237.00,A,4155.821164,N,01236.690999,E,000.7,,220219,,,A*76
$GPGGA,110238.00,4155.819822,N,01236.691159,E,1,10,3.2,62.1,M,45.0,M,,*59
$GPGSV,3,1,12,13,75,332,19,28,61,074,33,15,40,307,15,05,37,207,20*7A
$GPGSV,3,2,12,30,35,064,39,17,13,129,25,24,13,265,23,07,05,072,36*79
$GPGSV,3,3,12,19,01,152,08,20,00,330,,04,,,22,08,01,024,*44
$GLGSV,3,1,09,73,48,033,27,74,70,281,17,71,49,165,28,75,19,238,23*6B
$GLGSV,3,2,09,82,07,029,21,72,71,301,,65,25,326,,83,04,075,*67
$GLGSV,3,3,09,70,01,155,*5B
$GPGSA,A,3,05,07,13,15,17,24,28,30,,,,,2.6,1.7,2.0*3F
$GNGSA,A,3,05,07,13,15,17,24,28,30,,,,,2.6,1.7,2.0*21
$GNGSA,A,3,71,73,,,,,,,,,,,2.6,1.7,2.0*2E
$QZGSA,A,3,,,,,,,,,,,,,2.6,1.7,2.0*2E
$IMGSA,A,3,,,,,,,,,,,,,2.6,1.7,2.0*21
$GPRMC,110238.00,A,4155.819822,N,01236.691159,E,000.5,,220219,,,A*7E
$GPGGA,110239.00,4155.818920,N,01236.691183,E,1,10,3.2,62.1,M,45.0,M,,*5D
$GPGSV,3,1,12,13,75,332,20,28,61,074,33,15,40,307,14,05,37,207,19*7B
$GPGSV,3,2,12,30,35,064,39,17,13,129,25,24,13,265,23,07,05,072,36*79
$GPGSV,3,3,12,19,01,152,08,20,00,330,,04,,,22,08,01,024,*44
$GLGSV,3,1,09,71,49,165,28,73,48,033,27,74,70,281,17,75,19,238,23*6B
$GLGSV,3,2,09,82,07,029,21,72,71,301,,65,25,326,,83,04,075,*67
$GLGSV,3,3,09,70,01,155,*5B
$GPGSA,A,3,05,07,13,15,17,24,28,30,,,,,2.6,1.7,2.0*3F
$GNGSA,A,3,05,07,13,15,17,24,28,30,,,,,2.6,1.7,2.0*21
$GNGSA,A,3,71,73,,,,,,,,,,,2.6,1.7,2.0*2E
$QZGSA,A,3,,,,,,,,,,,,,2.6,1.7,2.0*2E
$IMGSA,A,3,,,,,,,,,,,,,2.6,1.7,2.0*21
$GPRMC,110239.00,A,4155.818920,N,01236.691183,E,000.2,,220219,,,A*7D
$GPGGA,110240.00,4155.818871,N,01236.691073,E,1,09,3.2,62.1,M,45.0,M,,*50
$GPGSV,3,1,12,13,75,332,22,28,61,074,33,15,40,307,14,05,37,207,19*79
$GPGSV,3,2,12,30,35,064,39,17,13,129,25,24,13,265,24,07,05,072,36*7E
$GPGSV,3,3,12,19,01,152,,20,00,330,,04,,,22,08,01,024,*4C
$GLGSV,3,1,09,71,49,165,28,73,48,033,27,74,70,281,17,75,19,238,23*6B
$GLGSV,3,2,09,82,07,029,21,72,71,301,,65,25,326,,83,04,075,*67
$GLGSV,3,3,09,70,01,155,*5B
$GPGSA,A,3,05,07,13,17,24,28,30,,,,,,2.6,1.7,2.0*3B
$GNGSA,A,3,05,07,13,17,24,28,30,,,,,,2.6,1.7,2.0*25
$GNGSA,A,3,71,73,,,,,,,,,,,2.6,1.7,2.0*2E
$QZGSA,A,3,,,,,,,,,,,,,2.6,1.7,2.0*2E
$IMGSA,A,3,,,,,,,,,,,,,2.6,1.7,2.0*21
$GPRMC,110240.00,A,4155.818871,N,01236.691073,E,000.0,,220219,,,A*7A
$GPGGA,110241.00,4155.818924,N,01236.690981,E,1,09,3.2,62.1,M,45.0,M,,*55
$GPGSV,3,1,12,13,75,332,21,28,61,074,33,15,40,307,14,05,37,207,19*7A
$GPGSV,3,2,12,30,35,064,39,17,13,129,25,24,13,265,24,07,05,072,36*7E
$GPGSV,3,3,12,19,01,152,08,20,00,330,,04,,,22,08,01,024,*44
$GLGSV,3,1,09,71,49,165,27,73,48,033,27,74,70,281,19,75,19,238,23*6A
$GLGSV,3,2,09,82,07,029,21,72,71,301,,65,25,326,,83,04,075,*67
$GLGSV,3,3,09,70,01,155,*5B
$GPGSA,A,3,05,07,13,17,24,28,30,,,,,,2.6,1.7,2.0*3B
$GNGSA,A,3,05,07,13,17,24,28,30,,,,,,2.6,1.7,2.0*25
$GNGSA,A,3,71,73,,,,,,,,,,,2.6,1.7,2.0*2E
$QZGSA,A,3,,,,,,,,,,,,,2.6,1.7,2.0*2E
$IMGSA,A,3,,,,,,,,,,,,,2.6,1.7,2.0*21
$GPRMC,110241.00,A,4155.818924,N,01236.690981,E,000.4,,220219,,,A*7B
$GPGGA,110242.00,4155.818797,N,01236.690831,E,1,09,3.2,62.1,M,45.0,M,,*5A
$GPGSV,3,1,12,13,75,332,22,28,61,074,34,15,40,307,14,05,37,207,18*7F
$GPGSV,3,2,12,30,35,064,39,17,13,129,26,24,13,265,25,07,05,072,36*7C
$GPGSV,3,3,12,19,01,152,10,20,00,330,,04,,,22,08,01,024,*4D
$GLGSV,3,1,09,71,49,165,27,73,48,033,27,74,70,281,21,75,19,238,23*61
$GLGSV,3,2,09,82,07,029,21,72,71,301,,65,25,326,,83,04,075,*67
$GLGSV,3,3,09,70,01,155,*5B
$GPGSA,A,3,05,07,13,17,24,28,30,,,,,,2.6,1.7,2.0*3B
$GNGSA,A,3,05,07,13,17,24,28,30,,,,,,2.6,1.7,2.0*25
$GNGSA,A,3,71,73,,,,,,,,,,,2.6,1.7,2.0*2E
$QZGSA,A,3,,,,,,,,,,,,,2.6,1.7,2.0*2E
$IMGSA,A,3,,,,,,,,,,,,,2.6,1.7,2.0*21
$GPRMC,110242.00,A,4155.818797,N,01236.690831,E,000.1,,220219,,,A*71
$GPGGA,110243.00,4155.818484,N,01236.690816,E,1,09,3.2,62.1,M,45.0,M,,*5F
$GPGSV,3,1,12,13,75,332,23,28,61,074,34,15,40,307,13,05,37,207,18*79
$GPGSV,3,2,12,30,35,064,39,17,13,129,27,24,13,265,25,07,05,072,36*7D
$GPGSV,3,3,12,19,01,152,10,20,00,330,,04,,,23,08,01,024,*4C
$GLGSV,3,1,09,71,49,165,27,73,48,033,27,74,70,281,21,75,19,238,23*61
$GLGSV,3,2,09,82,07,029,21,72,71,301,,65,25,326,,83,04,075,*67
$GLGSV,3,3,09,70,01,155,*5B
$GPGSA,A,3,05,07,13,17,24,28,30,,,,,,2.6,1.7,2.0*3B
$GNGSA,A,3,05,07,13,17,24,28,30,,,,,,2.6,1.7,2.0*25
$GNGSA,A,3,71,73,,,,,,,,,,,2.6,1.7,2.0*2E
$QZGSA,A,3,,,,,,,,,,,,,2.6,1.7,2.0*2E
$IMGSA,A,3,,,,,,,,,,,,,2.6,1.7,2.0*21
$GPRMC,110243.00,A,4155.818484,N,01236.690816,E,000.3,,220219,,,A*76
$GPGGA,110244.00,4155.817849,N,01236.690896,E,1,09,3.2,62.1,M,45.0,M,,*52
$GPGSV,3,1,12,13,75,332,23,28,61,074,34,15,40,307,13,05,37,207,18*79
$GPGSV,3,2,12,30,35,064,39,17,13,129,28,24,13,265,25,07,05,072,36*72
$GPGSV,3,3,12,19,01,152,09,20,00,330,,04,,,23,08,01,024,*44
$GLGSV,3,1,09,71,49,165,27,73,48,033,27,74,70,281,22,75,19,239,23*63
$GLGSV,3,2,09,82,07,029,21,72,71,301,,65,25,326,,83,04,075,*67
$GLGSV,3,3,09,70,01,155,*5B
$GPGSA,A,3,05,07,13,17,24,28,30,,,,,,2.6,1.7,2.0*3B
$GNGSA,A,3,05,07,13,17,24,28,30,,,,,,2.6,1.7,2.0*25
$GNGSA,A,3,71,73,,,,,,,,,,,2.6,1.7,2.0*2E
$QZGSA,A,3,,,,,,,,,,,,,2.6,1.7,2.0*2E
$IMGSA,A,3,,,,,,,,,,,,,2.6,1.7,2.0*21
$GPRMC,110244.00,A,4155.817849,N,01236.690896,E,000.4,,220219,,,A*7C
$GPGGA,110245.00,4155.817294,N,01236.690956,E,1,09,3.2,62.1,M,45.0,M,,*54
$GPGSV,3,1,12,13,75,332,23,28,61,074,34,15,40,307,13,05,37,207,18*79
$GPGSV,3,2,12,30,35,064,39,17,13,129,28,24,13,265,25,07,05,072,36*72
$GPGSV,3,3,12,19,01,152,09,20,00,330,,04,,,23,08,01,024,*44
$GLGSV,3,1,09,71,49,165,27,73,48,033,27,74,70,282,23,75,20,239,23*6B
$GLGSV,3,2,09,82,07,029,21,72,71,301,,65,25,326,,83,04,075,*67
$GLGSV,3,3,09,70,01,155,*5B
$GPGSA,A,3,05,07,13,17,24,28,30,,,,,,3.7,2.5,2.7*3D
$GNGSA,A,3,05,07,13,17,24,28,30,,,,,,3.7,2.5,2.7*23
$GNGSA,A,3,71,73,,,,,,,,,,,3.7,2.5,2.7*28
$QZGSA,A,3,,,,,,,,,,,,,3.7,2.5,2.7*28
$IMGSA,A,3,,,,,,,,,,,,,3.7,2.5,2.7*27
$GPRMC,110245.00,A,4155.817294,N,01236.690956,E,000.3,,220219,,,A*7D
$GPGGA,110246.00,4155.816711,N,01236.691729,E,1,09,3.2,62.1,M,45.0,M,,*59
$GPGSV,3,1,12,13,75,332,23,28,61,074,33,15,40,307,13,05,37,207,17*71
$GPGSV,3,2,12,30,35,064,39,17,13,129,28,24,13,265,25,07,05,072,36*72
$GPGSV,3,3,12,19,01,152,10,20,00,330,,04,,,23,08,01,024,*4C
$GLGSV,3,1,09,71,49,165,27,73,48,033,27,74,70,282,24,75,20,239,23*6C
$GLGSV,3,2,09,82,07,029,22,72,71,301,,65,25,326,,83,04,075,*64
$GLGSV,3,3,09,70,01,155,*5B
$GPGSA,A,3,05,07,13,17,24,28,30,,,,,,2.6,1.7,2.0*3B
$GNGSA,A,3,05,07,13,17,24,28,30,,,,,,2.6,1.7,2.0*25
$GNGSA,A,3,71,73,,,,,,,,,,,2.6,1.7,2.0*2E
$QZGSA,A,3,,,,,,,,,,,,,2.6,1.7,2.0*2E
$IMGSA,A,3,,,,,,,,,,,,,2.6,1.7,2.0*21
$GPRMC,110246.00,A,4155.816711,N,01236.691729,E,000.1,,220219,,,A*72
$GPGGA,110247.00,4155.816516,N,01236.692227,E,1,09,3.2,62.1,M,45.0,M,,*55
$GPGSV,3,1,12,13,75,332,23,28,61,074,33,15,40,307,12,05,36,207,17*71
$GPGSV,3,2,12,30,35,064,39,17,13,129,28,24,13,265,25,07,05,072,36*72
$GPGSV,3,3,12,19,01,152,10,20,00,330,,04,,,22,08,01,024,*4D
$GLGSV,3,1,09,71,49,165,27,73,48,033,26,74,70,282,24,75,20,239,23*6D
$GLGSV,3,2,09,82,07,029,24,72,71,301,,65,25,326,,83,04,075,*62
$GLGSV,3,3,09,70,01,155,*5B
$GPGSA,A,3,05,07,13,17,24,28,30,,,,,,2.6,1.7,2.0*3B
$GNGSA,A,3,05,07,13,17,24,28,30,,,,,,2.6,1.7,2.0*25
$GNGSA,A,3,71,73,,,,,,,,,,,2.6,1.7,2.0*2E
$QZGSA,A,3,,,,,,,,,,,,,2.6,1.7,2.0*2E
$IMGSA,A,3,,,,,,,,,,,,,2.6,1.7,2.0*21
$GPRMC,110247.00,A,4155.816516,N,01236.692227,E,000.2,,220219,,,A*7D
$GPGGA,110248.00,4155.816509,N,01236.692676,E,1,09,3.2,62.1,M,45.0,M,,*54
$GPGSV,3,1,12,13,75,332,23,28,61,074,33,15,40,307,12,05,36,207,17*71
$GPGSV,3,2,12,30,35,064,39,17,13,129,28,24,13,265,25,07,05,072,36*72
$GPGSV,3,3,12,19,01,152,09,20,00,330,,04,,,22,08,01,024,*45
$GLGSV,3,1,09,71,49,165,27,73,48,033,26,74,70,282,24,75,20,239,22*6C
$GLGSV,3,2,09,82,07,029,23,72,71,301,,65,25,326,,83,04,075,*65
$GLGSV,3,3,09,70,01,155,*5B
$GPGSA,A,3,05,07,13,17,24,28,30,,,,,,2.6,1.7,2.0*3B
$GNGSA,A,3,05,07,13,17,24,28,30,,,,,,2.6,1.7,2.0*25
$GNGSA,A,3,71,73,,,,,,,,,,,2.6,1.7,2.0*2E
$QZGSA,A,3,,,,,,,,,,,,,2.6,1.7,2.0*2E
$IMGSA,A,3,,,,,,,,,,,,,2.6,1.7,2.0*21
$GPRMC,110248.00,A,4155.816509,N,01236.692676,E,000.1,,220219,,,A*7F
$GPGGA,110249.00,4155.816627,N,01236.692922,E,1,09,3.2,62.1,M,45.0,M,,*54
$GPGSV,3,1,12,13,75,332,23,28,61,074,33,15,40,307,12,05,36,207,17*71
$GPGSV,3,2,12,30,35,064,38,17,13,129,28,24,13,265,25,07,05,072,36*73
$GPGSV,3,3,12,19,01,152,09,20,00,330,,04,,,22,08,01,024,*45
$GLGSV,3,1,09,71,49,165,27,73,48,033,26,74,70,282,24,75,20,239,22*6C
$GLGSV,3,2,09,82,07,029,24,72,71,301,,65,25,326,,83,04,075,*62
$GLGSV,3,3,09,70,01,155,*5B
$GPGSA,A,3,05,07,13,17,24,28,30,,,,,,3.7,2.5,2.7*3D
$GNGSA,A,3,05,07,13,17,24,28,30,,,,,,3.7,2.5,2.7*23
$GNGSA,A,3,71,73,,,,,,,,,,,3.7,2.5,2.7*28
$QZGSA,A,3,,,,,,,,,,,,,3.7,2.5,2.7*28
$IMGSA,A,3,,,,,,,,,,,,,3.7,2.5,2.7*27
$GPRMC,110249.00,A,4155.816627,N,01236.692922,E,000.1,,220219,,,A*7F
$GPGGA,110250.00,4155.816625,N,01236.693425,E,1,09,3.2,62.1,M,45.0,M,,*55
$GPGSV,3,1,12,13,75,332,23,28,61,074,33,15,40,307,12,05,36,207,16*70
$GPGSV,3,2,12,30,35,064,39,17,13,129,29,24,13,265,25,07,05,072,36*73
$GPGSV,3,3,12,19,01,152,09,20,00,330,,04,,,23,08,01,024,*44
$GLGSV,3,1,09,71,49,165,28,73,48,033,27,74,70,282,24,75,20,239,22*62
$GLGSV,3,2,09,82,07,029,26,72,71,301,,65,25,326,,83,04,075,*60
$GLGSV,3,3,09,70,01,155,*5B
$GPGSA,A,3,05,07,13,17,24,28,30,,,,,,3.7,2.5,2.7*3D
$GNGSA,A,3,05,07,13,17,24,28,30,,,,,,3.7,2.5,2.7*23
$GNGSA,A,3,71,73,,,,,,,,,,,3.7,2.5,2.7*28
$QZGSA,A,3,,,,,,,,,,,,,3.7,2.5,2.7*28
$IMGSA,A,3,,,,,,,,,,,,,3.7,2.5,2.7*27
$GPRMC,110250.00,A,4155.816625,N,01236.693425,E,000.0,,220219,,,A*7F
$GPGGA,110251.00,4155.816949,N,01236.693375,E,1,09,3.2,62.0,M,45.0,M,,*52
$GPGSV,3,1,12,13,75,332,23,28,61,074,33,15,40,307,12,05,36,207,16*70
$GPGSV,3,2,12,30,35,064,39,24,14,265,24,17,13,129,29,07,05,072,36*75
$GPGSV,3,3,12,19,01,152,09,20,00,330,,04,,,23,08,01,024,*44
$GLGSV,3,1,09,71,49,165,28,73,48,033,27,74,70,282,24,75,20,239,22*62
$GLGSV,3,2,09,82,07,029,26,72,71,301,,65,25,326,,83,04,075,*60
$GLGSV,3,3,09,70,01,155,*5B
$GPGSA,A,3,05,07,13,17,24,28,30,,,,,,2.6,1.7,2.0*3B
$GNGSA,A,3,05,07,13,17,24,28,30,,,,,,2.6,1.7,2.0*25
$GNGSA,A,3,71,73,,,,,,,,,,,2.6,1.7,2.0*2E
$QZGSA,A,3,,,,,,,,,,,,,2.6,1.7,2.0*2E
$IMGSA,A,3,,,,,,,,,,,,,2.6,1.7,2.0*21
$GPRMC,110251.00,A,4155.816949,N,01236.693375,E,000.0,,220219,,,A*79
$GPGGA,110252.00,4155.816950,N,01236.693371,E,1,09,3.2,62.0,M,45.0,M,,*5D
$GPGSV,3,1,12,13,75,332,23,28,61,074,33,15,40,307,11,05,36,207,16*73
$GPGSV,3,2,12,30,35,064,39,24,14,265,24,17,13,129,29,07,05,072,36*75
$GPGSV,3,3,12,20,01,330,09,19,01,152,09,04,,,23,08,01,024,*4C
$GLGSV,3,1,09,71,49,165,28,73,48,033,27,74,70,282,24,75,20,239,22*62
$GLGSV,3,2,09,82,07,029,26,72,71,301,,65,25,326,,83,04,075,*60
$GLGSV,3,3,09,70,01,155,*5B
$GPGSA,A,3,05,07,13,17,24,28,30,,,,,,2.6,1.7,2.0*3B
$GNGSA,A,3,05,07,13,17,24,28,30,,,,,,2.6,1.7,2.0*25
$GNGSA,A,3,71,73,,,,,,,,,,,2.6,1.7,2.0*2E
$QZGSA,A,3,,,,,,,,,,,,,2.6,1.7,2.0*2E
$IMGSA,A,3,,,,,,,,,,,,,2.6,1.7,2.0*21
$GPRMC,110252.00,A,4155.816950,N,01236.693371,E,000.0,,220219,,,A*76
$GPGGA,110253.00,4155.816971,N,01236.693359,E,1,09,3.2,62.0,M,45.0,M,,*55
$GPGSV,3,1,12,13,75,332,23,28,61,074,33,15,40,307,11,05,36,207,16*73
$GPGSV,3,2,12,30,35,064,39,24,14,265,25,17,13,129,29,07,05,072,36*74
$GPGSV,3,3,12,20,01,330,,19,01,152,09,04,,,23,08,01,024,*45
$GLGSV,3,1,09,71,49,165,28,73,48,033,27,74,70,282,23,75,20,239,21*66
$GLGSV,3,2,09,82,07,029,26,72,71,301,,65,25,326,,83,04,075,*60
$GLGSV,3,3,09,70,01,155,*5B
$GPGSA,A,3,05,07,13,17,24,28,30,,,,,,2.6,1.7,2.0*3B
$GNGSA,A,3,05,07,13,17,24,28,30,,,,,,2.6,1.7,2.0*25
$GNGSA,A,3,71,73,,,,,,,,,,,2.6,1.7,2.0*2E
$QZGSA,A,3,,,,,,,,,,,,,2.6,1.7,2.0*2E
$IMGSA,A,3,,,,,,,,,,,,,2.6,1.7,2.0*21
$GPRMC,110253.00,A,4155.816971,N,01236.693359,E,000.0,,220219,,,A*7E
$GPGGA,110254.00,4155.816982,N,01236.693361,E,1,09,3.2,62.0,M,45.0,M,,*55
$GPGSV,3,1,12,13,75,332,22,28,61,074,33,15,40,307,11,05,36,207,16*72
$GPGSV,3,2,12,30,35,064,39,24,14,265,25,17,13,129,31,07,05,072,37*7C
$GPGSV,3,3,12,20,01,330,09,19,01,152,09,04,,,23,08,01,024,*4C
$GLGSV,3,1,09,71,49,165,29,73,48,033,27,74,70,282,23,75,20,239,21*67
$GLGSV,3,2,09,82,07,029,26,72,71,301,,65,25,326,,83,04,075,*60
$GLGSV,3,3,09,70,01,155,*5B
$GPGSA,A,3,05,07,13,17,24,28,30,,,,,,2.6,1.7,2.0*3B
$GNGSA,A,3,05,07,13,17,24,28,30,,,,,,2.6,1.7,2.0*25
$GNGSA,A,3,71,73,,,,,,,,,,,2.6,1.7,2.0*2E
$QZGSA,A,3,,,,,,,,,,,,,2.6,1.7,2.0*2E
$IMGSA,A,3,,,,,,,,,,,,,2.6,1.7,2.0*21
$GPRMC,110254.00,A,4155.816982,N,01236.693361,E,000.0,,220219,,,A*7E
$GPGGA,110255.00,4155.816988,N,01236.693372,E,1,09,3.2,62.0,M,45.0,M,,*5C
$GPGSV,3,1,12,13,75,332,22,28,61,074,33,15,40,307,11,05,36,207,16*72
$GPGSV,3,2,12,30,35,064,39,24,14,265,26,17,13,129,31,07,05,072,37*7F
$GPGSV,3,3,12,20,01,330,10,19,01,152,09,04,,,24,08,01,024,*43
$GLGSV,3,1,09,71,49,165,29,73,48,033,27,74,70,282,23,75,20,239,21*67
$GLGSV,3,2,09,82,07,029,25,72,71,301,,65,25,326,,83,04,075,*63
$GLGSV,3,3,09,70,01,155,*5B
$GPGSA,A,3,05,07,13,17,24,28,30,,,,,,3.7,2.5,2.7*3D
$GNGSA,A,3,05,07,13,17,24,28,30,,,,,,3.7,2.5,2.7*23
$GNGSA,A,3,71,73,,,,,,,,,,,3.7,2.5,2.7*28
$QZGSA,A,3,,,,,,,,,,,,,3.7,2.5,2.7*28
$IMGSA,A,3,,,,,,,,,,,,,3.7,2.5,2.7*27
$GPRMC,110255.00,A,4155.816988,N,01236.693372,E,000.0,,220219,,,A*77
$GPGGA,110256.00,4155.817028,N,01236.693376,E,1,09,3.2,62.0,M,45.0,M,,*59
$GPGSV,3,1,12,13,75,332,22,28,61,074,33,15,40,307,11,05,36,207,16*72
$GPGSV,3,2,12,30,35,064,39,24,14,265,25,17,13,129,31,07,05,072,37*7C
$GPGSV,3,3,12,20,01,330,10,19,01,152,09,04,,,24,08,01,024,*43
$GLGSV,3,1,09,71,49,165,29,73,48,033,27,74,70,282,22,75,20,239,20*67
$GLGSV,3,2,09,82,07,029,25,72,71,301,,65,25,326,,83,04,075,*63
$GLGSV,3,3,09,70,01,155,*5B
$GPGSA,A,3,05,07,13,17,24,28,30,,,,,,3.7,2.5,2.7*3D
$GNGSA,A,3,05,07,13,17,24,28,30,,,,,,3.7,2.5,2.7*23
$GNGSA,A,3,71,73,,,,,,,,,,,3.7,2.5,2.7*28
$QZGSA,A,3,,,,,,,,,,,,,3.7,2.5,2.7*28
$IMGSA,A,3,,,,,,,,,,,,,3.7,2.5,2.7*27
$GPRMC,110256.00,A,4155.817028,N,01236.693376,E,000.0,,220219,,,A*72
$GPGGA,110257.00,4155.817047,N,01236.693375,E,1,09,3.2,62.0,M,45.0,M,,*52
$GPGSV,3,1,12,13,75,332,22,28,61,074,33,15,40,307,11,05,36,207,16*72
$GPGSV,3,2,12,30,35,064,39,24,14,265,25,17,13,129,31,07,05,072,37*7C
$GPGSV,3,3,12,20,01,330,10,19,01,152,09,04,,,24,08,01,024,*43
$GLGSV,3,1,09,71,49,165,29,73,48,033,27,74,70,282,21,75,20,239,20*64
$GLGSV,3,2,09,82,07,029,25,72,71,301,,65,25,326,,83,04,075,*63
$GLGSV,3,3,09,70,01,155,*5B
$GPGSA,A,3,05,07,13,17,24,28,30,,,,,,3.7,2.6,2.7*3E
$GNGSA,A,3,05,07,13,17,24,28,30,,,,,,3.7,2.6,2.7*20
$GNGSA,A,3,71,73,,,,,,,,,,,3.7,2.6,2.7*2B
$QZGSA,A,3,,,,,,,,,,,,,3.7,2.6,2.7*2B
$IMGSA,A,3,,,,,,,,,,,,,3.7,2.6,2.7*24
$GPRMC,110257.00,A,4155.817047,N,01236.693375,E,000.0,,220219,,,A*79
$GPGGA,110258.00,4155.817174,N,01236.693392,E,1,09,3.2,62.0,M,45.0,M,,*55
$GPGSV,3,1,12,13,75,332,22,28,61,074,33,15,40,307,10,05,36,207,17*72
$GPGSV,3,2,12,30,35,064,39,24,14,265,25,17,13,129,30,07,05,072,37*7D
$GPGSV,3,3,12,20,01,330,10,19,01,152,,04,,,24,08,01,024,*4A
$GLGSV,3,1,09,71,49,165,29,73,48,033,27,74,70,282,21,75,20,239,19*6E
$GLGSV,3,2,09,82,07,029,25,72,71,301,,65,25,326,,83,04,075,*63
$GLGSV,3,3,09,70,01,155,*5B
$GPGSA,A,3,05,07,13,17,24,28,30,,,,,,2.6,1.7,2.0*3B
$GNGSA,A,3,05,07,13,17,24,28,30,,,,,,2.6,1.7,2.0*25
$GNGSA,A,3,71,73,,,,,,,,,,,2.6,1.7,2.0*2E
$QZGSA,A,3,,,,,,,,,,,,,2.6,1.7,2.0*2E
$IMGSA,A,3,,,,,,,,,,,,,2.6,1.7,2.0*21
$GPRMC,110258.00,A,4155.817174,N,01236.693392,E,000.0,,220219,,,A*7E
$GPGGA,110259.00,4155.817335,N,01236.693420,E,1,09,3.2,62.0,M,45.0,M,,*5D
$GPGSV,3,1,12,13,75,332,22,28,61,074,33,15,41,307,10,05,36,207,17*73
$GPGSV,3,2,12,30,35,064,39,24,14,265,26,17,13,129,30,07,05,072,37*7E
$GPGSV,3,3,12,20,01,330,10,19,01,152,08,04,,,24,08,01,024,*42
$GLGSV,3,1,09,71,49,165,29,73,48,033,27,74,70,282,20,75,20,239,19*6F
$GLGSV,3,2,09,82,07,029,25,72,71,301,,65,25,326,,83,04,075,*63
$GLGSV,3,3,09,70,01,155,*5B
$GPGSA,A,3,05,07,13,17,24,28,30,,,,,,3.7,2.6,2.7*3E
$GNGSA,A,3,05,07,13,17,24,28,30,,,,,,3.7,2.6,2.7*20
$GNGSA,A,3,71,73,,,,,,,,,,,3.7,2.6,2.7*2B
$QZGSA,A,3,,,,,,,,,,,,,3.7,2.6,2.7*2B
$IMGSA,A,3,,,,,,,,,,,,,3.7,2.6,2.7*24
$GPRMC,110259.00,A,4155.817335,N,01236.693420,E,000.0,,220219,,,A*76
$GPGGA,110300.00,4155.817421,N,01236.693423,E,1,09,3.2,62.0,M,45.0,M,,*51
$GPGSV,3,1,12,13,75,332,21,28,61,074,32,15,41,307,11,05,36,207,17*70
$GPGSV,3,2,12,30,35,064,39,24,14,265,26,17,13,129,30,07,05,072,37*7E
$GPGSV,3,3,12,20,01,330,10,19,01,152,,04,,,23,08,00,024,*4C
$GLGSV,3,1,09,71,49,165,28,73,48,033,27,74,70,282,19,75,20,239,18*65
$GLGSV,3,2,09,82,07,029,27,72,71,301,,65,25,326,,83,04,075,*61
$GLGSV,3,3,09,70,01,155,*5B
$GPGSA,A,3,05,07,13,17,24,28,30,,,,,,3.7,2.6,2.7*3E
$GNGSA,A,3,05,07,13,17,24,28,30,,,,,,3.7,2.6,2.7*20
$GNGSA,A,3,71,73,,,,,,,,,,,3.7,2.6,2.7*2B
$QZGSA,A,3,,,,,,,,,,,,,3.7,2.6,2.7*2B
$IMGSA,A,3,,,,,,,,,,,,,3.7,2.6,2.7*24
$GPRMC,110300.00,A,4155.817421,N,01236.693423,E,000.1,,220219,,,A*7B
$GPGGA,110301.00,4155.817412,N,01236.693416,E,1,09,3.2,62.0,M,45.0,M,,*56
$GPGSV,3,1,12,13,75,332,21,28,61,074,32,15,41,307,11,05,36,207,17*70
$GPGSV,3,2,12,30,35,064,39,24,14,265,26,17,13,129,30,07,05,072,37*7E
$GPGSV,3,3,12,20,01,330,10,19,01,152,08,04,,,23,08,00,024,*44
$GLGSV,3,1,09,71,49,165,28,73,48,033,27,74,70,282,19,75,20,239,18*65
$GLGSV,3,2,09,82,07,029,27,72,71,301,,65,25,326,,83,04,075,*61
$GLGSV,3,3,09,70,01,155,*5B
$GPGSA,A,3,05,07,13,17,24,28,30,,,,,,3.7,2.6,2.7*3E
$GNGSA,A,3,05,07,13,17,24,28,30,,,,,,3.7,2.6,2.7*20
$GNGSA,A,3,71,73,,,,,,,,,,,3.7,2.6,2.7*2B
$QZGSA,A,3,,,,,,,,,,,,,3.7,2.6,2.7*2B
$IMGSA,A,3,,,,,,,,,,,,,3.7,2.6,2.7*24
$GPRMC,110301.00,A,4155.817412,N,01236.693416,E,000.0,,220219,,,A*7D
$GPGGA,110302.00,4155.817435,N,01236.693411,E,1,09,3.2,62.0,M,45.0,M,,*57
$GPGSV,3,1,12,13,75,332,21,28,61,074,32,15,41,307,11,05,36,207,17*70
$GPGSV,3,2,12,30,35,064,39,17,14,129,30,24,14,265,27,07,05,072,37*78
$GPGSV,3,3,12,20,01,330,11,19,01,152,08,04,,,23,08,00,024,*45
$GLGSV,3,1,09,71,49,165,28,73,48,033,27,74,70,282,18,75,20,239,18*64
$GLGSV,3,2,09,82,07,029,27,72,71,301,,65,25,326,,83,04,075,*61
$GLGSV,3,3,09,70,01,155,*5B
$GPGSA,A,3,05,07,13,17,24,28,30,,,,,,3.7,2.6,2.7*3E
$GNGSA,A,3,05,07,13,17,24,28,30,,,,,,3.7,2.6,2.7*20
$GNGSA,A,3,71,73,,,,,,,,,,,3.7,2.6,2.7*2B
$QZGSA,A,3,,,,,,,,,,,,,3.7,2.6,2.7*2B
$IMGSA,A,3,,,,,,,,,,,,,3.7,2.6,2.7*24
$GPRMC,110302.00,A,4155.817435,N,01236.693411,E,000.0,,220219,,,A*7C
$GPGGA,110303.00,4155.817446,N,01236.693405,E,1,09,3.2,62.0,M,45.0,M,,*57
$GPGSV,3,1,12,13,75,332,20,28,61,074,32,15,41,307,11,05,36,207,17*71
$GPGSV,3,2,12,30,35,064,39,17,14,129,30,24,14,265,27,07,05,072,37*78
$GPGSV,3,3,12,20,01,330,10,19,01,152,08,04,,,23,08,00,024,*44
$GLGSV,3,1,09,71,49,165,28,73,48,033,27,74,70,282,18,75,20,239,17*6B
$GLGSV,3,2,09,82,07,029,28,72,71,301,,65,25,326,,83,04,075,*6E
$GLGSV,3,3,09,70,01,155,*5B
$GPGSA,A,3,05,07,13,17,24,28,30,,,,,,3.7,2.6,2.7*3E
$GNGSA,A,3,05,07,13,17,24,28,30,,,,,,3.7,2.6,2.7*20
$GNGSA,A,3,71,73,,,,,,,,,,,3.7,2.6,2.7*2B
$QZGSA,A,3,,,,,,,,,,,,,3.7,2.6,2.7*2B
$IMGSA,A,3,,,,,,,,,,,,,3.7,2.6,2.7*24
$GPRMC,110303.00,A,4155.817446,N,01236.693405,E,000.0,,220219,,,A*7C
$GPGGA,110304.00,4155.817454,N,01236.693397,E,1,09,3.2,62.0,M,45.0,M,,*5F
$GPGSV,3,1,12,13,75,332,20,28,61,074,32,15,41,307,11,05,36,207,17*71
$GPGSV,3,2,12,30,35,064,39,17,14,129,30,24,14,265,27,07,05,072,37*78
$GPGSV,3,3,12,20,01,330,11,19,01,152,08,04,,,23,08,00,024,*45
$GLGSV,3,1,09,71,49,165,27,73,48,033,27,74,70,282,17,75,20,239,17*6B
$GLGSV,3,2,09,82,07,029,28,72,71,301,,65,25,326,,83,04,075,*6E
$GLGSV,3,3,09,70,01,155,*5B
$GPGSA,A,3,05,07,13,17,24,28,30,,,,,,3.7,2.6,2.7*3E
$GNGSA,A,3,05,07,13,17,24,28,30,,,,,,3.7,2.6,2.7*20
$GNGSA,A,3,71,73,,,,,,,,,,,3.7,2.6,2.7*2B
$QZGSA,A,3,,,,,,,,,,,,,3.7,2.6,2.7*2B
$IMGSA,A,3,,,,,,,,,,,,,3.7,2.6,2.7*24
$GPRMC,110304.00,A,4155.817454,N,01236.693397,E,000.0,,220219,,,A*74
$GPGGA,110305.00,4155.817490,N,01236.693370,E,1,09,3.2,62.0,M,45.0,M,,*5F
$GPGSV,3,1,12,13,75,332,20,28,61,074,32,15,41,307,11,05,36,207,17*71
$GPGSV,3,2,12,30,35,064,39,17,14,129,30,24,14,265,27,07,05,072,37*78
$GPGSV,3,3,12,20,01,330,11,19,01,152,,04,,,23,08,00,024,*4D
$GLGSV,3,1,09,71,49,165,27,73,48,033,27,74,70,282,17,75,20,239,17*6B
$GLGSV,3,2,09,82,07,029,28,72,71,301,,65,25,326,,83,04,075,*6E
$GLGSV,3,3,09,70,01,155,*5B
$GPGSA,A,3,05,07,13,17,24,28,30,,,,,,3.7,2.6,2.7*3E
$GNGSA,A,3,05,07,13,17,24,28,30,,,,,,3.7,2.6,2.7*20
$GNGSA,A,3,71,73,,,,,,,,,,,3.7,2.6,2.7*2B
$QZGSA,A,3,,,,,,,,,,,,,3.7,2.6,2.7*2B
$IMGSA,A,3,,,,,,,,,,,,,3.7,2.6,2.7*24
$GPRMC,110305.00,A,4155.817490,N,01236.693370,E,000.0,,220219,,,A*74
$GPGGA,110306.00,4155.817528,N,01236.693335,E,1,09,3.2,62.0,M,45.0,M,,*5F
$GPGSV,3,1,12,13,75,332,20,28,61,074,32,15,41,307,11,05,36,207,16*70
$GPGSV,3,2,12,30,35,064,39,17,14,129,30,24,14,265,27,07,05,072,37*78
$GPGSV,3,3,12,20,01,330,11,19,01,152,08,04,,,22,08,00,024,*44
$GLGSV,3,1,09,71,49,165,27,73,48,033,27,74,70,282,16,75,20,239,16*6B
$GLGSV,3,2,09,82,07,029,27,72,71,301,,65,25,326,,83,04,075,*61
$GLGSV,3,3,09,70,01,155,*5B
$GPGSA,A,3,05,07,13,17,24,28,30,,,,,,3.7,2.6,2.7*3E
$GNGSA,A,3,05,07,13,17,24,28,30,,,,,,3.7,2.6,2.7*20
$GNGSA,A,3,71,73,,,,,,,,,,,3.7,2.6,2.7*2B
$QZGSA,A,3,,,,,,,,,,,,,3.7,2.6,2.7*2B
$IMGSA,A,3,,,,,,,,,,,,,3.7,2.6,2.7*24
$GPRMC,110306.00,A,4155.817528,N,01236.693335,E,000.0,,220219,,,A*74
$GPGGA,110307.00,4155.817535,N,01236.693328,E,1,09,3.2,61.9,M,45.0,M,,*54
$GPGSV,3,1,12,13,75,333,20,28,61,074,32,15,41,307,11,05,36,207,17*70
$GPGSV,3,2,12,30,35,064,39,17,14,129,30,24,14,265,27,07,05,072,37*78
$GPGSV,3,3,12,20,01,330,11,19,01,152,09,04,,,22,08,00,024,*45
$GLGSV,3,1,09,71,49,165,27,73,48,033,27,74,70,282,16,75,20,239,16*6B
$GLGSV,3,2,09,82,07,029,27,72,71,301,,65,25,326,,83,04,075,*61
$GLGSV,3,3,09,70,01,155,*5B
$GPGSA,A,3,05,07,13,17,24,28,30,,,,,,3.7,2.6,2.7*3E
$GNGSA,A,3,05,07,13,17,24,28,30,,,,,,3.7,2.6,2.7*20
$GNGSA,A,3,71,73,,,,,,,,,,,3.7,2.6,2.7*2B
$QZGSA,A,3,,,,,,,,,,,,,3.7,2.6,2.7*2B
$IMGSA,A,3,,,,,,,,,,,,,3.7,2.6,2.7*24
$GPRMC,110307.00,A,4155.817535,N,01236.693328,E,000.0,,220219,,,A*75
$GPGGA,110308.00,4155.817477,N,01236.693025,E,1,09,3.2,61.9,M,45.0,M,,*52
$GPGSV,3,1,12,13,75,333,20,28,61,074,31,15,41,307,11,05,36,207,16*72
$GPGSV,3,2,12,30,35,064,39,17,14,129,30,24,14,265,27,07,05,072,37*78
$GPGSV,3,3,12,20,01,330,11,19,01,152,10,04,,,22,08,00,024,*4D
$GLGSV,3,1,09,71,49,165,26,73,48,033,27,74,70,282,16,75,20,239,16*6A
$GLGSV,3,2,09,82,07,029,27,72,71,301,,65,25,326,,83,04,075,*61
$GLGSV,3,3,09,70,01,155,*5B
$GPGSA,A,3,05,07,13,17,24,28,30,,,,,,3.7,2.6,2.7*3E
$GNGSA,A,3,05,07,13,17,24,28,30,,,,,,3.7,2.6,2.7*20
$GNGSA,A,3,71,73,,,,,,,,,,,3.7,2.6,2.7*2B
$QZGSA,A,3,,,,,,,,,,,,,3.7,2.6,2.7*2B
$IMGSA,A,3,,,,,,,,,,,,,3.7,2.6,2.7*24
$GPRMC,110308.00,A,4155.817477,N,01236.693025,E,001.5,,220219,,,A*77
$GPGGA,110309.00,4155.817907,N,01236.694080,E,1,09,3.2,61.9,M,45.0,M,,*51
$GPGSV,3,1,12,13,75,333,20,28,61,074,31,15,41,307,11,05,36,207,16*72
$GPGSV,3,2,12,30,35,064,40,17,14,129,30,24,14,265,27,07,05,072,37*76
$GPGSV,3,3,12,20,01,330,11,19,01,152,10,04,,,22,08,00,024,*4D
$GLGSV,3,1,09,71,49,165,26,73,48,033,28,74,70,282,16,75,20,239,16*65
$GLGSV,3,2,09,82,07,029,27,72,71,301,,65,25,326,,83,04,075,*61
$GLGSV,3,3,09,70,01,155,*5B
$GPGSA,A,3,05,07,13,17,24,28,30,,,,,,3.7,2.6,2.7*3E
$GNGSA,A,3,05,07,13,17,24,28,30,,,,,,3.7,2.6,2.7*20
$GNGSA,A,3,71,73,,,,,,,,,,,3.7,2.6,2.7*2B
$QZGSA,A,3,,,,,,,,,,,,,3.7,2.6,2.7*2B
$IMGSA,A,3,,,,,,,,,,,,,3.7,2.6,2.7*24
$GPRMC,110309.00,A,4155.817907,N,01236.694080,E,002.7,,220219,,,A*75
$GPGGA,110310.00,4155.817944,N,01236.695526,E,1,09,3.2,61.9,M,45.0,M,,*56
$GPGSV,3,1,12,13,75,333,20,28,61,074,31,15,41,307,11,05,36,207,16*72
$GPGSV,3,2,12,30,35,064,39,17,14,129,30,24,14,265,27,07,05,072,37*78
$GPGSV,3,3,12,20,01,330,11,19,01,152,10,04,,,21,08,00,024,*4E
$GLGSV,3,1,09,71,49,165,25,73,48,033,28,74,70,282,17,75,20,239,16*67
$GLGSV,3,2,09,82,07,029,26,72,71,301,,65,25,326,,83,04,075,*60
$GLGSV,3,3,09,70,01,155,*5B
$GPGSA,A,3,05,07,13,17,24,28,30,,,,,,3.8,2.7,2.7*30
$GNGSA,A,3,05,07,13,17,24,28,30,,,,,,3.8,2.7,2.7*2E
$GNGSA,A,3,71,73,,,,,,,,,,,3.8,2.7,2.7*25
$QZGSA,A,3,,,,,,,,,,,,,3.8,2.7,2.7*25
$IMGSA,A,3,,,,,,,,,,,,,3.8,2.7,2.7*2A
$GPRMC,110310.00,A,4155.817944,N,01236.695526,E,003.0,,220219,,,A*74
$GPGGA,110311.00,4155.817739,N,01236.696398,E,1,09,3.2,61.8,M,45.0,M,,*52
$GPGSV,3,1,12,13,75,333,19,28,61,074,31,15,41,307,11,05,36,207,16*78
$GPGSV,3,2,12,30,35,064,39,17,14,129,30,24,14,265,27,07,05,072,37*78
$GPGSV,3,3,12,20,01,330,11,19,01,152,10,04,,,21,08,00,024,*4E
$GLGSV,3,1,09,71,49,166,25,73,48,033,28,74,70,282,18,75,20,239,15*68
$GLGSV,3,2,09,82,07,029,26,72,71,301,,65,25,326,,83,04,075,*60
$GLGSV,3,3,09,70,01,155,*5B
$GPGSA,A,3,05,07,13,17,24,28,30,,,,,,3.7,2.6,2.7*3E
$GNGSA,A,3,05,07,13,17,24,28,30,,,,,,3.7,2.6,2.7*20
$GNGSA,A,3,71,73,,,,,,,,,,,3.7,2.6,2.7*2B
$QZGSA,A,3,,,,,,,,,,,,,3.7,2.6,2.7*2B
$IMGSA,A,3,,,,,,,,,,,,,3.7,2.6,2.7*24
$GPRMC,110311.00,A,4155.817739,N,01236.696398,E,003.0,,220219,,,A*71
$GPGGA,110312.00,4155.817474,N,01236.697290,E,1,09,3.2,61.8,M,45.0,M,,*53
$GPGSV,3,1,12,13,75,333,19,28,61,074,31,15,41,307,11,05,36,207,16*78
$GPGSV,3,2,12,30,35,064,39,17,14,129,30,24,14,265,27,07,05,072,37*78
$GPGSV,3,3,12,20,01,330,11,19,01,152,10,04,,,21,08,00,024,*4E
$GLGSV,3,1,09,71,49,166,24,73,48,033,28,74,70,282,19,75,20,239,15*68
$GLGSV,3,2,09,82,07,029,26,72,71,301,,65,25,326,,83,04,075,*60
$GLGSV,3,3,09,70,01,155,*5B
$GPGSA,A,3,05,07,13,17,24,28,30,,,,,,3.7,2.6,2.7*3E
$GNGSA,A,3,05,07,13,17,24,28,30,,,,,,3.7,2.6,2.7*20
$GNGSA,A,3,71,73,,,,,,,,,,,3.7,2.6,2.7*2B
$QZGSA,A,3,,,,,,,,,,,,,3.7,2.6,2.7*2B
$IMGSA,A,3,,,,,,,,,,,,,3.7,2.6,2.7*24
$GPRMC,110312.00,A,4155.817474,N,01236.697290,E,002.9,,220219,,,A*78
$GPGGA,110313.00,4155.818125,N,01236.697595,E,1,09,3.2,61.8,M,45.0,M,,*5E
$GPGSV,3,1,12,13,75,333,19,28,61,074,30,15,41,307,11,05,36,207,16*79
$GPGSV,3,2,12,30,35,064,39,17,14,129,30,24,14,265,27,07,05,072,37*78
$GPGSV,3,3,12,20,01,330,10,19,01,152,10,04,,,20,08,00,024,*4E
$GLGSV,3,1,09,71,49,166,23,73,48,033,28,74,70,282,19,75,20,239,15*6F
$GLGSV,3,2,09,82,07,029,26,72,71,301,,65,25,326,,83,04,075,*60
$GLGSV,3,3,09,70,01,155,*5B
$GPGSA,A,3,05,07,13,17,24,28,30,,,,,,3.7,2.6,2.7*3E
$GNGSA,A,3,05,07,13,17,24,28,30,,,,,,3.7,2.6,2.7*20
$GNGSA,A,3,71,73,,,,,,,,,,,3.7,2.6,2.7*2B
$QZGSA,A,3,,,,,,,,,,,,,3.7,2.6,2.7*2B
$IMGSA,A,3,,,,,,,,,,,,,3.7,2.6,2.7*24
$GPRMC,110313.00,A,4155.818125,N,01236.697595,E,001.8,,220219,,,A*77
$GPGGA,110314.00,4155.818264,N,01236.697527,E,1,09,3.2,61.8,M,45.0,M,,*56
$GPGSV,3,1,12,13,75,333,19,28,61,074,30,15,41,307,12,05,36,207,16*7A
$GPGSV,3,2,12,30,35,064,39,17,14,129,30,24,14,265,26,07,05,072,37*79
$GPGSV,3,3,12,20,01,330,10,19,01,152,10,04,,,20,08,00,024,*4E
$GLGSV,3,1,09,71,49,166,23,73,48,033,28,74,70,282,19,75,20,239,15*6F
$GLGSV,3,2,09,82,07,029,26,72,71,301,,65,25,326,,83,04,075,*60
$GLGSV,3,3,09,70,01,155,*5B
$GPGSA,A,3,05,07,13,17,24,28,30,,,,,,3.8,2.7,2.7*30
$GNGSA,A,3,05,07,13,17,24,28,30,,,,,,3.8,2.7,2.7*2E
$GNGSA,A,3,71,73,,,,,,,,,,,3.8,2.7,2.7*25
$QZGSA,A,3,,,,,,,,,,,,,3.8,2.7,2.7*25
$IMGSA,A,3,,,,,,,,,,,,,3.8,2.7,2.7*2A
$GPRMC,110314.00,A,4155.818264,N,01236.697527,E,001.3,,220219,,,A*74
$GPGGA,110315.00,4155.818390,N,01236.697468,E,1,09,3.2,61.8,M,45.0,M,,*57
$GPGSV,3,1,12,13,75,333,18,28,61,074,30,15,41,307,12,05,36,206,15*79
$GPGSV,3,2,12,30,35,064,40,17,14,129,31,24,14,265,26,07,05,072,37*76
$GPGSV,3,3,12,20,01,330,10,19,01,152,10,04,,,19,08,00,024,*44
$GLGSV,3,1,09,71,49,166,22,73,48,033,29,74,70,282,19,75,20,239,15*6F
$GLGSV,3,2,09,82,07,029,27,72,71,301,,65,25,326,,83,04,075,*61
$GLGSV,3,3,09,70,01,155,*5B
$GPGSA,A,3,05,07,13,17,24,28,30,,,,,,6.1,5.0,3.6*3C
$GNGSA,A,3,05,07,13,17,24,28,30,,,,,,6.1,5.0,3.6*22
$GNGSA,A,3,71,73,,,,,,,,,,,6.1,5.0,3.6*29
$QZGSA,A,3,,,,,,,,,,,,,6.1,5.0,3.6*29
$IMGSA,A,3,,,,,,,,,,,,,6.1,5.0,3.6*26
$GPRMC,110315.00,A,4155.818390,N,01236.697468,E,000.2,,220219,,,A*75
$GPGGA,110316.00,4155.818749,N,01236.697335,E,1,10,3.2,61.8,M,45.0,M,,*53
$GPGSV,3,1,12,13,75,333,18,28,61,074,30,15,41,307,12,05,36,206,15*79
$GPGSV,3,2,12,30,35,064,40,17,14,129,31,24,14,265,26,07,05,072,37*76
$GPGSV,3,3,12,20,01,330,10,19,01,152,10,04,,,19,08,00,024,*44
$GLGSV,3,1,09,71,49,166,22,73,48,033,30,74,70,282,19,75,20,239,15*67
$GLGSV,3,2,09,82,07,029,28,72,71,301,,65,25,326,,83,04,075,*6E
$GLGSV,3,3,09,70,01,155,*5B
$GPGSA,A,3,05,07,13,15,17,24,28,30,,,,,6.1,5.0,3.6*38
$GNGSA,A,3,05,07,13,15,17,24,28,30,,,,,6.1,5.0,3.6*26
$GNGSA,A,3,71,73,,,,,,,,,,,6.1,5.0,3.6*29
$QZGSA,A,3,,,,,,,,,,,,,6.1,5.0,3.6*29
$IMGSA,A,3,,,,,,,,,,,,,6.1,5.0,3.6*26
$GPRMC,110316.00,A,4155.818749,N,01236.697335,E,000.2,,220219,,,A*79
$GPGGA,110317.00,4155.819324,N,01236.696734,E,1,09,3.2,61.8,M,45.0,M,,*50
$GPGSV,3,1,12,13,75,333,18,28,61,074,30,15,41,307,12,05,36,206,15*79
$GPGSV,3,2,12,30,35,064,40,17,14,129,31,24,14,265,26,07,05,073,37*77
$GPGSV,3,3,12,20,01,330,10,19,01,152,10,04,,,18,08,00,024,*45
$GLGSV,3,1,09,71,49,166,22,73,48,033,30,74,70,282,19,75,20,239,15*67
$GLGSV,3,2,09,82,07,029,28,72,71,301,,65,25,326,,83,04,075,*6E
$GLGSV,3,3,09,70,01,155,*5B
$GPGSA,A,3,05,07,13,17,24,28,30,,,,,,6.1,5.0,3.6*3C
$GNGSA,A,3,05,07,13,17,24,28,30,,,,,,6.1,5.0,3.6*22
$GNGSA,A,3,71,73,,,,,,,,,,,6.1,5.0,3.6*29
$QZGSA,A,3,,,,,,,,,,,,,6.1,5.0,3.6*29
$IMGSA,A,3,,,,,,,,,,,,,6.1,5.0,3.6*26
$GPRMC,110317.00,A,4155.819324,N,01236.696734,E,000.1,,220219,,,A*71
$GPGGA,110318.00,4155.819831,N,01236.696062,E,1,09,3.2,61.9,M,45.0,M,,*55
$GPGSV,3,1,12,13,75,333,18,28,61,074,30,15,41,307,12,05,36,206,15*79
$GPGSV,3,2,12,30,35,064,40,17,14,129,31,24,14,265,26,07,05,073,37*77
$GPGSV,3,3,12,20,01,330,10,19,01,152,10,04,,,18,08,00,024,*45
$GLGSV,3,1,09,71,49,166,21,73,48,033,30,74,70,282,19,75,20,239,14*65
$GLGSV,3,2,09,82,07,029,28,72,71,301,,65,25,326,,83,04,075,*6E
$GLGSV,3,3,09,70,01,155,*5B
$GPGSA,A,3,05,07,13,17,24,28,30,,,,,,3.7,2.6,2.7*3E
$GNGSA,A,3,05,07,13,17,24,28,30,,,,,,3.7,2.6,2.7*20
$GNGSA,A,3,71,73,,,,,,,,,,,3.7,2.6,2.7*2B
$QZGSA,A,3,,,,,,,,,,,,,3.7,2.6,2.7*2B
$IMGSA,A,3,,,,,,,,,,,,,3.7,2.6,2.7*24
$GPRMC,110318.00,A,4155.819831,N,01236.696062,E,000.0,,220219,,,A*74
$GPGGA,110319.00,4155.820274,N,01236.695445,E,1,09,3.2,61.9,M,45.0,M,,*57
$GPGSV,3,1,12,13,75,333,17,28,61,074,30,15,41,307,12,05,36,206,15*76
$GPGSV,3,2,12,30,35,064,40,17,14,129,31,24,14,265,26,07,05,073,37*77
$GPGSV,3,3,12,20,01,330,10,19,01,152,10,04,,,17,08,00,024,*4A
$GLGSV,3,1,09,71,49,166,21,73,48,033,30,74,70,282,19,75,20,239,14*65
$GLGSV,3,2,09,82,07,029,28,72,71,301,,65,25,326,,83,04,075,*6E
$GLGSV,3,3,09,70,01,155,*5B
$GPGSA,A,3,05,07,13,17,24,28,30,,,,,,3.7,2.6,2.7*3E
$GNGSA,A,3,05,07,13,17,24,28,30,,,,,,3.7,2.6,2.7*20
$GNGSA,A,3,71,73,,,,,,,,,,,3.7,2.6,2.7*2B
$QZGSA,A,3,,,,,,,,,,,,,3.7,2.6,2.7*2B
$IMGSA,A,3,,,,,,,,,,,,,3.7,2.6,2.7*24
$GPRMC,110319.00,A,4155.820274,N,01236.695445,E,000.1,,220219,,,A*77
$GPGGA,110320.00,4155.820595,N,01236.694968,E,1,10,3.2,61.9,M,45.0,M,,*5E
$GPGSV,3,1,12,13,75,333,17,28,61,074,29,15,41,307,12,05,36,206,15*7E
$GPGSV,3,2,12,30,35,064,40,17,14,129,31,24,14,265,26,07,05,073,37*77
$GPGSV,3,3,12,20,01,330,10,19,01,152,09,04,,,17,08,00,024,*42
$GLGSV,3,1,09,71,49,166,21,73,48,033,30,74,70,282,19,75,20,239,14*65
$GLGSV,3,2,09,82,07,029,28,72,71,301,,65,25,326,,83,04,075,*6E
$GLGSV,3,3,09,70,01,155,*5B
$GPGSA,A,3,05,07,13,15,17,24,28,30,,,,,3.7,2.6,2.7*3A
$GNGSA,A,3,05,07,13,15,17,24,28,30,,,,,3.7,2.6,2.7*24
$GNGSA,A,3,71,73,,,,,,,,,,,3.7,2.6,2.7*2B
$QZGSA,A,3,,,,,,,,,,,,,3.7,2.6,2.7*2B
$IMGSA,A,3,,,,,,,,,,,,,3.7,2.6,2.7*24
$GPRMC,110320.00,A,4155.820595,N,01236.694968,E,001.0,,220219,,,A*76
$GPGGA,110321.00,4155.820904,N,01236.694454,E,1,09,3.2,62.0,M,45.0,M,,*5B
$GPGSV,3,1,12,13,75,333,17,28,61,074,29,15,41,307,12,05,36,206,15*7E
$GPGSV,3,2,12,30,35,064,40,17,14,129,31,24,14,265,25,07,05,073,37*74
$GPGSV,3,3,12,20,01,330,10,19,01,152,09,04,,,17,08,00,024,*42
$GLGSV,3,1,09,71,49,166,21,73,48,033,30,74,70,282,18,75,20,239,15*65
$GLGSV,3,2,09,82,07,029,28,72,71,301,,65,25,326,,83,04,075,*6E
$GLGSV,3,3,09,70,01,155,*5B
$GPGSA,A,3,05,07,13,17,24,28,30,,,,,,3.8,2.7,2.7*30
$GNGSA,A,3,05,07,13,17,24,28,30,,,,,,3.8,2.7,2.7*2E
$GNGSA,A,3,71,73,,,,,,,,,,,3.8,2.7,2.7*25
$QZGSA,A,3,,,,,,,,,,,,,3.8,2.7,2.7*25
$IMGSA,A,3,,,,,,,,,,,,,3.8,2.7,2.7*2A
$GPRMC,110321.00,A,4155.820904,N,01236.694454,E,000.9,,220219,,,A*79
$GPGGA,110322.00,4155.821041,N,01236.693985,E,1,10,3.2,62.0,M,45.0,M,,*5F
$GPGSV,3,1,12,13,75,333,16,28,61,074,29,15,41,307,13,05,36,206,15*7E
$GPGSV,3,2,12,30,35,064,40,17,14,129,31,24,14,265,25,07,05,073,38*7B
$GPGSV,3,3,12,20,01,330,10,19,01,152,09,04,,,17,08,00,024,*42
$GLGSV,3,1,09,71,49,166,22,73,48,033,31,74,70,282,18,75,20,239,15*67
$GLGSV,3,2,09,82,07,029,29,72,71,301,,65,25,326,,83,04,075,*6F
$GLGSV,3,3,09,70,01,155,*5B
$GPGSA,A,3,05,07,13,15,17,24,28,30,,,,,3.7,2.6,2.7*3A
$GNGSA,A,3,05,07,13,15,17,24,28,30,,,,,3.7,2.6,2.7*24
$GNGSA,A,3,71,73,,,,,,,,,,,3.7,2.6,2.7*2B
$QZGSA,A,3,,,,,,,,,,,,,3.7,2.6,2.7*2B
$IMGSA,A,3,,,,,,,,,,,,,3.7,2.6,2.7*24
$GPRMC,110322.00,A,4155.821041,N,01236.693985,E,000.8,,220219,,,A*74
$GPGGA,110323.00,4155.821048,N,01236.693549,E,1,10,3.2,62.1,M,45.0,M,,*5A
$GPGSV,3,1,12,13,75,333,16,28,61,074,29,15,41,307,13,05,36,206,15*7E
$GPGSV,3,2,12,30,35,064,40,17,14,129,31,24,14,265,25,07,05,073,38*7B
$GPGSV,3,3,12,20,01,330,10,19,01,152,09,04,,,19,08,00,024,*4C
$GLGSV,3,1,09,71,49,166,22,73,48,033,31,74,70,282,18,75,20,239,16*64
$GLGSV,3,2,09,82,07,029,29,72,71,301,,65,25,326,,83,04,075,*6F
$GLGSV,3,3,09,70,01,155,*5B
$GPGSA,A,3,05,07,13,15,17,24,28,30,,,,,5.0,3.8,3.2*30
$GNGSA,A,3,05,07,13,15,17,24,28,30,,,,,5.0,3.8,3.2*2E
$GNGSA,A,3,71,73,,,,,,,,,,,5.0,3.8,3.2*21
$QZGSA,A,3,,,,,,,,,,,,,5.0,3.8,3.2*21
$IMGSA,A,3,,,,,,,,,,,,,5.0,3.8,3.2*2E
$GPRMC,110323.00,A,4155.821048,N,01236.693549,E,000.6,,220219,,,A*7E
$GPGGA,110324.00,4155.821298,N,01236.693365,E,1,10,3.2,62.1,M,45.0,M,,*5A
$GPGSV,3,1,12,13,75,333,16,28,61,074,29,15,41,307,13,05,36,206,15*7E
$GPGSV,3,2,12,30,35,064,40,17,14,129,31,24,14,265,25,07,05,073,38*7B
$GPGSV,3,3,12,20,01,330,10,19,01,152,09,04,,,19,08,00,024,*4C
$GLGSV,3,1,09,71,49,166,23,73,48,033,31,74,70,282,18,75,20,239,19*6A
$GLGSV,3,2,09,82,07,029,29,72,71,301,,65,25,326,,83,04,075,*6F
$GLGSV,3,3,09,70,01,155,*5B
$GPGSA,A,3,05,07,13,15,17,24,28,30,,,,,5.0,3.8,3.2*30
$GNGSA,A,3,05,07,13,15,17,24,28,30,,,,,5.0,3.8,3.2*2E
$GNGSA,A,3,71,73,,,,,,,,,,,5.0,3.8,3.2*21
$QZGSA,A,3,,,,,,,,,,,,,5.0,3.8,3.2*21
$IMGSA,A,3,,,,,,,,,,,,,5.0,3.8,3.2*2E
$GPRMC,110324.00,A,4155.821298,N,01236.693365,E,000.0,,220219,,,A*78
$GPGGA,110325.00,4155.821378,N,01236.693125,E,1,10,3.2,62.2,M,45.0,M,,*51
$GPGSV,3,1,12,13,75,333,16,28,61,074,29,15,41,307,13,05,36,206,14*7F
$GPGSV,3,2,12,30,35,064,40,17,14,129,31,24,14,265,24,07,05,073,38*7A
$GPGSV,3,3,12,20,01,330,10,19,01,152,09,04,,,19,08,00,024,*4C
$GLGSV,3,1,09,71,49,166,25,73,48,033,32,74,70,282,18,75,20,239,19*6F
$GLGSV,3,2,09,82,07,029,28,72,71,301,,65,25,326,,83,04,075,*6E
$GLGSV,3,3,09,70,01,155,*5B
$GPGSA,A,3,05,07,13,15,17,24,28,30,,,,,5.0,3.8,3.2*30
$GNGSA,A,3,05,07,13,15,17,24,28,30,,,,,5.0,3.8,3.2*2E
$GNGSA,A,3,71,73,,,,,,,,,,,5.0,3.8,3.2*21
$QZGSA,A,3,,,,,,,,,,,,,5.0,3.8,3.2*21
$IMGSA,A,3,,,,,,,,,,,,,5.0,3.8,3.2*2E
$GPRMC,110325.00,A,4155.821378,N,01236.693125,E,000.3,,220219,,,A*73
$GPGGA,110326.00,4155.821475,N,01236.693008,E,1,10,3.2,62.3,M,45.0,M,,*57
$GPGSV,3,1,12,13,75,333,16,28,61,073,29,15,41,307,13,05,36,206,14*78
$GPGSV,3,2,12,30,35,064,40,17,14,129,31,24,14,265,24,07,05,073,38*7A
$GPGSV,3,3,12,20,01,330,10,19,01,152,,04,,,19,08,00,024,*45
$GLGSV,3,1,09,71,49,166,24,73,48,033,32,74,70,282,19,75,20,239,19*6F
$GLGSV,3,2,09,82,07,029,28,72,71,301,,65,25,326,,83,04,075,*6E
$GLGSV,3,3,09,70,01,155,*5B
$GPGSA,A,3,05,07,13,15,17,24,28,30,,,,,5.0,3.8,3.2*30
$GNGSA,A,3,05,07,13,15,17,24,28,30,,,,,5.0,3.8,3.2*2E
$GNGSA,A,3,71,73,,,,,,,,,,,5.0,3.8,3.2*21
$QZGSA,A,3,,,,,,,,,,,,,5.0,3.8,3.2*21
$IMGSA,A,3,,,,,,,,,,,,,5.0,3.8,3.2*2E
$GPRMC,110326.00,A,4155.821475,N,01236.693008,E,000.4,,220219,,,A*73
$GPGGA,110327.00,4155.821539,N,01236.692829,E,1,10,3.2,62.3,M,45.0,M,,*55
$GPGSV,3,1,12,13,75,333,16,28,61,073,29,15,41,307,13,05,36,206,14*78
$GPGSV,3,2,12,30,35,064,40,17,14,129,31,24,14,265,24,07,05,073,38*7A
$GPGSV,3,3,12,20,01,330,10,19,01,152,09,04,,,19,08,00,024,*4C
$GLGSV,3,1,09,71,49,166,24,73,48,033,32,74,70,282,20,75,20,239,19*65
$GLGSV,3,2,09,82,07,029,28,72,71,301,,65,25,326,,83,04,075,*6E
$GLGSV,3,3,09,70,01,155,*5B
$GPGSA,A,3,05,07,13,15,17,24,28,30,,,,,3.7,2.6,2.7*3A
$GNGSA,A,3,05,07,13,15,17,24,28,30,,,,,3.7,2.6,2.7*24
$GNGSA,A,3,71,73,,,,,,,,,,,3.7,2.6,2.7*2B
$QZGSA,A,3,,,,,,,,,,,,,3.7,2.6,2.7*2B
$IMGSA,A,3,,,,,,,,,,,,,3.7,2.6,2.7*24
$GPRMC,110327.00,A,4155.821539,N,01236.692829,E,000.0,,220219,,,A*75
$GPGGA,110328.00,4155.821535,N,01236.692513,E,1,09,3.2,62.3,M,45.0,M,,*5A
$GPGSV,3,1,12,13,75,333,16,28,61,073,29,15,41,307,13,05,36,206,14*78
$GPGSV,3,2,12,30,35,064,40,17,14,129,31,24,14,265,23,07,05,073,38*7D
$GPGSV,3,3,12,20,01,330,09,19,01,152,09,04,,,19,08,00,024,*44
$GLGSV,3,1,09,71,49,166,25,73,48,033,32,74,70,282,20,75,20,239,19*64
$GLGSV,3,2,09,82,07,029,28,72,71,301,,65,25,326,,83,04,075,*6E
$GLGSV,3,3,09,70,01,155,*5B
$GPGSA,A,3,07,13,15,17,24,28,30,,,,,,3.7,2.6,2.7*3F
$GNGSA,A,3,07,13,15,17,24,28,30,,,,,,3.7,2.6,2.7*21
$GNGSA,A,3,71,73,,,,,,,,,,,3.7,2.6,2.7*2B
$QZGSA,A,3,,,,,,,,,,,,,3.7,2.6,2.7*2B
$IMGSA,A,3,,,,,,,,,,,,,3.7,2.6,2.7*24
$GPRMC,110328.00,A,4155.821535,N,01236.692513,E,000.0,,220219,,,A*72
$GPGGA,110329.00,4155.821484,N,01236.692146,E,1,10,3.2,62.3,M,45.0,M,,*5C
$GPGSV,3,1,12,13,75,333,16,28,61,073,29,15,41,307,14,05,36,206,14*7F
$GPGSV,3,2,12,30,35,064,41,17,14,129,30,24,14,265,23,07,05,073,39*7C
$GPGSV,3,3,12,20,01,330,09,19,01,152,09,04,,,19,08,00,024,*44
$GLGSV,3,1,09,71,49,166,25,73,48,033,32,74,70,282,21,75,20,239,19*65
$GLGSV,3,2,09,82,07,029,28,72,71,301,,65,25,326,,83,04,075,*6E
$GLGSV,3,3,09,70,01,155,*5B
$GPGSA,A,3,05,07,13,15,17,24,28,30,,,,,3.7,2.6,2.7*3A
$GNGSA,A,3,05,07,13,15,17,24,28,30,,,,,3.7,2.6,2.7*24
$GNGSA,A,3,71,73,,,,,,,,,,,3.7,2.6,2.7*2B
$QZGSA,A,3,,,,,,,,,,,,,3.7,2.6,2.7*2B
$IMGSA,A,3,,,,,,,,,,,,,3.7,2.6,2.7*24
$GPRMC,110329.00,A,4155.821484,N,01236.692146,E,000.1,,220219,,,A*7D
$GPGGA,110330.00,4155.821623,N,01236.691978,E,1,09,3.2,62.3,M,45.0,M,,*55
$GPGSV,3,1,12,13,75,333,16,28,61,073,29,15,41,307,14,05,36,206,14*7F
$GPGSV,3,2,12,30,35,064,41,17,14,129,30,24,14,265,23,07,05,073,38*7D
