$GPGGA,105039.00,4155.819516,N,01236.704599,E,1,12,0.3,65.3,M,45.0,M,,*54
$GPGSV,3,1,11,13,68,323,19,28,63,090,26,05,43,211,26,30,41,060,38*70
$GPGSV,3,2,11,15,34,306,14,07,10,068,44,24,08,261,25,17,08,134,24*71
$GPGSV,3,3,11,04,,,39,08,03,029,,21,00,308,*7F
$GLGSV,3,1,10,71,61,317,25,73,60,251,19,70,60,165,,80,49,032,30*6D
$GLGSV,3,2,10,74,15,232,21,72,11,328,23,81,06,039,23,69,05,152,33*67
$GLGSV,3,3,10,88,02,356,,79,01,045,15*6C
$GPGSA,A,3,05,07,24,28,30,,,,,,,,1.2,0.8,0.9*3D
$GNGSA,A,3,05,07,24,28,30,,,,,,,,1.2,0.8,0.9*23
$GNGSA,A,3,69,71,72,73,74,80,81,,,,,,1.2,0.8,0.9*24
$QZGSA,A,3,,,,,,,,,,,,,1.2,0.8,0.9*2C
$IMGSA,A,3,,,,,,,,,,,,,1.2,0.8,0.9*23
$GPRMC,105039.00,A,4155.819516,N,01236.704599,E,000.1,,210219,,,A*71
$GPGGA,105040.00,4155.819559,N,01236.704454,E,1,18,0.8,57.6,M,45.0,M,,*54
$GPGSV,3,1,11,13,68,323,19,28,63,090,25,05,43,211,25,30,41,060,38*70
$GPGSV,3,2,11,15,34,306,14,07,10,068,43,24,08,261,24,17,08,134,23*70
$GPGSV,3,3,11,04,,,39,08,03,029,,21,00,308,*7F
$GLGSV,3,1,10,71,61,317,25,73,60,251,18,70,60,165,16,80,49,032,30*6B
$GLGSV,3,2,10,74,15,232,20,72,11,328,22,81,06,039,23,69,05,152,33*67
$GLGSV,3,3,10,88,02,356,,79,01,045,15*6C
$GPGSA,A,3,05,07,13,15,17,24,28,30,,,,,1.4,0.9,1.1*33
$GNGSA,A,3,05,07,13,15,17,24,28,30,,,,,1.4,0.9,1.1*2D
$GNGSA,A,3,69,70,71,72,73,74,79,80,81,,,,1.4,0.9,1.1*23
$QZGSA,A,3,,,,,,,,,,,,,1.4,0.9,1.1*22
$IMGSA,A,3,,,,,,,,,,,,,1.4,0.9,1.1*2D
$GPRMC,105040.00,A,4155.819559,N,01236.704454,E,000.0,,210219,,,A*75
$GPGGA,105041.00,4155.819559,N,01236.704454,E,1,17,0.8,58.2,M,45.0,M,,*51
$GPGSV,3,1,11,13,68,323,,28,63,090,25,05,43,211,25,30,41,060,37*77
$GPGSV,3,2,11,15,34,306,14,07,10,068,43,24,08,261,24,17,08,134,23*70
$GPGSV,3,3,11,04,,,39,08,03,029,,21,00,308,*7F
$GLGSV,3,1,10,71,61,317,24,73,60,251,18,70,60,165,17,80,49,032,30*6B
$GLGSV,3,2,10,74,15,232,20,72,11,328,22,81,06,039,23,69,05,152,33*67
$GLGSV,3,3,10,88,02,356,,79,01,045,15*6C
$GPGSA,A,3,05,07,15,17,24,28,30,,,,,,1.5,0.9,1.1*30
$GNGSA,A,3,05,07,15,17,24,28,30,,,,,,1.5,0.9,1.1*2E
$GNGSA,A,3,69,70,71,72,73,74,79,80,81,,,,1.5,0.9,1.1*22
$QZGSA,A,3,,,,,,,,,,,,,1.5,0.9,1.1*23
$IMGSA,A,3,,,,,,,,,,,,,1.5,0.9,1.1*2C
$GPRMC,105041.00,A,4155.819559,N,01236.704454,E,000.0,,210219,,,A*74
$GPGGA,105042.00,4155.819559,N,01236.704454,E,1,18,1.6,57.8,M,45.0,M,,*57
$GPGSV,3,1,11,13,68,323,17,28,63,090,24,05,43,211,24,30,41,060,37*71
$GPGSV,3,2,11,15,34,306,14,07,10,068,43,24,08,261,24,17,08,134,22*71
$GPGSV,3,3,11,04,,,38,08,03,029,,21,00,308,*7E
$GLGSV,3,1,10,71,61,317,24,73,60,251,18,70,60,165,17,80,49,032,29*63
$GLGSV,3,2,10,74,15,232,20,72,11,328,22,81,06,039,23,69,05,152,33*67
$GLGSV,3,3,10,88,02,356,,79,01,045,15*6C
$GPGSA,A,3,05,07,13,15,17,24,28,30,,,,,1.4,0.8,1.2*31
$GNGSA,A,3,05,07,13,15,17,24,28,30,,,,,1.4,0.8,1.2*2F
$GNGSA,A,3,69,70,71,72,73,74,79,80,81,,,,1.4,0.8,1.2*21
$QZGSA,A,3,,,,,,,,,,,,,1.4,0.8,1.2*20
$IMGSA,A,3,,,,,,,,,,,,,1.4,0.8,1.2*2F
$GPRMC,105042.00,A,4155.819559,N,01236.704454,E,000.0,,210219,,,A*77
$GPGGA,105043.00,4155.819559,N,01236.704454,E,1,18,3.2,59.5,M,45.0,M,,*53
$GPGSV,3,1,11,13,68,323,18,28,63,090,24,05,43,211,24,30,41,060,37*7E
$GPGSV,3,2,11,15,34,306,14,07,10,068,42,24,08,261,24,17,08,134,22*70
$GPGSV,3,3,11,04,,,38,08,03,029,,21,00,308,*7E
$GLGSV,3,1,10,73,61,251,18,71,61,317,24,70,60,165,20,80,49,032,29*66
$GLGSV,3,2,10,74,15,232,20,72,11,328,22,81,06,039,23,69,05,152,33*67
$GLGSV,3,3,10,88,02,356,,79,01,045,15*6C
$GPGSA,A,3,05,07,13,15,17,24,28,30,,,,,1.4,0.8,1.1*32
$GNGSA,A,3,05,07,13,15,17,24,28,30,,,,,1.4,0.8,1.1*2C
$GNGSA,A,3,69,70,71,72,73,74,79,80,81,,,,1.4,0.8,1.1*22
$QZGSA,A,3,,,,,,,,,,,,,1.4,0.8,1.1*23
$IMGSA,A,3,,,,,,,,,,,,,1.4,0.8,1.1*2C
$GPRMC,105043.00,A,4155.819559,N,01236.704454,E,000.0,,210219,,,A*76
$GPGGA,105044.00,4155.819559,N,01236.704454,E,1,17,3.2,61.3,M,45.0,M,,*56
$GPGSV,3,1,11,13,68,323,18,28,63,090,24,05,43,211,23,30,41,060,37*79
$GPGSV,3,2,11,15,34,306,14,07,10,068,42,24,08,261,23,17,08,134,22*77
$GPGSV,3,3,11,04,,,38,08,03,029,,21,00,308,*7E
$GLGSV,3,1,10,73,61,251,18,71,61,317,24,70,60,165,,80,49,032,29*64
$GLGSV,3,2,10,74,15,233,20,72,11,328,21,81,06,039,22,69,05,152,33*64
$GLGSV,3,3,10,88,02,356,,79,01,045,15*6C
$GPGSA,A,3,05,07,13,15,17,24,28,30,,,,,1.3,0.8,1.1*35
$GNGSA,A,3,05,07,13,15,17,24,28,30,,,,,1.3,0.8,1.1*2B
$GNGSA,A,3,69,71,72,73,74,79,80,81,,,,,1.3,0.8,1.1*22
$QZGSA,A,3,,,,,,,,,,,,,1.3,0.8,1.1*24
$IMGSA,A,3,,,,,,,,,,,,,1.3,0.8,1.1*2B
$GPRMC,105044.00,A,4155.819559,N,01236.704454,E,000.0,,210219,,,A*71
$GPGGA,105045.00,4155.819559,N,01236.704454,E,1,17,3.2,62.6,M,45.0,M,,*51
$GPGSV,3,1,11,13,68,323,18,28,63,090,23,05,43,211,23,30,41,060,37*7E
$GPGSV,3,2,11,15,34,306,20,07,10,068,42,24,08,261,23,17,08,134,21*73
$GPGSV,3,3,11,04,,,38,08,03,029,,21,00,308,*7E
$GLGSV,3,1,10,73,61,251,19,71,61,317,24,70,60,165,18,80,49,032,29*6C
$GLGSV,3,2,10,74,15,233,21,72,11,328,21,81,06,039,23,69,05,152,32*65
$GLGSV,3,3,10,88,02,356,,79,01,045,14*6D
$GPGSA,A,3,05,07,13,15,17,24,28,30,,,,,1.3,0.8,1.0*34
$GNGSA,A,3,05,07,13,15,17,24,28,30,,,,,1.3,0.8,1.0*2A
$GNGSA,A,3,69,70,71,72,73,74,80,81,,,,,1.3,0.8,1.0*2A
$QZGSA,A,3,,,,,,,,,,,,,1.3,0.8,1.0*25
$IMGSA,A,3,,,,,,,,,,,,,1.3,0.8,1.0*2A
$GPRMC,105045.00,A,4155.819559,N,01236.704454,E,000.0,,210219,,,A*70
$GPGGA,105046.00,4155.819559,N,01236.704454,E,1,17,3.2,62.9,M,45.0,M,,*5D
$GPGSV,3,1,11,13,68,323,18,28,63,090,23,05,43,211,23,30,41,060,37*7E
$GPGSV,3,2,11,15,34,306,20,07,10,068,42,24,08,261,23,17,08,134,21*73
$GPGSV,3,3,11,04,,,38,08,03,029,,21,00,308,*7E
$GLGSV,3,1,10,73,61,251,19,71,61,317,23,70,60,165,,80,49,032,29*62
$GLGSV,3,2,10,74,15,233,21,72,11,328,21,81,06,039,22,69,05,152,32*64
$GLGSV,3,3,10,88,02,356,,79,01,045,14*6D
$GPGSA,A,3,05,07,13,15,17,24,28,30,,,,,1.4,0.9,1.1*33
$GNGSA,A,3,05,07,13,15,17,24,28,30,,,,,1.4,0.9,1.1*2D
$GNGSA,A,3,69,71,72,73,74,79,80,81,,,,,1.4,0.9,1.1*24
$QZGSA,A,3,,,,,,,,,,,,,1.4,0.9,1.1*22
$IMGSA,A,3,,,,,,,,,,,,,1.4,0.9,1.1*2D
$GPRMC,105046.00,A,4155.819559,N,01236.704454,E,000.0,,210219,,,A*73
$GPGGA,105047.00,4155.819559,N,01236.704454,E,1,16,3.2,62.5,M,45.0,M,,*51
$GPGSV,3,1,11,13,68,323,19,28,63,090,22,05,43,211,23,30,41,060,37*7E
$GPGSV,3,2,11,15,34,306,20,07,10,068,42,24,08,261,23,17,08,134,21*73
$GPGSV,3,3,11,04,,,38,08,03,029,,21,00,308,*7E
$GLGSV,3,1,10,73,61,251,19,71,61,317,23,70,60,165,,80,49,032,29*62
$GLGSV,3,2,10,74,15,233,21,72,11,328,21,81,06,039,22,69,05,152,32*64
$GLGSV,3,3,10,88,02,356,,79,01,045,14*6D
$GPGSA,A,3,05,07,13,15,17,24,28,30,,,,,1.3,0.8,1.0*34
$GNGSA,A,3,05,07,13,15,17,24,28,30,,,,,1.3,0.8,1.0*2A
$GNGSA,A,3,69,71,72,73,74,80,81,,,,,,1.3,0.8,1.0*2D
$QZGSA,A,3,,,,,,,,,,,,,1.3,0.8,1.0*25
$IMGSA,A,3,,,,,,,,,,,,,1.3,0.8,1.0*2A
$GPRMC,105047.00,A,4155.819559,N,01236.704454,E,000.0,,210219,,,A*72
$GPGGA,105048.00,4155.819559,N,01236.704454,E,1,18,3.2,62.2,M,45.0,M,,*57
$GPGSV,3,1,11,13,68,323,18,28,63,090,22,05,43,211,22,30,41,060,37*7E
$GPGSV,3,2,11,15,34,306,20,07,10,068,42,24,08,261,24,17,08,134,20*75
$GPGSV,3,3,11,04,,,38,08,03,029,,21,00,308,*7E
$GLGSV,3,1,10,73,61,251,19,71,61,317,23,70,60,165,16,80,49,032,29*65
$GLGSV,3,2,10,74,15,233,21,72,11,328,21,81,06,039,22,69,05,152,32*64
$GLGSV,3,3,10,88,02,356,,79,01,045,14*6D
$GPGSA,A,3,05,07,13,15,17,24,28,30,,,,,1.3,0.8,1.0*34
$GNGSA,A,3,05,07,13,15,17,24,28,30,,,,,1.3,0.8,1.0*2A
$GNGSA,A,3,69,70,71,72,73,74,79,80,81,,,,1.3,0.8,1.0*24
$QZGSA,A,3,,,,,,,,,,,,,1.3,0.8,1.0*25
$IMGSA,A,3,,,,,,,,,,,,,1.3,0.8,1.0*2A
$GPRMC,105048.00,A,4155.819559,N,01236.704454,E,000.0,,210219,,,A*7D
$GPGGA,105049.00,4155.819559,N,01236.704454,E,1,16,3.2,62.1,M,45.0,M,,*5B
$GPGSV,3,1,11,13,68,323,19,28,63,090,22,05,43,211,22,30,41,060,37*7F
$GPGSV,3,2,11,15,34,306,19,07,10,068,42,24,08,261,24,17,08,134,20*7F
$GPGSV,3,3,11,04,,,38,08,03,029,,21,00,308,*7E
$GLGSV,3,1,10,73,61,251,19,71,61,317,22,70,60,165,,80,49,032,29*63
$GLGSV,3,2,10,74,15,233,21,72,11,328,21,81,06,039,22,69,05,152,32*64
$GLGSV,3,3,10,88,02,356,,79,00,045,*69
$GPGSA,A,3,05,07,13,15,17,24,28,30,,,,,1.3,0.8,1.0*34
$GNGSA,A,3,05,07,13,15,17,24,28,30,,,,,1.3,0.8,1.0*2A
$GNGSA,A,3,69,71,72,73,74,80,81,,,,,,1.3,0.8,1.0*2D
$QZGSA,A,3,,,,,,,,,,,,,1.3,0.8,1.0*25
$IMGSA,A,3,,,,,,,,,,,,,1.3,0.8,1.0*2A
$GPRMC,105049.00,A,4155.819559,N,01236.704454,E,000.0,,210219,,,A*7C
$GPGGA,105050.00,4155.819559,N,01236.704454,E,1,17,3.2,61.7,M,45.0,M,,*57
$GPGSV,3,1,11,13,68,323,19,28,63,089,21,05,43,211,21,30,41,060,37*77
$GPGSV,3,2,11,15,34,306,,07,10,068,42,24,08,261,24,17,08,134,19*7D
$GPGSV,3,3,11,04,,,38,08,03,029,,21,00,308,*7E
$GLGSV,3,1,10,73,61,251,20,71,61,317,22,70,60,165,20,80,49,032,29*6B
$GLGSV,3,2,10,74,15,233,21,72,11,328,20,81,06,039,21,69,05,152,32*66
$GLGSV,3,3,10,88,02,356,,79,00,045,*69
$GPGSA,A,3,05,07,13,17,24,28,30,,,,,,1.3,0.8,1.0*30
$GNGSA,A,3,05,07,13,17,24,28,30,,,,,,1.3,0.8,1.0*2E
$GNGSA,A,3,69,70,71,72,73,74,80,81,,,,,1.3,0.8,1.0*2A
$QZGSA,A,3,,,,,,,,,,,,,1.3,0.8,1.0*25
$IMGSA,A,3,,,,,,,,,,,,,1.3,0.8,1.0*2A
$GPRMC,105050.00,A,4155.819559,N,01236.704454,E,000.0,,210219,,,A*74
$GPGGA,105051.00,4155.819559,N,01236.704454,E,1,18,3.2,61.0,M,45.0,M,,*5E
$GPGSV,3,1,11,13,68,323,19,28,63,089,20,05,43,211,21,30,41,060,37*76
$GPGSV,3,2,11,15,34,306,18,07,10,068,42,24,08,261,24,17,08,134,19*74
$GPGSV,3,3,11,04,,,38,08,03,029,,21,00,308,*7E
$GLGSV,3,1,10,73,61,251,21,71,61,317,22,70,60,165,20,80,49,032,29*6A
$GLGSV,3,2,10,74,15,233,22,72,11,328,20,81,06,039,21,69,05,152,32*65
$GLGSV,3,3,10,88,02,356,,79,00,045,*69
$GPGSA,A,3,05,07,13,15,17,24,28,30,,,,,1.4,0.8,1.1*32
$GNGSA,A,3,05,07,13,15,17,24,28,30,,,,,1.4,0.8,1.1*2C
$GNGSA,A,3,69,70,71,72,73,74,80,81,,,,,1.4,0.8,1.1*2C
$QZGSA,A,3,,,,,,,,,,,,,1.4,0.8,1.1*23
$IMGSA,A,3,,,,,,,,,,,,,1.4,0.8,1.1*2C
$GPRMC,105051.00,A,4155.819559,N,01236.704454,E,000.0,,210219,,,A*75
$GPGGA,105052.00,4155.819559,N,01236.704454,E,1,18,3.2,60.2,M,45.0,M,,*5E
$GPGSV,3,1,11,13,68,323,18,28,63,089,20,05,43,211,20,30,41,060,37*76
$GPGSV,3,2,11,15,34,306,18,07,10,068,42,24,08,261,24,17,08,134,19*74
$GPGSV,3,3,11,04,,,38,08,03,029,,21,00,308,*7E
$GLGSV,3,1,10,73,61,251,21,71,61,317,22,70,60,165,20,80,49,032,29*6A
$GLGSV,3,2,10,74,15,233,23,72,11,328,20,81,06,039,20,69,05,152,32*65
$GLGSV,3,3,10,88,02,356,,79,00,045,*69
$GPGSA,A,3,05,07,13,15,17,24,28,30,,,,,1.4,0.8,1.1*32
$GNGSA,A,3,05,07,13,15,17,24,28,30,,,,,1.4,0.8,1.1*2C
$GNGSA,A,3,69,70,71,72,73,74,80,81,,,,,1.4,0.8,1.1*2C
$QZGSA,A,3,,,,,,,,,,,,,1.4,0.8,1.1*23
$IMGSA,A,3,,,,,,,,,,,,,1.4,0.8,1.1*2C
$GPRMC,105052.00,A,4155.819559,N,01236.704454,E,000.0,,210219,,,A*76
$GPGGA,105053.00,4155.819559,N,01236.704454,E,1,17,3.2,59.5,M,45.0,M,,*5D
$GPGSV,3,1,11,13,68,323,20,28,63,089,19,05,43,211,20,30,41,060,37*77
$GPGSV,3,2,11,15,34,306,17,07,10,068,42,24,08,261,24,17,08,134,18*7A
$GPGSV,3,3,11,04,,,38,08,03,029,,21,00,308,*7E
$GLGSV,3,1,10,73,61,251,21,71,61,317,21,70,60,165,19,80,49,032,29*63
$GLGSV,3,2,10,74,15,233,23,72,11,328,20,81,06,039,20,69,05,152,32*65
$GLGSV,3,3,10,88,02,356,,79,00,045,*69
$GPGSA,A,3,05,07,13,17,24,28,30,,,,,,1.3,0.8,1.1*31
$GNGSA,A,3,05,07,13,17,24,28,30,,,,,,1.3,0.8,1.1*2F
$GNGSA,A,3,69,70,71,72,73,74,80,81,,,,,1.3,0.8,1.1*2B
$QZGSA,A,3,,,,,,,,,,,,,1.3,0.8,1.1*24
$IMGSA,A,3,,,,,,,,,,,,,1.3,0.8,1.1*2B
$GPRMC,105053.00,A,4155.819559,N,01236.704454,E,000.0,,210219,,,A*77
$GPGGA,105054.00,4155.819559,N,01236.704454,E,1,16,3.2,58.7,M,45.0,M,,*58
$GPGSV,3,1,11,13,68,323,20,28,63,089,18,05,43,211,21,30,41,060,37*77
$GPGSV,3,2,11,15,34,306,,07,10,068,42,24,08,261,25,17,08,134,18*7D
$GPGSV,3,3,11,04,,,38,08,03,029,,21,00,308,*7E
$GLGSV,3,1,10,73,61,251,20,71,61,317,20,70,60,165,19,80,49,032,29*63
$GLGSV,3,2,10,74,15,233,24,72,11,328,20,81,06,039,19,69,05,152,32*68
$GLGSV,3,3,10,88,02,356,,79,00,045,*69
$GPGSA,A,3,05,07,13,17,24,28,30,,,,,,1.3,0.8,1.1*31
$GNGSA,A,3,05,07,13,17,24,28,30,,,,,,1.3,0.8,1.1*2F
$GNGSA,A,3,69,71,72,73,74,80,81,,,,,,1.3,0.8,1.1*2C
$QZGSA,A,3,,,,,,,,,,,,,1.3,0.8,1.1*24
$IMGSA,A,3,,,,,,,,,,,,,1.3,0.8,1.1*2B
$GPRMC,105054.00,A,4155.819559,N,01236.704454,E,000.0,,210219,,,A*70
$GPGGA,105055.00,4155.819559,N,01236.704454,E,1,16,3.2,57.9,M,45.0,M,,*58
$GPGSV,3,1,11,13,68,323,20,28,63,089,18,05,43,211,20,30,41,060,37*76
$GPGSV,3,2,11,15,34,306,18,07,10,068,42,24,08,261,25,17,08,134,18*74
$GPGSV,3,3,11,04,,,38,08,03,029,,21,00,308,*7E
$GLGSV,3,1,10,73,61,251,21,71,61,317,20,70,60,165,,80,49,032,29*6A
$GLGSV,3,2,10,74,15,233,25,72,11,328,20,81,06,039,19,69,05,152,32*69
$GLGSV,3,3,10,88,02,356,,79,00,045,*69
$GPGSA,A,3,05,07,13,15,17,24,28,30,,,,,1.3,0.8,1.1*35
$GNGSA,A,3,05,07,13,15,17,24,28,30,,,,,1.3,0.8,1.1*2B
$GNGSA,A,3,69,71,72,73,74,80,81,,,,,,1.3,0.8,1.1*2C
$QZGSA,A,3,,,,,,,,,,,,,1.3,0.8,1.1*24
$IMGSA,A,3,,,,,,,,,,,,,1.3,0.8,1.1*2B
$GPRMC,105055.00,A,4155.819559,N,01236.704454,E,000.0,,210219,,,A*71
$GPGGA,105056.00,4155.819559,N,01236.704454,E,1,17,3.2,57.7,M,45.0,M,,*54
$GPGSV,3,1,11,13,68,323,19,28,63,089,18,05,43,211,20,30,41,060,37*7C
$GPGSV,3,2,11,15,34,306,,07,10,068,42,24,08,261,25,17,08,134,18*7D
$GPGSV,3,3,11,04,,,38,08,03,029,,21,00,308,*7E
$GLGSV,3,1,10,73,61,251,20,71,61,317,19,70,60,165,17,80,49,032,29*67
$GLGSV,3,2,10,74,15,233,26,72,11,328,20,81,06,039,19,69,05,152,32*6A
$GLGSV,3,3,10,88,02,356,,79,00,045,*69
$GPGSA,A,3,05,07,13,17,24,28,30,,,,,,1.4,0.9,1.1*37
$GNGSA,A,3,05,07,13,17,24,28,30,,,,,,1.4,0.9,1.1*29
$GNGSA,A,3,69,70,71,72,73,74,80,81,,,,,1.4,0.9,1.1*2D
$QZGSA,A,3,,,,,,,,,,,,,1.4,0.9,1.1*22
$IMGSA,A,3,,,,,,,,,,,,,1.4,0.9,1.1*2D
$GPRMC,105056.00,A,4155.819559,N,01236.704454,E,000.0,,210219,,,A*72
$GPGGA,105057.00,4155.819559,N,01236.704454,E,1,16,3.2,57.5,M,45.0,M,,*56
$GPGSV,3,1,11,13,68,323,,28,63,089,18,05,43,211,20,30,41,060,37*74
$GPGSV,3,2,11,15,34,306,17,07,10,068,42,24,08,261,25,17,08,134,18*7B
$GPGSV,3,3,11,04,,,38,08,03,029,,21,00,308,*7E
$GLGSV,3,1,10,73,61,251,20,71,61,317,19,70,60,165,20,80,49,032,29*63
$GLGSV,3,2,10,74,15,233,26,72,11,328,19,81,06,039,19,69,05,152,32*60
$GLGSV,3,3,10,88,02,356,,79,00,045,*69
$GPGSA,A,3,05,07,15,17,24,28,30,,,,,,1.4,0.9,1.1*31
$GNGSA,A,3,05,07,15,17,24,28,30,,,,,,1.4,0.9,1.1*2F
$GNGSA,A,3,69,70,71,72,73,74,80,81,,,,,1.4,0.9,1.1*2D
$QZGSA,A,3,,,,,,,,,,,,,1.4,0.9,1.1*22
$IMGSA,A,3,,,,,,,,,,,,,1.4,0.9,1.1*2D
$GPRMC,105057.00,A,4155.819559,N,01236.704454,E,000.0,,210219,,,A*73
$GPGGA,105058.00,4155.819559,N,01236.704454,E,1,15,3.2,57.5,M,45.0,M,,*5A
$GPGSV,3,1,11,13,68,323,17,28,63,089,18,05,43,211,19,30,41,060,37*78
$GPGSV,3,2,11,15,34,306,18,07,10,068,42,24,08,261,25,17,08,134,18*74
$GPGSV,3,3,11,04,,,38,08,03,029,,21,00,308,*7E
$GLGSV,3,1,10,73,61,251,20,71,61,317,18,70,60,165,,80,49,032,29*60
$GLGSV,3,2,10,74,15,233,26,72,11,328,19,81,06,039,19,69,05,152,32*60
$GLGSV,3,3,10,88,02,356,,79,00,045,*69
$GPGSA,A,3,05,07,15,17,24,28,30,,,,,,1.4,0.9,1.1*31
$GNGSA,A,3,05,07,15,17,24,28,30,,,,,,1.4,0.9,1.1*2F
$GNGSA,A,3,69,71,72,73,74,80,81,,,,,,1.4,0.9,1.1*2A
$QZGSA,A,3,,,,,,,,,,,,,1.4,0.9,1.1*22
$IMGSA,A,3,,,,,,,,,,,,,1.4,0.9,1.1*2D
$GPRMC,105058.00,A,4155.819559,N,01236.704454,E,000.0,,210219,,,A*7C
$GPGGA,105059.00,4155.819559,N,01236.704454,E,1,17,3.2,57.3,M,45.0,M,,*5F
$GPGSV,3,1,11,13,68,323,,28,63,089,20,05,43,211,19,30,41,060,37*75
$GPGSV,3,2,11,15,34,306,17,07,10,068,43,24,08,261,26,17,08,134,17*76
$GPGSV,3,3,11,04,,,38,08,03,029,,21,00,308,*7E
$GLGSV,3,1,10,73,61,251,20,71,61,317,17,70,60,165,18,80,49,032,28*67
$GLGSV,3,2,10,74,15,233,26,72,11,328,19,81,06,039,18,69,05,152,32*61
$GLGSV,3,3,10,88,02,356,,79,00,045,*69
$GPGSA,A,3,05,07,15,17,24,28,30,,,,,,1.4,0.9,1.1*31
$GNGSA,A,3,05,07,15,17,24,28,30,,,,,,1.4,0.9,1.1*2F
$GNGSA,A,3,69,70,71,72,73,74,80,81,,,,,1.4,0.9,1.1*2D
$QZGSA,A,3,,,,,,,,,,,,,1.4,0.9,1.1*22
$IMGSA,A,3,,,,,,,,,,,,,1.4,0.9,1.1*2D
$GPRMC,105059.00,A,4155.819559,N,01236.704454,E,000.0,,210219,,,A*7D
$GPGGA,105100.00,4155.819559,N,01236.704454,E,1,18,3.2,57.1,M,45.0,M,,*5F
$GPGSV,3,1,11,13,68,323,17,28,63,089,20,05,43,211,19,30,41,060,37*73
$GPGSV,3,2,11,15,34,306,19,07,10,068,44,24,08,261,26,17,08,134,17*7F
$GPGSV,3,3,11,04,,,37,08,03,029,,21,00,308,*71
$GLGSV,3,1,10,73,61,251,20,71,61,317,17,70,60,165,19,80,49,032,28*66
$GLGSV,3,2,10,74,15,233,26,72,11,328,18,81,06,039,18,69,05,152,32*60
$GLGSV,3,3,10,88,02,356,,79,00,045,*69
$GPGSA,A,3,05,07,13,15,17,24,28,30,,,,,1.4,0.9,1.1*33
$GNGSA,A,3,05,07,13,15,17,24,28,30,,,,,1.4,0.9,1.1*2D
$GNGSA,A,3,69,70,71,72,73,74,80,81,,,,,1.4,0.9,1.1*2D
$QZGSA,A,3,,,,,,,,,,,,,1.4,0.9,1.1*22
$IMGSA,A,3,,,,,,,,,,,,,1.4,0.9,1.1*2D
$GPRMC,105100.00,A,4155.819559,N,01236.704454,E,000.0,,210219,,,A*70
$GPGGA,105101.00,4155.819559,N,01236.704454,E,1,17,3.2,57.1,M,45.0,M,,*51
$GPGSV,3,1,11,13,68,323,20,28,63,089,20,05,43,211,19,30,41,060,37*77
$GPGSV,3,2,11,15,34,306,18,07,10,068,44,24,08,261,26,17,08,134,16*7F
$GPGSV,3,3,11,04,,,37,08,03,029,,21,00,308,*71
$GLGSV,3,1,10,73,61,251,20,71,61,317,17,70,60,165,,80,49,032,28*6E
$GLGSV,3,2,10,74,15,233,25,72,11,328,18,81,06,039,18,69,05,152,32*63
$GLGSV,3,3,10,88,02,356,,79,00,045,*69
$GPGSA,A,3,05,07,13,15,17,24,28,30,,,,,1.9,1.2,1.5*30
$GNGSA,A,3,05,07,13,15,17,24,28,30,,,,,1.9,1.2,1.5*2E
$GNGSA,A,3,69,71,72,73,74,80,81,,,,,,1.9,1.2,1.5*29
$QZGSA,A,3,,,,,,,,,,,,,1.9,1.2,1.5*21
$IMGSA,A,3,,,,,,,,,,,,,1.9,1.2,1.5*2E
$GPRMC,105101.00,A,4155.819559,N,01236.704454,E,000.0,,210219,,,A*71
$GPGGA,105102.00,4155.819559,N,01236.704454,E,1,18,3.2,57.3,M,45.0,M,,*5F
$GPGSV,3,1,11,13,68,323,19,28,63,089,20,05,43,211,19,30,41,060,37*7D
$GPGSV,3,2,11,15,34,306,18,07,10,068,44,24,08,261,26,17,08,134,16*7F
$GPGSV,3,3,11,04,,,37,08,03,029,,21,00,308,*71
$GLGSV,3,1,10,73,61,251,19,71,61,317,21,70,60,165,19,80,49,032,28*69
$GLGSV,3,2,10,74,15,233,25,72,11,328,18,81,06,039,17,69,05,152,32*6C
$GLGSV,3,3,10,88,02,356,,79,00,045,*69
$GPGSA,A,3,05,07,13,15,17,24,28,30,,,,,1.6,1.1,1.1*38
$GNGSA,A,3,05,07,13,15,17,24,28,30,,,,,1.6,1.1,1.1*26
$GNGSA,A,3,69,70,71,72,73,74,80,81,,,,,1.6,1.1,1.1*26
$QZGSA,A,3,,,,,,,,,,,,,1.6,1.1,1.1*29
$IMGSA,A,3,,,,,,,,,,,,,1.6,1.1,1.1*26
$GPRMC,105102.00,A,4155.819559,N,01236.704454,E,000.0,,210219,,,A*72
$GPGGA,105103.00,4155.819559,N,01236.704454,E,1,17,3.2,57.2,M,45.0,M,,*50
$GPGSV,3,1,11,13,68,323,19,28,63,089,19,05,43,211,19,30,41,060,36*76
$GPGSV,3,2,11,15,34,306,18,07,10,068,44,24,08,261,26,17,08,134,*78
$GPGSV,3,3,11,04,,,37,08,03,029,,21,00,308,*71
$GLGSV,3,1,10,73,61,251,19,71,61,317,21,70,60,165,19,80,49,032,28*69
$GLGSV,3,2,10,74,15,233,25,72,11,328,18,81,06,039,17,69,05,152,31*6F
$GLGSV,3,3,10,88,02,356,,79,00,045,*69
$GPGSA,A,3,05,07,13,15,24,28,30,,,,,,1.4,0.9,1.1*35
$GNGSA,A,3,05,07,13,15,24,28,30,,,,,,1.4,0.9,1.1*2B
$GNGSA,A,3,69,70,71,72,73,74,80,81,,,,,1.4,0.9,1.1*2D
$QZGSA,A,3,,,,,,,,,,,,,1.4,0.9,1.1*22
$IMGSA,A,3,,,,,,,,,,,,,1.4,0.9,1.1*2D
$GPRMC,105103.00,A,4155.819559,N,01236.704454,E,000.0,,210219,,,A*73
$GPGGA,105104.00,4155.819559,N,01236.704454,E,1,16,3.2,57.2,M,45.0,M,,*56
$GPGSV,3,1,11,13,68,323,19,28,63,089,19,05,43,211,19,30,41,060,36*76
$GPGSV,3,2,11,15,34,306,18,07,10,068,44,24,08,261,26,17,08,134,16*7F
$GPGSV,3,3,11,04,,,37,08,03,029,,21,00,308,*71
$GLGSV,3,1,10,73,61,251,19,71,61,317,20,70,60,165,,80,49,032,27*6F
$GLGSV,3,2,10,74,15,233,25,72,11,328,18,81,06,039,17,69,05,152,31*6F
$GLGSV,3,3,10,88,02,356,,79,00,045,*69
$GPGSA,A,3,05,07,13,15,17,24,28,30,,,,,1.3,0.8,1.0*34
$GNGSA,A,3,05,07,13,15,17,24,28,30,,,,,1.3,0.8,1.0*2A
$GNGSA,A,3,69,71,72,73,74,80,81,,,,,,1.3,0.8,1.0*2D
$QZGSA,A,3,,,,,,,,,,,,,1.3,0.8,1.0*25
$IMGSA,A,3,,,,,,,,,,,,,1.3,0.8,1.0*2A
$GPRMC,105104.00,A,4155.819559,N,01236.704454,E,000.0,,210219,,,A*74
$GPGGA,105105.00,4155.819559,N,01236.704454,E,1,15,3.2,57.1,M,45.0,M,,*57
$GPGSV,3,1,11,13,68,323,20,28,63,089,19,05,43,211,19,30,41,060,36*7C
$GPGSV,3,2,11,15,34,306,,07,10,068,44,24,08,261,26,17,08,134,18*78
$GPGSV,3,3,11,04,,,37,08,03,029,,21,00,308,*71
$GLGSV,3,1,10,73,61,251,20,71,61,317,20,70,60,165,,80,49,032,27*65
$GLGSV,3,2,10,74,15,233,25,72,11,328,17,81,06,039,19,69,05,152,31*6E
$GLGSV,3,3,10,88,02,356,,79,00,045,*69
$GPGSA,A,3,05,07,13,17,24,28,30,,,,,,2.0,1.3,1.5*3F
$GNGSA,A,3,05,07,13,17,24,28,30,,,,,,2.0,1.3,1.5*21
$GNGSA,A,3,69,71,72,73,74,80,81,,,,,,2.0,1.3,1.5*22
$QZGSA,A,3,,,,,,,,,,,,,2.0,1.3,1.5*2A
$IMGSA,A,3,,,,,,,,,,,,,2.0,1.3,1.5*25
$GPRMC,105105.00,A,4155.819559,N,01236.704454,E,000.0,,210219,,,A*75
$GPGGA,105106.00,4155.819559,N,01236.704454,E,1,17,3.2,57.0,M,45.0,M,,*57
$GPGSV,3,1,11,13,68,323,20,28,63,089,18,05,43,211,19,30,41,060,36*7D
$GPGSV,3,2,11,15,34,306,17,07,10,068,44,24,08,261,26,17,08,134,20*75
$GPGSV,3,3,11,04,,,37,08,03,029,,21,00,308,*71
$GLGSV,3,1,10,73,61,252,20,71,61,317,19,70,60,165,16,80,49,032,27*6B
$GLGSV,3,2,10,74,15,233,25,72,11,328,17,81,06,039,20,69,05,152,31*64
$GLGSV,3,3,10,88,02,356,,79,00,045,*69
$GPGSA,A,3,05,07,13,15,17,24,28,30,,,,,1.6,1.1,1.1*38
$GNGSA,A,3,05,07,13,15,17,24,28,30,,,,,1.6,1.1,1.1*26
$GNGSA,A,3,69,71,72,73,74,80,81,,,,,,1.6,1.1,1.1*21
$QZGSA,A,3,,,,,,,,,,,,,1.6,1.1,1.1*29
$IMGSA,A,3,,,,,,,,,,,,,1.6,1.1,1.1*26
$GPRMC,105106.00,A,4155.819559,N,01236.704454,E,000.0,,210219,,,A*76
$GPGGA,105107.00,4155.819559,N,01236.704454,E,1,13,3.2,56.6,M,45.0,M,,*55
$GPGSV,3,1,11,13,68,323,20,28,63,089,18,05,43,211,19,30,41,060,36*7D
$GPGSV,3,2,11,15,34,306,,07,10,068,44,24,08,261,26,17,08,134,19*79
$GPGSV,3,3,11,04,,,37,08,03,029,,21,00,308,*71
$GLGSV,3,1,10,73,61,252,20,71,61,317,19,70,60,165,16,80,49,032,27*6B
$GLGSV,3,2,10,74,15,233,25,72,11,328,17,81,06,039,22,69,05,152,31*66
$GLGSV,3,3,10,88,02,356,,79,00,045,*69
$GPGSA,A,3,05,07,13,24,28,30,,,,,,,2.4,1.5,1.8*36
$GNGSA,A,3,05,07,13,24,28,30,,,,,,,2.4,1.5,1.8*28
$GNGSA,A,3,69,71,72,73,74,80,81,,,,,,2.4,1.5,1.8*2D
$QZGSA,A,3,,,,,,,,,,,,,2.4,1.5,1.8*25
$IMGSA,A,3,,,,,,,,,,,,,2.4,1.5,1.8*2A
$GPRMC,105107.00,A,4155.819559,N,01236.704454,E,000.0,,210219,,,A*77
$GPGGA,105108.00,4155.819559,N,01236.704454,E,1,14,3.2,56.1,M,45.0,M,,*5A
$GPGSV,3,1,11,13,68,323,20,28,63,089,18,05,43,211,19,30,41,060,36*7D
$GPGSV,3,2,11,15,34,306,,07,10,068,44,24,08,261,26,17,08,134,*71
$GPGSV,3,3,11,04,,,37,08,03,029,,21,00,308,*71
$GLGSV,3,1,10,73,61,252,19,71,61,317,19,70,60,165,,80,49,032,27*66
$GLGSV,3,2,10,74,15,233,25,72,11,328,17,81,06,039,22,69,05,152,31*66
$GLGSV,3,3,10,88,02,356,,79,00,045,*69
$GPGSA,A,3,05,07,13,24,28,30,,,,,,,2.4,1.5,1.8*36
$GNGSA,A,3,05,07,13,24,28,30,,,,,,,2.4,1.5,1.8*28
$GNGSA,A,3,69,71,72,73,74,80,81,,,,,,2.4,1.5,1.8*2D
$QZGSA,A,3,,,,,,,,,,,,,2.4,1.5,1.8*25
$IMGSA,A,3,,,,,,,,,,,,,2.4,1.5,1.8*2A
$GPRMC,105108.00,A,4155.819559,N,01236.704454,E,000.0,,210219,,,A*78
$GPGGA,105109.00,4155.819559,N,01236.704454,E,1,15,3.2,56.1,M,45.0,M,,*5A
$GPGSV,3,1,11,13,68,323,20,28,63,089,17,05,43,211,19,30,41,060,36*72
$GPGSV,3,2,11,15,34,306,15,07,10,068,44,24,08,261,26,17,08,134,*75
$GPGSV,3,3,11,04,,,36,08,03,029,,21,00,308,*70
$GLGSV,3,1,10,73,61,252,19,71,61,317,19,70,60,165,14,80,49,032,27*63
$GLGSV,3,2,10,74,15,233,25,72,11,328,17,81,06,039,23,69,05,152,31*67
$GLGSV,3,3,10,88,02,356,,79,00,045,*69
$GPGSA,A,3,05,07,13,24,28,30,,,,,,,2.0,1.3,1.5*39
$GNGSA,A,3,05,07,13,24,28,30,,,,,,,2.0,1.3,1.5*27
$GNGSA,A,3,69,71,72,73,74,80,81,,,,,,2.0,1.3,1.5*22
$QZGSA,A,3,,,,,,,,,,,,,2.0,1.3,1.5*2A
$IMGSA,A,3,,,,,,,,,,,,,2.0,1.3,1.5*25
$GPRMC,105109.00,A,4155.819559,N,01236.704454,E,000.0,,210219,,,A*79
$GPGGA,105110.00,4155.819559,N,01236.704454,E,1,17,3.2,56.1,M,45.0,M,,*50
$GPGSV,3,1,11,13,68,323,20,28,63,089,17,05,43,211,19,30,41,060,36*72
$GPGSV,3,2,11,15,34,306,,07,10,068,44,24,08,261,26,17,08,134,20*73
$GPGSV,3,3,11,04,,,36,08,03,029,,21,00,308,*70
$GLGSV,3,1,10,73,61,252,19,71,61,317,18,70,60,165,15,80,49,032,27*63
$GLGSV,3,2,10,74,15,233,24,72,12,328,16,81,06,039,23,69,05,152,31*64
$GLGSV,3,3,10,88,02,356,,79,00,045,*69
$GPGSA,A,3,05,07,13,17,24,28,30,,,,,,2.0,1.3,1.5*3F
$GNGSA,A,3,05,07,13,17,24,28,30,,,,,,2.0,1.3,1.5*21
$GNGSA,A,3,69,70,71,72,73,74,80,81,,,,,2.0,1.3,1.5*25
$QZGSA,A,3,,,,,,,,,,,,,2.0,1.3,1.5*2A
$IMGSA,A,3,,,,,,,,,,,,,2.0,1.3,1.5*25
$GPRMC,105110.00,A,4155.819559,N,01236.704454,E,000.0,,210219,,,A*71
$GPGGA,105111.00,4155.819559,N,01236.704454,E,1,17,3.2,56.1,M,45.0,M,,*51
$GPGSV,3,1,11,13,68,323,20,28,63,089,17,05,43,211,19,30,41,060,36*72
$GPGSV,3,2,11,15,34,306,15,07,10,068,44,24,08,261,26,17,08,134,19*7D
$GPGSV,3,3,11,04,,,36,08,03,029,,21,00,308,*70
$GLGSV,3,1,10,73,61,252,19,71,61,317,18,70,60,165,15,80,49,032,26*62
$GLGSV,3,2,10,74,15,233,24,72,12,328,19,81,06,039,23,69,05,152,30*6A
$GLGSV,3,3,10,88,02,356,,79,00,045,*69
$GPGSA,A,3,05,07,13,15,24,28,30,,,,,,2.0,1.3,1.5*3D
$GNGSA,A,3,05,07,13,15,24,28,30,,,,,,2.0,1.3,1.5*23
$GNGSA,A,3,69,70,71,72,73,74,80,81,,,,,2.0,1.3,1.5*25
$QZGSA,A,3,,,,,,,,,,,,,2.0,1.3,1.5*2A
$IMGSA,A,3,,,,,,,,,,,,,2.0,1.3,1.5*25
$GPRMC,105111.00,A,4155.819559,N,01236.704454,E,000.0,,210219,,,A*70
$GPGGA,105112.00,4155.819559,N,01236.704454,E,1,16,3.2,56.1,M,45.0,M,,*53
$GPGSV,3,1,11,13,68,323,20,28,63,089,16,05,43,211,19,30,41,060,36*73
$GPGSV,3,2,11,15,34,306,,07,10,068,44,24,08,261,26,17,08,134,18*78
$GPGSV,3,3,11,04,,,36,08,03,029,,21,00,308,*70
$GLGSV,3,1,10,73,61,252,19,71,61,317,18,70,60,165,16,80,49,032,26*61
$GLGSV,3,2,10,74,15,233,24,72,12,328,19,81,06,039,23,69,05,152,30*6A
$GLGSV,3,3,10,88,02,356,,79,00,045,*69
$GPGSA,A,3,05,07,13,24,28,30,,,,,,,2.0,1.3,1.5*39
$GNGSA,A,3,05,07,13,24,28,30,,,,,,,2.0,1.3,1.5*27
$GNGSA,A,3,69,70,71,72,73,74,80,81,,,,,2.0,1.3,1.5*25
$QZGSA,A,3,,,,,,,,,,,,,2.0,1.3,1.5*2A
$IMGSA,A,3,,,,,,,,,,,,,2.0,1.3,1.5*25
$GPRMC,105112.00,A,4155.819559,N,01236.704454,E,000.0,,210219,,,A*73
$GPGGA,105113.00,4155.819559,N,01236.704454,E,1,16,3.2,56.0,M,45.0,M,,*53
$GPGSV,3,1,11,13,68,323,20,28,63,089,16,05,43,211,19,30,41,060,37*72
$GPGSV,3,2,11,15,34,306,,07,10,068,44,24,08,261,27,17,08,134,18*79
$GPGSV,3,3,11,04,,,36,08,03,029,,21,00,308,*70
$GLGSV,3,1,10,73,61,252,19,71,61,317,18,70,60,165,16,80,49,032,26*61
$GLGSV,3,2,10,74,15,233,24,72,12,328,19,81,06,039,22,69,05,152,30*6B
$GLGSV,3,3,10,88,02,356,,79,00,045,*69
$GPGSA,A,3,05,07,13,17,24,28,30,,,,,,2.0,1.3,1.5*3F
$GNGSA,A,3,05,07,13,17,24,28,30,,,,,,2.0,1.3,1.5*21
$GNGSA,A,3,69,70,71,72,73,74,80,81,,,,,2.0,1.3,1.5*25
$QZGSA,A,3,,,,,,,,,,,,,2.0,1.3,1.5*2A
$IMGSA,A,3,,,,,,,,,,,,,2.0,1.3,1.5*25
$GPRMC,105113.00,A,4155.819559,N,01236.704454,E,000.0,,210219,,,A*72
$GPGGA,105114.00,4155.819559,N,01236.704454,E,1,15,3.2,56.0,M,45.0,M,,*57
$GPGSV,3,1,11,13,68,323,20,28,63,089,16,05,43,211,19,30,41,060,37*72
$GPGSV,3,2,11,15,34,306,,07,10,068,44,24,08,261,26,17,08,134,20*73
$GPGSV,3,3,11,04,,,36,08,03,029,,21,00,308,*70
$GLGSV,3,1,10,73,61,252,19,71,61,317,18,70,60,165,,80,49,032,26*66
$GLGSV,3,2,10,74,15,233,24,72,12,328,19,81,06,039,22,69,05,152,30*6B
$GLGSV,3,3,10,88,02,356,,79,00,045,*69
$GPGSA,A,3,05,07,13,17,24,28,30,,,,,,2.0,1.3,1.5*3F
$GNGSA,A,3,05,07,13,17,24,28,30,,,,,,2.0,1.3,1.5*21
$GNGSA,A,3,69,71,72,73,74,80,81,,,,,,2.0,1.3,1.5*22
$QZGSA,A,3,,,,,,,,,,,,,2.0,1.3,1.5*2A
$IMGSA,A,3,,,,,,,,,,,,,2.0,1.3,1.5*25
$GPRMC,105114.00,A,4155.819559,N,01236.704454,E,000.0,,210219,,,A*75
$GPGGA,105115.00,4155.819559,N,01236.704454,E,1,16,3.2,55.9,M,45.0,M,,*5F
$GPGSV,3,1,11,13,68,323,20,28,63,089,,05,43,211,19,30,41,060,37*75
$GPGSV,3,2,11,15,34,306,21,07,10,068,45,24,08,261,26,17,08,134,20*71
$GPGSV,3,3,11,04,,,35,08,03,029,,21,00,308,*73
$GLGSV,3,1,10,73,61,252,18,71,61,317,18,70,60,165,,80,49,032,26*67
$GLGSV,3,2,10,74,15,233,23,72,12,328,18,81,06,039,21,69,05,152,30*6E
$GLGSV,3,3,10,88,02,356,,79,00,045,*69
$GPGSA,A,3,05,07,13,15,17,24,30,,,,,,2.4,1.5,1.8*3E
$GNGSA,A,3,05,07,13,15,17,24,30,,,,,,2.4,1.5,1.8*20
$GNGSA,A,3,69,71,72,73,74,80,81,,,,,,2.4,1.5,1.8*2D
$QZGSA,A,3,,,,,,,,,,,,,2.4,1.5,1.8*25
$IMGSA,A,3,,,,,,,,,,,,,2.4,1.5,1.8*2A
$GPRMC,105115.00,A,4155.819559,N,01236.704454,E,000.0,,210219,,,A*74
$GPGGA,105116.00,4155.819559,N,01236.704454,E,1,16,3.2,55.9,M,45.0,M,,*5C
$GPGSV,3,1,11,13,68,323,19,28,63,089,18,05,43,211,19,30,41,060,37*76
$GPGSV,3,2,11,15,34,306,20,07,10,068,45,24,08,261,26,17,08,134,20*70
$GPGSV,3,3,11,04,,,35,08,03,029,,21,00,308,*73
$GLGSV,3,1,10,73,61,252,18,71,61,317,18,70,60,165,,80,49,032,26*67
$GLGSV,3,2,10,74,15,233,23,72,12,328,19,81,06,039,21,69,05,152,30*6F
$GLGSV,3,3,10,88,02,356,,79,00,045,*69
$GPGSA,A,3,05,07,13,17,24,28,30,,,,,,2.4,1.5,1.8*30
$GNGSA,A,3,05,07,13,17,24,28,30,,,,,,2.4,1.5,1.8*2E
$GNGSA,A,3,69,71,72,73,74,80,81,,,,,,2.4,1.5,1.8*2D
$QZGSA,A,3,,,,,,,,,,,,,2.4,1.5,1.8*25
$IMGSA,A,3,,,,,,,,,,,,,2.4,1.5,1.8*2A
$GPRMC,105116.00,A,4155.819559,N,01236.704454,E,000.0,,210219,,,A*77
$GPGGA,105117.00,4155.819559,N,01236.704454,E,1,15,3.2,55.8,M,45.0,M,,*5F
$GPGSV,3,1,11,13,68,323,19,28,63,089,,05,43,211,19,30,41,060,37*7F
$GPGSV,3,2,11,15,34,306,,07,10,068,45,24,08,261,27,17,08,134,20*73
$GPGSV,3,3,11,04,,,35,08,03,029,,21,00,308,*73
$GLGSV,3,1,10,73,61,252,18,71,61,317,17,70,60,165,,80,49,032,26*68
$GLGSV,3,2,10,74,15,233,23,72,12,328,19,81,06,039,22,69,05,152,30*6C
$GLGSV,3,3,10,88,02,356,,79,00,045,*69
$GPGSA,A,3,05,07,13,17,24,30,,,,,,,2.5,1.5,2.0*30
$GNGSA,A,3,05,07,13,17,24,30,,,,,,,2.5,1.5,2.0*2E
$GNGSA,A,3,69,71,72,73,74,80,81,,,,,,2.5,1.5,2.0*27
$QZGSA,A,3,,,,,,,,,,,,,2.5,1.5,2.0*2F
$IMGSA,A,3,,,,,,,,,,,,,2.5,1.5,2.0*20
$GPRMC,105117.00,A,4155.819559,N,01236.704454,E,000.0,,210219,,,A*76
$GPGGA,105118.00,4155.819559,N,01236.704454,E,1,16,3.2,55.7,M,45.0,M,,*5C
$GPGSV,3,1,11,13,68,323,18,28,63,089,,05,43,211,19,30,41,060,38*71
$GPGSV,3,2,11,15,34,306,18,07,10,068,45,24,08,261,27,17,08,134,20*7A
$GPGSV,3,3,11,04,,,35,08,03,029,,21,00,308,*73
$GLGSV,3,1,10,73,61,252,17,71,61,317,17,70,60,165,13,80,49,032,25*66
$GLGSV,3,2,10,74,15,233,23,72,12,328,19,81,06,039,22,69,04,152,*6E
$GLGSV,3,3,10,88,02,356,,79,00,045,*69
$GPGSA,A,3,05,07,13,15,17,24,30,,,,,,2.5,1.6,2.0*37
$GNGSA,A,3,05,07,13,15,17,24,30,,,,,,2.5,1.6,2.0*29
$GNGSA,A,3,71,72,73,74,80,81,,,,,,,2.5,1.6,2.0*2B
$QZGSA,A,3,,,,,,,,,,,,,2.5,1.6,2.0*2C
$IMGSA,A,3,,,,,,,,,,,,,2.5,1.6,2.0*23
$GPRMC,105118.00,A,4155.819559,N,01236.704454,E,000.0,,210219,,,A*79
$GPGGA,105119.00,4155.822256,N,01236.698165,E,1,16,3.2,55.6,M,45.0,M,,*5F
$GPGSV,3,1,11,13,68,323,18,28,63,089,18,05,43,211,19,30,41,060,38*78
$GPGSV,3,2,11,15,34,306,18,07,10,068,45,24,08,261,27,17,08,134,20*7A
$GPGSV,3,3,11,04,,,35,08,03,029,,21,00,308,*73
$GLGSV,3,1,10,73,61,252,17,71,61,317,17,70,60,165,,80,49,032,25*64
$GLGSV,3,2,10,74,15,233,22,72,12,328,18,81,06,039,22,69,04,152,*6E
$GLGSV,3,3,10,88,02,356,,79,00,045,*69
$GPGSA,A,3,05,07,13,15,17,24,28,30,,,,,2.6,1.7,2.0*3F
$GNGSA,A,3,05,07,13,15,17,24,28,30,,,,,2.6,1.7,2.0*21
$GNGSA,A,3,71,72,73,74,80,81,,,,,,,2.6,1.7,2.0*29
$QZGSA,A,3,,,,,,,,,,,,,2.6,1.7,2.0*2E
$IMGSA,A,3,,,,,,,,,,,,,2.6,1.7,2.0*21
$GPRMC,105119.00,A,4155.822256,N,01236.698165,E,000.0,,210219,,,A*7B
$GPGGA,105120.00,4155.822256,N,01236.698165,E,1,13,3.2,55.5,M,45.0,M,,*53
$GPGSV,3,1,11,13,68,323,18,28,63,089,,05,43,211,18,30,41,060,38*70
$GPGSV,3,2,11,15,34,306,17,07,10,068,45,24,08,261,27,17,08,134,20*75
$GPGSV,3,3,11,04,,,35,08,03,029,,21,00,308,*73
$GLGSV,3,1,10,73,61,252,17,71,61,317,17,70,60,165,,80,49,032,25*64
$GLGSV,3,2,10,74,15,233,22,72,12,328,18,81,06,039,22,69,04,152,*6E
$GLGSV,3,3,10,88,02,356,,79,00,045,*69
$GPGSA,A,3,05,07,13,17,24,30,,,,,,,2.1,1.2,1.7*37
$GNGSA,A,3,05,07,13,17,24,30,,,,,,,2.1,1.2,1.7*29
$GNGSA,A,3,71,72,73,74,80,81,,,,,,,2.1,1.2,1.7*2F
$QZGSA,A,3,,,,,,,,,,,,,2.1,1.2,1.7*28
$IMGSA,A,3,,,,,,,,,,,,,2.1,1.2,1.7*27
$GPRMC,105120.00,A,4155.822256,N,01236.698165,E,000.0,,210219,,,A*71
$GPGGA,105121.00,4155.822256,N,01236.698165,E,1,14,3.2,55.4,M,45.0,M,,*54
$GPGSV,3,1,11,13,68,323,17,28,63,089,18,05,43,211,18,30,41,060,37*79
$GPGSV,3,2,11,15,34,306,,07,10,068,45,24,08,261,27,17,08,134,20*73
$GPGSV,3,3,11,04,,,34,08,03,029,,21,00,308,*72
$GLGSV,3,1,10,73,61,252,16,71,61,317,17,70,60,165,12,80,49,032,24*67
$GLGSV,3,2,10,74,15,233,22,72,12,328,18,81,06,039,22,69,04,152,*6E
$GLGSV,3,3,10,88,02,355,,79,00,045,*6A
$GPGSA,A,3,05,07,13,17,24,28,30,,,,,,1.8,1.2,1.4*34
$GNGSA,A,3,05,07,13,17,24,28,30,,,,,,1.8,1.2,1.4*2A
$GNGSA,A,3,71,72,73,74,80,81,,,,,,,1.8,1.2,1.4*26
$QZGSA,A,3,,,,,,,,,,,,,1.8,1.2,1.4*21
$IMGSA,A,3,,,,,,,,,,,,,1.8,1.2,1.4*2E
$GPRMC,105121.00,A,4155.822256,N,01236.698165,E,000.0,,210219,,,A*70
$GPGGA,105122.00,4155.822256,N,01236.698165,E,1,17,3.2,55.4,M,45.0,M,,*54
$GPGSV,3,1,11,13,68,323,17,28,63,089,18,05,43,211,18,30,41,060,38*76
$GPGSV,3,2,11,15,34,306,,07,10,068,45,24,08,261,27,17,08,134,21*72
$GPGSV,3,3,11,04,,,34,08,03,029,,21,00,308,*72
$GLGSV,3,1,10,73,61,252,17,71,61,317,18,70,60,165,17,80,49,032,24*6C
$GLGSV,3,2,10,74,15,233,21,72,12,328,17,81,06,039,22,69,04,152,*62
$GLGSV,3,3,10,88,02,355,,79,00,045,*6A
$GPGSA,A,3,05,07,13,17,24,28,30,,,,,,1.9,1.2,1.4*35
$GNGSA,A,3,05,07,13,17,24,28,30,,,,,,1.9,1.2,1.4*2B
$GNGSA,A,3,70,71,72,73,74,80,81,,,,,,1.9,1.2,1.4*20
$QZGSA,A,3,,,,,,,,,,,,,1.9,1.2,1.4*20
$IMGSA,A,3,,,,,,,,,,,,,1.9,1.2,1.4*2F
$GPRMC,105122.00,A,4155.822256,N,01236.698165,E,000.0,,210219,,,A*73
$GPGGA,105123.00,4155.822256,N,01236.698165,E,1,17,3.2,55.4,M,45.0,M,,*55
$GPGSV,3,1,11,13,68,324,17,28,63,089,17,05,43,211,17,30,41,060,38*71
$GPGSV,3,2,11,15,34,306,15,07,10,068,45,24,08,261,27,17,08,134,21*76
$GPGSV,3,3,11,04,,,34,08,03,029,,21,00,308,*72
$GLGSV,3,1,10,73,61,252,17,71,61,317,18,70,60,165,,80,49,032,24*6A
$GLGSV,3,2,10,74,15,233,21,72,12,328,17,81,06,039,22,69,04,152,*62
$GLGSV,3,3,10,88,02,355,,79,00,045,*6A
$GPGSA,A,3,05,07,13,15,17,24,28,30,,,,,1.9,1.2,1.5*30
$GNGSA,A,3,05,07,13,15,17,24,28,30,,,,,1.9,1.2,1.5*2E
$GNGSA,A,3,71,72,73,74,80,81,,,,,,,1.9,1.2,1.5*26
$QZGSA,A,3,,,,,,,,,,,,,1.9,1.2,1.5*21
$IMGSA,A,3,,,,,,,,,,,,,1.9,1.2,1.5*2E
$GPRMC,105123.00,A,4155.822256,N,01236.698165,E,000.0,,210219,,,A*72
$GPGGA,105124.00,4155.822256,N,01236.698165,E,1,16,3.2,55.3,M,45.0,M,,*54
$GPGSV,3,1,11,13,68,324,16,28,63,089,17,05,43,211,17,30,41,060,38*70
$GPGSV,3,2,11,15,34,306,,07,10,068,45,24,08,261,28,17,08,134,20*7C
$GPGSV,3,3,11,04,,,34,08,03,029,,21,00,308,*72
$GLGSV,3,1,10,73,61,252,19,71,61,317,18,70,60,165,15,80,49,032,23*67
$GLGSV,3,2,10,74,15,233,20,72,12,328,17,81,06,039,22,69,04,152,*63
$GLGSV,3,3,10,88,02,355,,79,00,045,*6A
$GPGSA,A,3,05,07,13,17,24,28,30,,,,,,1.6,1.1,1.2*3F
$GNGSA,A,3,05,07,13,17,24,28,30,,,,,,1.6,1.1,1.2*21
$GNGSA,A,3,71,72,73,74,80,81,,,,,,,1.6,1.1,1.2*2D
$QZGSA,A,3,,,,,,,,,,,,,1.6,1.1,1.2*2A
$IMGSA,A,3,,,,,,,,,,,,,1.6,1.1,1.2*25
$GPRMC,105124.00,A,4155.822256,N,01236.698165,E,000.0,,210219,,,A*75
$GPGGA,105125.00,4155.822256,N,01236.698165,E,1,17,3.2,55.1,M,45.0,M,,*56
$GPGSV,3,1,11,13,68,324,16,28,63,089,17,05,43,211,16,30,41,060,38*71
$GPGSV,3,2,11,15,34,306,16,07,10,068,45,24,08,261,28,17,08,134,20*7B
$GPGSV,3,3,11,04,,,34,08,03,029,,21,00,308,*72
$GLGSV,3,1,10,73,61,252,19,71,61,317,18,70,60,165,,80,49,032,23*63
$GLGSV,3,2,10,74,15,233,20,72,12,328,16,81,06,039,21,69,04,152,*61
$GLGSV,3,3,10,88,02,355,,79,00,045,*6A
$GPGSA,A,3,05,07,13,15,17,24,28,30,,,,,1.9,1.2,1.5*30
$GNGSA,A,3,05,07,13,15,17,24,28,30,,,,,1.9,1.2,1.5*2E
$GNGSA,A,3,71,72,73,74,80,81,,,,,,,1.9,1.2,1.5*26
$QZGSA,A,3,,,,,,,,,,,,,1.9,1.2,1.5*21
$IMGSA,A,3,,,,,,,,,,,,,1.9,1.2,1.5*2E
$GPRMC,105125.00,A,4155.822256,N,01236.698165,E,000.0,,210219,,,A*74
$GPGGA,105126.00,4155.822256,N,01236.698165,E,1,18,3.2,55.1,M,45.0,M,,*5A
$GPGSV,3,1,11,13,68,324,16,28,63,089,17,05,43,211,16,30,41,060,38*71
$GPGSV,3,2,11,15,34,306,18,07,10,068,45,24,08,261,28,17,08,134,21*74
$GPGSV,3,3,11,04,,,34,08,03,029,,21,00,308,*72
$GLGSV,3,1,10,73,61,252,18,71,61,317,18,70,60,165,17,80,49,032,22*65
$GLGSV,3,2,10,74,15,233,19,72,12,328,16,81,06,039,20,69,04,152,*6A
$GLGSV,3,3,10,88,02,355,,79,00,045,*6A
$GPGSA,A,3,05,07,13,15,17,24,28,30,,,,,1.6,1.1,1.2*3B
$GNGSA,A,3,05,07,13,15,17,24,28,30,,,,,1.6,1.1,1.2*25
$GNGSA,A,3,70,71,72,73,74,80,81,,,,,,1.6,1.1,1.2*2A
$QZGSA,A,3,,,,,,,,,,,,,1.6,1.1,1.2*2A
$IMGSA,A,3,,,,,,,,,,,,,1.6,1.1,1.2*25
$GPRMC,105126.00,A,4155.822256,N,01236.698165,E,000.0,,210219,,,A*77
$GPGGA,105127.00,4155.822256,N,01236.698165,E,1,16,3.2,55.0,M,45.0,M,,*54
$GPGSV,3,1,11,13,68,324,16,28,63,089,16,05,43,211,17,30,41,060,38*71
$GPGSV,3,2,11,15,34,306,,07,10,068,45,24,08,261,28,17,08,134,21*7D
$GPGSV,3,3,11,04,,,34,08,03,029,,21,00,308,*72
$GLGSV,3,1,10,73,61,252,20,71,61,317,18,70,60,165,17,80,49,032,22*6E
$GLGSV,3,2,10,74,15,233,19,72,12,328,16,81,06,039,20,69,04,152,*6A
$GLGSV,3,3,10,88,02,355,,79,00,045,*6A
$GPGSA,A,3,05,07,13,17,24,28,30,,,,,,2.1,1.4,1.6*3A
$GNGSA,A,3,05,07,13,17,24,28,30,,,,,,2.1,1.4,1.6*24
$GNGSA,A,3,70,71,72,73,74,80,81,,,,,,2.1,1.4,1.6*2F
$QZGSA,A,3,,,,,,,,,,,,,2.1,1.4,1.6*2F
$IMGSA,A,3,,,,,,,,,,,,,2.1,1.4,1.6*20
$GPRMC,105127.00,A,4155.822256,N,01236.698165,E,000.0,,210219,,,A*76
$GPGGA,105128.00,4155.822256,N,01236.698165,E,1,15,3.2,54.9,M,45.0,M,,*50
$GPGSV,3,1,11,13,68,324,16,28,63,089,16,05,43,211,17,30,41,060,38*71
$GPGSV,3,2,11,15,34,306,,07,10,068,45,24,08,261,28,17,08,134,21*7D
$GPGSV,3,3,11,04,,,34,08,03,029,,21,00,308,*72
$GLGSV,3,1,10,73,61,252,20,71,61,317,19,70,60,165,16,80,49,032,22*6E
$GLGSV,3,2,10,74,15,233,18,72,12,328,16,81,06,039,20,69,04,152,*6B
$GLGSV,3,3,10,88,02,355,,79,00,045,*6A
$GPGSA,A,3,05,07,13,17,24,28,30,,,,,,1.6,1.1,1.2*3F
$GNGSA,A,3,05,07,13,17,24,28,30,,,,,,1.6,1.1,1.2*21
$GNGSA,A,3,71,72,73,74,80,81,,,,,,,1.6,1.1,1.2*2D
$QZGSA,A,3,,,,,,,,,,,,,1.6,1.1,1.2*2A
$IMGSA,A,3,,,,,,,,,,,,,1.6,1.1,1.2*25
$GPRMC,105128.00,A,4155.822256,N,01236.698165,E,000.0,,210219,,,A*79
$GPGGA,105129.00,4155.822256,N,01236.698165,E,1,16,3.2,54.9,M,45.0,M,,*52
$GPGSV,3,1,11,13,68,324,16,28,63,089,19,05,43,211,17,30,41,060,38*7E
$GPGSV,3,2,11,15,34,306,15,07,10,068,45,24,08,261,28,17,08,134,21*79
$GPGSV,3,3,11,04,,,34,08,03,029,,21,00,308,*72
$GLGSV,3,1,10,73,61,252,19,71,61,317,20,70,60,165,,80,49,032,22*69
$GLGSV,3,2,10,74,15,233,17,72,12,328,16,81,06,039,19,69,04,152,*6E
$GLGSV,3,3,10,88,02,355,,79,00,045,*6A
$GPGSA,A,3,05,07,13,17,24,28,30,,,,,,2.7,1.8,2.1*34
$GNGSA,A,3,05,07,13,17,24,28,30,,,,,,2.7,1.8,2.1*2A
$GNGSA,A,3,71,72,73,74,80,81,,,,,,,2.7,1.8,2.1*26
$QZGSA,A,3,,,,,,,,,,,,,2.7,1.8,2.1*21
$IMGSA,A,3,,,,,,,,,,,,,2.7,1.8,2.1*2E
$GPRMC,105129.00,A,4155.822256,N,01236.698165,E,000.0,,210219,,,A*78
$GPGGA,105130.00,4155.822256,N,01236.698165,E,1,16,3.2,54.9,M,45.0,M,,*5A
$GPGSV,3,1,11,13,68,324,16,28,63,089,18,05,43,211,17,30,41,060,38*7F
$GPGSV,3,2,11,15,34,306,,07,10,068,45,24,08,261,28,17,08,134,21*7D
$GPGSV,3,3,11,04,,,34,08,03,029,,21,00,308,*72
$GLGSV,3,1,10,73,61,252,19,71,61,317,20,70,60,165,16,80,49,032,22*6E
$GLGSV,3,2,10,74,15,233,17,72,12,328,15,81,06,039,19,69,04,152,*6D
$GLGSV,3,3,10,88,02,355,,79,00,045,*6A
$GPGSA,A,3,05,07,13,17,24,30,,,,,,,2.7,1.8,2.1*3E
$GNGSA,A,3,05,07,13,17,24,30,,,,,,,2.7,1.8,2.1*20
$GNGSA,A,3,70,71,72,73,74,80,81,,,,,,2.7,1.8,2.1*21
$QZGSA,A,3,,,,,,,,,,,,,2.7,1.8,2.1*21
$IMGSA,A,3,,,,,,,,,,,,,2.7,1.8,2.1*2E
$GPRMC,105130.00,A,4155.822256,N,01236.698165,E,000.0,,210219,,,A*70
$GPGGA,105131.00,4155.822256,N,01236.698165,E,1,16,3.2,54.9,M,45.0,M,,*5B
$GPGSV,3,1,11,13,68,324,16,28,63,089,,05,43,211,16,30,41,060,37*78
$GPGSV,3,2,11,15,34,306,19,07,10,068,45,24,08,261,27,17,08,134,21*7A
$GPGSV,3,3,11,04,,,34,08,03,029,,21,00,308,*72
$GLGSV,3,1,10,73,61,252,18,71,61,317,20,70,60,165,19,80,49,032,21*63
$GLGSV,3,2,10,74,15,233,17,72,12,328,15,81,06,039,19,69,04,152,*6D
$GLGSV,3,3,10,88,02,355,,79,00,045,*6A
$GPGSA,A,3,07,13,15,17,24,30,,,,,,,2.9,1.7,2.3*3C
$GNGSA,A,3,07,13,15,17,24,30,,,,,,,2.9,1.7,2.3*22
$GNGSA,A,3,70,71,72,73,74,80,81,,,,,,2.9,1.7,2.3*22
$QZGSA,A,3,,,,,,,,,,,,,2.9,1.7,2.3*22
$IMGSA,A,3,,,,,,,,,,,,,2.9,1.7,2.3*2D
$GPRMC,105131.00,A,4155.822256,N,01236.698165,E,000.0,,210219,,,A*71
$GPGGA,105132.00,4155.822256,N,01236.698165,E,1,15,3.2,54.8,M,45.0,M,,*5A
$GPGSV,3,1,11,13,68,324,16,28,63,089,17,05,43,211,,30,41,060,38*76
$GPGSV,3,2,11,15,34,306,19,07,10,068,45,24,08,261,27,17,08,134,22*79
$GPGSV,3,3,11,04,,,35,08,03,029,,21,00,308,*73
$GLGSV,3,1,10,73,61,252,18,71,61,317,21,70,60,165,,80,49,032,21*6A
$GLGSV,3,2,10,74,15,233,16,72,12,328,18,81,06,039,18,69,04,152,*60
$GLGSV,3,3,10,88,02,355,,79,00,045,*6A
$GPGSA,A,3,07,13,17,24,28,30,,,,,,,1.9,1.2,1.4*30
$GNGSA,A,3,07,13,17,24,28,30,,,,,,,1.9,1.2,1.4*2E
$GNGSA,A,3,71,72,73,74,80,81,,,,,,,1.9,1.2,1.4*27
$QZGSA,A,3,,,,,,,,,,,,,1.9,1.2,1.4*20
$IMGSA,A,3,,,,,,,,,,,,,1.9,1.2,1.4*2F
$GPRMC,105132.00,A,4155.822256,N,01236.698165,E,000.0,,210219,,,A*72
$GPGGA,105133.00,4155.822256,N,01236.698165,E,1,16,3.2,54.8,M,45.0,M,,*58
$GPGSV,3,1,11,13,68,324,16,28,63,089,17,05,43,211,,30,41,060,38*76
$GPGSV,3,2,11,15,34,306,18,07,10,068,45,24,08,261,27,17,08,134,22*78
$GPGSV,3,3,11,04,,,35,08,03,029,,21,00,308,*73
$GLGSV,3,1,10,73,61,252,18,71,61,317,21,70,60,165,18,80,49,032,22*60
$GLGSV,3,2,10,74,15,233,16,72,12,328,18,81,06,039,18,69,04,152,*60
$GLGSV,3,3,10,88,02,355,,79,00,045,*6A
$GPGSA,A,3,07,13,17,24,28,30,,,,,,,2.1,1.3,1.6*38
$GNGSA,A,3,07,13,17,24,28,30,,,,,,,2.1,1.3,1.6*26
$GNGSA,A,3,70,71,72,73,74,80,81,,,,,,2.1,1.3,1.6*28
$QZGSA,A,3,,,,,,,,,,,,,2.1,1.3,1.6*28
$IMGSA,A,3,,,,,,,,,,,,,2.1,1.3,1.6*27
$GPRMC,105133.00,A,4155.822256,N,01236.698165,E,000.0,,210219,,,A*73
$GPGGA,105134.00,4155.822256,N,01236.698165,E,1,14,3.2,54.8,M,45.0,M,,*5D
$GPGSV,3,1,11,13,68,324,16,28,63,089,17,05,43,211,14,30,41,060,38*73
$GPGSV,3,2,11,15,34,306,18,07,10,068,45,24,08,261,28,17,08,134,23*76
$GPGSV,3,3,11,04,,,35,08,03,029,,21,00,308,*73
$GLGSV,3,1,10,73,61,252,17,71,61,317,21,70,60,165,17,80,49,032,22*60
$GLGSV,3,2,10,74,15,233,16,72,12,328,18,81,06,039,17,69,04,152,*6F
$GLGSV,3,3,10,88,02,355,,79,00,045,*6A
$GPGSA,A,3,07,13,15,17,24,28,30,,,,,,2.1,1.3,1.6*3C
$GNGSA,A,3,07,13,15,17,24,28,30,,,,,,2.1,1.3,1.6*22
$GNGSA,A,3,71,72,73,74,80,81,,,,,,,2.1,1.3,1.6*2F
$QZGSA,A,3,,,,,,,,,,,,,2.1,1.3,1.6*28
$IMGSA,A,3,,,,,,,,,,,,,2.1,1.3,1.6*27
$GPRMC,105134.00,A,4155.822256,N,01236.698165,E,000.0,,210219,,,A*74
$GPGGA,105135.00,4155.822256,N,01236.698165,E,1,15,3.2,54.7,M,45.0,M,,*52
$GPGSV,3,1,11,13,68,324,16,28,63,089,18,05,43,211,14,30,41,060,38*7C
$GPGSV,3,2,11,15,34,306,18,07,10,068,45,24,08,261,28,17,08,134,23*76
$GPGSV,3,3,11,04,,,35,08,03,029,,21,00,308,*73
$GLGSV,3,1,10,73,61,252,17,71,61,317,21,70,60,165,,80,49,032,22*66
$GLGSV,3,2,10,74,15,233,19,72,12,328,18,81,06,039,17,69,04,152,*60
$GLGSV,3,3,10,88,02,355,,79,00,045,*6A
$GPGSA,A,3,07,13,17,24,28,30,,,,,,,2.1,1.3,1.6*38
$GNGSA,A,3,07,13,17,24,28,30,,,,,,,2.1,1.3,1.6*26
$GNGSA,A,3,71,72,73,74,80,81,,,,,,,2.1,1.3,1.6*2F
$QZGSA,A,3,,,,,,,,,,,,,2.1,1.3,1.6*28
$IMGSA,A,3,,,,,,,,,,,,,2.1,1.3,1.6*27
$GPRMC,105135.00,A,4155.822256,N,01236.698165,E,000.0,,210219,,,A*75
$GPGGA,105136.00,4155.822256,N,01236.698165,E,1,16,3.2,54.7,M,45.0,M,,*52
$GPGSV,3,1,11,13,68,324,16,28,63,089,18,05,43,211,20,30,41,060,37*74
$GPGSV,3,2,11,15,34,306,17,07,10,068,45,24,08,261,28,17,08,134,23*79
$GPGSV,3,3,11,04,,,35,08,03,029,,21,00,308,*73
$GLGSV,3,1,10,73,61,252,17,71,61,317,22,70,60,165,15,80,49,032,22*61
$GLGSV,3,2,10,74,15,233,19,72,12,328,17,81,06,039,17,69,04,152,*6F
$GLGSV,3,3,10,88,02,355,,79,00,045,*6A
$GPGSA,A,3,05,07,13,15,17,24,28,30,,,,,1.6,1.0,1.2*3A
$GNGSA,A,3,05,07,13,15,17,24,28,30,,,,,1.6,1.0,1.2*24
$GNGSA,A,3,71,72,73,74,80,81,,,,,,,1.6,1.0,1.2*2C
$QZGSA,A,3,,,,,,,,,,,,,1.6,1.0,1.2*2B
$IMGSA,A,3,,,,,,,,,,,,,1.6,1.0,1.2*24
$GPRMC,105136.00,A,4155.822256,N,01236.698165,E,000.0,,210219,,,A*76
$GPGGA,105137.00,4155.822256,N,01236.698165,E,1,16,3.2,54.7,M,45.0,M,,*53
$GPGSV,3,1,11,13,68,324,16,28,63,089,18,05,43,211,20,30,41,060,38*7B
$GPGSV,3,2,11,15,34,306,18,07,10,068,45,24,08,261,28,17,08,134,22*77
$GPGSV,3,3,11,04,,,36,08,03,029,,21,00,308,*70
$GLGSV,3,1,10,73,61,252,17,71,61,317,22,70,60,165,15,80,49,032,22*61
$GLGSV,3,2,10,74,15,233,19,72,12,328,17,81,06,039,18,69,04,152,*60
$GLGSV,3,3,10,88,02,355,,79,00,045,*6A
$GPGSA,A,3,05,07,13,15,17,24,28,30,,,,,1.6,1.0,1.2*3A
$GNGSA,A,3,05,07,13,15,17,24,28,30,,,,,1.6,1.0,1.2*24
$GNGSA,A,3,71,72,73,74,80,81,,,,,,,1.6,1.0,1.2*2C
$QZGSA,A,3,,,,,,,,,,,,,1.6,1.0,1.2*2B
$IMGSA,A,3,,,,,,,,,,,,,1.6,1.0,1.2*24
$GPRMC,105137.00,A,4155.822256,N,01236.698165,E,000.0,,210219,,,A*77
$GPGGA,105138.00,4155.822256,N,01236.698165,E,1,15,3.2,54.6,M,45.0,M,,*5E
$GPGSV,3,1,11,13,68,324,16,28,63,089,19,05,43,211,22,30,41,060,38*78
$GPGSV,3,2,11,15,34,306,,07,10,068,45,24,08,261,28,17,08,134,22*7E
$GPGSV,3,3,11,04,,,36,08,03,029,,21,00,308,*70
$GLGSV,3,1,10,73,61,252,17,71,61,317,21,70,60,165,14,80,49,032,22*63
$GLGSV,3,2,10,74,15,233,19,72,12,328,17,81,06,039,18,69,04,152,*60
$GLGSV,3,3,10,88,02,355,,79,00,045,*6A
$GPGSA,A,3,05,07,13,17,24,28,30,,,,,,1.7,1.0,1.3*3E
$GNGSA,A,3,05,07,13,17,24,28,30,,,,,,1.7,1.0,1.3*20
$GNGSA,A,3,71,72,73,74,80,81,,,,,,,1.7,1.0,1.3*2C
$QZGSA,A,3,,,,,,,,,,,,,1.7,1.0,1.3*2B
$IMGSA,A,3,,,,,,,,,,,,,1.7,1.0,1.3*24
$GPRMC,105138.00,A,4155.822256,N,01236.698165,E,000.0,,210219,,,A*78
$GPGGA,105139.00,4155.825714,N,01236.698633,E,1,16,3.2,54.6,M,45.0,M,,*5C
$GPGSV,3,1,11,13,68,324,17,28,63,089,20,05,43,211,21,30,41,060,38*70
$GPGSV,3,2,11,15,34,306,,07,10,068,45,24,08,261,28,17,08,134,22*7E
$GPGSV,3,3,11,04,,,36,08,03,029,,21,00,308,*70
$GLGSV,3,1,10,73,61,252,17,71,61,317,21,70,60,165,14,80,49,032,25*64
$GLGSV,3,2,10,74,15,233,20,72,12,328,17,81,06,039,19,69,04,152,*6B
$GLGSV,3,3,10,88,02,355,,79,00,045,*6A
$GPGSA,A,3,05,07,13,17,24,28,30,,,,,,1.7,1.0,1.3*3E
$GNGSA,A,3,05,07,13,17,24,28,30,,,,,,1.7,1.0,1.3*20
$GNGSA,A,3,71,72,73,74,80,81,,,,,,,1.7,1.0,1.3*2C
$QZGSA,A,3,,,,,,,,,,,,,1.7,1.0,1.3*2B
$IMGSA,A,3,,,,,,,,,,,,,1.7,1.0,1.3*24
$GPRMC,105139.00,A,4155.825714,N,01236.698633,E,001.1,,210219,,,A*79
$GPGGA,105140.00,4155.826437,N,01236.698802,E,1,13,3.2,54.5,M,45.0,M,,*59
$GPGSV,3,1,11,13,68,324,16,28,63,089,,05,43,211,21,30,41,060,37*7C
$GPGSV,3,2,11,15,34,306,16,07,10,068,45,24,09,261,28,17,08,134,22*78
$GPGSV,3,3,11,04,,,35,08,03,029,,21,00,308,*73
$GLGSV,3,1,10,73,61,252,17,71,61,317,21,70,60,165,14,80,49,032,24*65
$GLGSV,3,2,10,74,15,233,20,72,12,328,16,81,06,039,19,69,04,152,*6A
$GLGSV,3,3,10,88,02,355,,79,00,045,*6A
$GPGSA,A,3,05,07,15,17,24,30,,,,,,,1.7,1.0,1.3*32
$GNGSA,A,3,05,07,15,17,24,30,,,,,,,1.7,1.0,1.3*2C
$GNGSA,A,3,70,71,73,74,80,81,,,,,,,1.7,1.0,1.3*2E
$QZGSA,A,3,,,,,,,,,,,,,1.7,1.0,1.3*2B
$IMGSA,A,3,,,,,,,,,,,,,1.7,1.0,1.3*24
$GPRMC,105140.00,A,4155.826437,N,01236.698802,E,001.5,,210219,,,A*7E
$GPGGA,105141.00,4155.826933,N,01236.698969,E,1,15,3.2,54.5,M,45.0,M,,*5B
$GPGSV,3,1,11,13,68,324,16,28,63,089,,05,43,211,20,30,41,060,37*7D
$GPGSV,3,2,11,15,34,306,16,07,10,069,44,24,09,261,28,17,08,134,22*78
$GPGSV,3,3,11,04,,,35,08,03,029,,21,00,308,*73
$GLGSV,3,1,10,73,61,252,18,71,61,317,21,70,60,165,14,80,49,032,24*6A
$GLGSV,3,2,10,74,15,233,20,72,12,328,16,81,06,039,20,69,04,152,*60
$GLGSV,3,3,10,88,02,355,,79,00,045,*6A
$GPGSA,A,3,05,07,13,15,17,24,30,,,,,,1.6,1.0,1.3*31
$GNGSA,A,3,05,07,13,15,17,24,30,,,,,,1.6,1.0,1.3*2F
$GNGSA,A,3,71,72,73,74,80,81,,,,,,,1.6,1.0,1.3*2D
$QZGSA,A,3,,,,,,,,,,,,,1.6,1.0,1.3*2A
$IMGSA,A,3,,,,,,,,,,,,,1.6,1.0,1.3*25
$GPRMC,105141.00,A,4155.826933,N,01236.698969,E,001.9,,210219,,,A*76
$GPGGA,105142.00,4155.827427,N,01236.699263,E,1,16,3.2,54.4,M,45.0,M,,*53
$GPGSV,3,1,11,13,68,324,18,28,63,089,19,05,43,211,20,30,41,060,37*7B
$GPGSV,3,2,11,15,34,306,19,07,10,069,44,24,09,261,28,17,08,134,21*74
$GPGSV,3,3,11,04,,,35,08,03,029,,21,00,308,*73
$GLGSV,3,1,10,73,61,252,18,71,61,317,20,70,60,165,13,80,49,032,24*6C
$GLGSV,3,2,10,74,15,233,20,72,12,328,16,81,06,039,20,69,04,152,*60
$GLGSV,3,3,10,88,02,355,,79,00,045,*6A
$GPGSA,A,3,05,07,13,15,17,24,28,30,,,,,1.8,1.0,1.4*32
$GNGSA,A,3,05,07,13,15,17,24,28,30,,,,,1.8,1.0,1.4*2C
$GNGSA,A,3,71,72,73,74,80,81,,,,,,,1.8,1.0,1.4*24
$QZGSA,A,3,,,,,,,,,,,,,1.8,1.0,1.4*23
$IMGSA,A,3,,,,,,,,,,,,,1.8,1.0,1.4*2C
$GPRMC,105142.00,A,4155.827427,N,01236.699263,E,002.0,,210219,,,A*76
$GPGGA,105143.00,4155.827688,N,01236.698831,E,1,15,3.2,54.4,M,45.0,M,,*5A
$GPGSV,3,1,11,13,68,324,17,28,63,089,22,05,43,211,19,30,41,060,37*76
$GPGSV,3,2,11,15,34,306,17,07,10,069,44,24,09,261,28,17,08,134,21*7A
$GPGSV,3,3,11,04,,,35,08,03,029,,21,00,308,*73
$GLGSV,3,1,10,73,61,252,18,71,61,317,20,70,60,165,13,80,49,032,24*6C
$GLGSV,3,2,10,74,15,233,20,72,12,328,16,81,06,039,20,69,04,152,*60
$GLGSV,3,3,10,88,02,355,,79,00,045,*6A
$GPGSA,A,3,05,07,17,24,28,30,,,,,,,2.0,1.2,1.5*3C
$GNGSA,A,3,05,07,17,24,28,30,,,,,,,2.0,1.2,1.5*22
$GNGSA,A,3,71,72,73,74,80,81,,,,,,,2.0,1.2,1.5*2C
$QZGSA,A,3,,,,,,,,,,,,,2.0,1.2,1.5*2B
$IMGSA,A,3,,,,,,,,,,,,,2.0,1.2,1.5*24
$GPRMC,105143.00,A,4155.827688,N,01236.698831,E,001.8,,210219,,,A*77
$GPGGA,105144.00,4155.827688,N,01236.698831,E,1,16,3.2,54.3,M,45.0,M,,*59
$GPGSV,3,1,11,13,68,324,18,28,63,089,22,05,43,211,19,30,41,060,37*79
$GPGSV,3,2,11,15,34,306,,07,10,069,44,24,09,261,28,17,08,134,21*7C
$GPGSV,3,3,11,04,,,35,08,03,029,,21,00,308,*73
$GLGSV,3,1,10,73,61,252,18,71,61,317,20,70,60,165,12,80,49,032,25*6C
$GLGSV,3,2,10,74,15,233,20,72,12,328,16,81,06,039,20,69,04,152,*60
$GLGSV,3,3,10,88,02,355,,79,00,045,*6A
$GPGSA,A,3,05,07,13,17,24,28,30,,,,,,2.0,1.2,1.5*3E
$GNGSA,A,3,05,07,13,17,24,28,30,,,,,,2.0,1.2,1.5*20
$GNGSA,A,3,71,72,73,74,80,81,,,,,,,2.0,1.2,1.5*2C
$QZGSA,A,3,,,,,,,,,,,,,2.0,1.2,1.5*2B
$IMGSA,A,3,,,,,,,,,,,,,2.0,1.2,1.5*24
$GPRMC,105144.00,A,4155.827688,N,01236.698831,E,000.0,,210219,,,A*79
$GPGGA,105145.00,4155.827688,N,01236.698831,E,1,16,3.2,54.3,M,45.0,M,,*58
$GPGSV,3,1,11,13,68,324,20,28,63,089,21,05,43,211,19,30,41,060,37*71
$GPGSV,3,2,11,15,34,306,19,07,10,069,44,24,09,261,29,17,08,134,20*74
$GPGSV,3,3,11,04,,,35,08,03,029,,21,00,308,*73
$GLGSV,3,1,10,73,61,252,20,71,61,317,19,70,60,165,,80,49,032,26*6D
$GLGSV,3,2,10,74,15,233,20,72,12,328,16,81,06,039,20,69,04,152,*60
$GLGSV,3,3,10,88,02,355,,79,00,045,*6A
$GPGSA,A,3,05,07,13,15,17,24,28,30,,,,,1.7,1.0,1.3*3A
$GNGSA,A,3,05,07,13,15,17,24,28,30,,,,,1.7,1.0,1.3*24
$GNGSA,A,3,71,72,73,74,80,81,,,,,,,1.7,1.0,1.3*2C
$QZGSA,A,3,,,,,,,,,,,,,1.7,1.0,1.3*2B
$IMGSA,A,3,,,,,,,,,,,,,1.7,1.0,1.3*24
$GPRMC,105145.00,A,4155.827688,N,01236.698831,E,000.0,,210219,,,A*78
$GPGGA,105146.00,4155.827688,N,01236.698831,E,1,16,3.2,54.2,M,45.0,M,,*5A
$GPGSV,3,1,11,13,68,324,20,28,63,089,21,05,43,211,20,30,41,060,38*74
$GPGSV,3,2,11,15,34,306,19,07,10,069,45,24,09,261,29,17,08,134,20*75
$GPGSV,3,3,11,04,,,35,08,03,029,,21,00,308,*73
$GLGSV,3,1,10,73,61,252,20,71,61,317,21,70,60,165,,80,49,032,26*66
$GLGSV,3,2,10,74,15,233,21,72,12,328,16,81,06,039,20,69,04,152,*61
$GLGSV,3,3,10,88,02,355,,79,00,045,*6A
$GPGSA,A,3,05,07,13,15,17,24,28,30,,,,,1.7,1.2,1.3*38
$GNGSA,A,3,05,07,13,15,17,24,28,30,,,,,1.7,1.2,1.3*26
$GNGSA,A,3,71,72,73,74,80,81,,,,,,,1.7,1.2,1.3*2E
$QZGSA,A,3,,,,,,,,,,,,,1.7,1.2,1.3*29
$IMGSA,A,3,,,,,,,,,,,,,1.7,1.2,1.3*26
$GPRMC,105146.00,A,4155.827688,N,01236.698831,E,000.0,,210219,,,A*7B
$GPGGA,105147.00,4155.827688,N,01236.698831,E,1,15,3.2,54.1,M,45.0,M,,*5B
$GPGSV,3,1,11,13,68,324,20,28,63,088,21,05,43,211,20,30,41,060,38*75
$GPGSV,3,2,11,15,34,306,19,07,10,069,45,24,09,261,29,17,08,134,20*75
$GPGSV,3,3,11,04,,,35,08,03,029,,21,00,308,*73
$GLGSV,3,1,10,73,61,252,20,71,61,317,21,70,60,165,,80,49,032,26*66
$GLGSV,3,2,10,74,15,233,22,72,12,328,16,81,06,039,20,69,04,152,*62
$GLGSV,3,3,10,88,02,355,,79,00,045,*6A
$GPGSA,A,3,05,07,13,15,17,24,28,30,,,,,1.6,1.1,1.2*3B
$GNGSA,A,3,05,07,13,15,17,24,28,30,,,,,1.6,1.1,1.2*25
$GNGSA,A,3,71,72,73,74,80,81,,,,,,,1.6,1.1,1.2*2D
$QZGSA,A,3,,,,,,,,,,,,,1.6,1.1,1.2*2A
$IMGSA,A,3,,,,,,,,,,,,,1.6,1.1,1.2*25
$GPRMC,105147.00,A,4155.827688,N,01236.698831,E,000.0,,210219,,,A*7A
$GPGGA,105148.00,4155.827688,N,01236.698831,E,1,16,3.2,54.1,M,45.0,M,,*57
$GPGSV,3,1,11,13,68,324,20,28,63,088,20,05,43,211,19,30,41,060,38*7E
$GPGSV,3,2,11,15,34,306,,07,10,069,45,24,09,261,29,17,08,134,19*77
$GPGSV,3,3,11,04,,,35,08,03,029,,21,00,308,*73
$GLGSV,3,1,10,73,61,252,20,71,61,317,21,70,60,165,,80,49,032,26*66
$GLGSV,3,2,10,74,15,233,23,72,12,328,17,81,06,039,20,69,04,152,*62
$GLGSV,3,3,10,88,02,355,,79,00,045,*6A
$GPGSA,A,3,05,07,13,17,24,28,30,,,,,,1.6,1.1,1.1*3C
$GNGSA,A,3,05,07,13,17,24,28,30,,,,,,1.6,1.1,1.1*22
$GNGSA,A,3,71,72,73,74,80,81,,,,,,,1.6,1.1,1.1*2E
$QZGSA,A,3,,,,,,,,,,,,,1.6,1.1,1.1*29
$IMGSA,A,3,,,,,,,,,,,,,1.6,1.1,1.1*26
$GPRMC,105148.00,A,4155.827688,N,01236.698831,E,000.0,,210219,,,A*75
$GPGGA,105149.00,4155.821901,N,01236.701772,E,1,15,3.2,54.1,M,45.0,M,,*54
$GPGSV,3,1,11,13,68,324,20,28,63,088,20,05,43,211,,30,41,060,38*76
$GPGSV,3,2,11,15,34,306,,07,10,069,45,24,09,261,29,17,08,134,19*77
$GPGSV,3,3,11,04,,,35,08,03,029,,21,00,308,*73
$GLGSV,3,1,10,73,61,252,20,71,61,317,21,70,60,165,11,80,49,032,26*66
$GLGSV,3,2,10,74,15,233,24,72,12,328,17,81,06,039,19,69,04,152,*6F
$GLGSV,3,3,10,88,02,355,,79,00,045,*6A
$GPGSA,A,3,07,13,17,24,28,30,,,,,,,1.6,1.1,1.1*39
$GNGSA,A,3,07,13,17,24,28,30,,,,,,,1.6,1.1,1.1*27
$GNGSA,A,3,71,72,73,74,80,81,,,,,,,1.6,1.1,1.1*2E
$QZGSA,A,3,,,,,,,,,,,,,1.6,1.1,1.1*29
$IMGSA,A,3,,,,,,,,,,,,,1.6,1.1,1.1*26
$GPRMC,105149.00,A,4155.821901,N,01236.701772,E,000.0,,210219,,,A*75
$GPGGA,105150.00,4155.821901,N,01236.701772,E,1,15,3.2,54.1,M,45.0,M,,*5C
$GPGSV,3,1,11,13,68,324,19,28,63,088,20,05,43,211,18,30,41,060,38*75
$GPGSV,3,2,11,15,34,306,,07,10,069,44,24,09,261,29,17,08,134,18*77
$GPGSV,3,3,11,04,,,35,08,03,029,,21,00,308,*73
$GLGSV,3,1,10,73,61,252,20,71,61,317,23,70,60,165,,80,49,032,26*64
$GLGSV,3,2,10,74,15,233,24,72,12,328,17,81,06,039,18,69,04,152,*6E
$GLGSV,3,3,10,88,02,355,,79,00,045,*6A
$GPGSA,A,3,05,07,13,17,24,28,30,,,,,,1.6,1.1,1.1*3C
$GNGSA,A,3,05,07,13,17,24,28,30,,,,,,1.6,1.1,1.1*22
$GNGSA,A,3,71,72,73,74,80,,,,,,,,1.6,1.1,1.1*27
$QZGSA,A,3,,,,,,,,,,,,,1.6,1.1,1.1*29
$IMGSA,A,3,,,,,,,,,,,,,1.6,1.1,1.1*26
$GPRMC,105150.00,A,4155.821901,N,01236.701772,E,000.0,,210219,,,A*7D
$GPGGA,105151.00,4155.821901,N,01236.701772,E,1,16,3.2,54.1,M,45.0,M,,*5E
$GPGSV,3,1,11,13,68,324,19,28,63,088,20,05,43,211,18,30,41,060,38*75
$GPGSV,3,2,11,15,34,306,22,07,10,069,44,24,09,261,29,17,08,133,18*70
$GPGSV,3,3,11,04,,,35,08,03,029,,21,00,308,*73
$GLGSV,3,1,10,73,61,252,20,71,61,317,22,70,60,165,10,80,49,032,25*67
$GLGSV,3,2,10,74,15,233,24,72,12,328,17,81,06,039,18,69,04,152,*6E
$GLGSV,3,3,10,88,02,355,,79,00,045,*6A
$GPGSA,A,3,05,07,13,15,17,24,28,30,,,,,3.0,2.6,1.6*3F
$GNGSA,A,3,05,07,13,15,17,24,28,30,,,,,3.0,2.6,1.6*21
$GNGSA,A,3,71,72,73,74,80,,,,,,,,3.0,2.6,1.6*20
$QZGSA,A,3,,,,,,,,,,,,,3.0,2.6,1.6*2E
$IMGSA,A,3,,,,,,,,,,,,,3.0,2.6,1.6*21
$GPRMC,105151.00,A,4155.821901,N,01236.701772,E,000.0,,210219,,,A*7C
$GPGGA,105152.00,4155.821901,N,01236.701772,E,1,15,3.2,54.1,M,45.0,M,,*5E
$GPGSV,3,1,11,13,68,324,19,28,63,088,20,05,43,211,20,30,41,060,38*7E
$GPGSV,3,2,11,15,34,306,,07,10,069,44,24,09,261,29,17,08,133,*79
$GPGSV,3,3,11,04,,,35,08,03,029,,21,00,308,*73
$GLGSV,3,1,10,73,61,252,21,71,61,317,22,70,59,165,11,80,49,032,25*6D
$GLGSV,3,2,10,74,15,233,23,72,12,328,16,81,06,039,17,69,04,152,*67
$GLGSV,3,3,10,88,02,355,,79,00,045,*6A
$GPGSA,A,3,05,07,13,24,28,30,,,,,,,2.7,2.2,1.6*3F
$GNGSA,A,3,05,07,13,24,28,30,,,,,,,2.7,2.2,1.6*21
$GNGSA,A,3,71,72,73,74,80,81,,,,,,,2.7,2.2,1.6*2B
$QZGSA,A,3,,,,,,,,,,,,,2.7,2.2,1.6*2C
$IMGSA,A,3,,,,,,,,,,,,,2.7,2.2,1.6*23
$GPRMC,105152.00,A,4155.821901,N,01236.701772,E,000.0,,210219,,,A*7F
$GPGGA,105153.00,4155.821901,N,01236.701772,E,1,16,3.2,54.2,M,45.0,M,,*5F
$GPGSV,3,1,11,13,68,324,19,28,63,088,20,05,43,211,19,30,41,060,38*74
$GPGSV,3,2,11,15,34,306,20,07,10,069,44,24,09,261,29,17,08,133,17*7D
$GPGSV,3,3,11,04,,,35,08,03,029,,21,00,308,*73
$GLGSV,3,1,10,73,61,252,20,71,61,317,22,70,59,165,11,80,49,032,25*6C
$GLGSV,3,2,10,74,15,233,23,72,12,328,16,81,06,039,21,69,04,152,*62
$GLGSV,3,3,10,88,02,355,,79,00,045,*6A
$GPGSA,A,3,05,07,13,15,17,24,28,30,,,,,2.4,1.9,1.5*35
$GNGSA,A,3,05,07,13,15,17,24,28,30,,,,,2.4,1.9,1.5*2B
$GNGSA,A,3,71,72,73,74,80,81,,,,,,,2.4,1.9,1.5*23
$QZGSA,A,3,,,,,,,,,,,,,2.4,1.9,1.5*24
$IMGSA,A,3,,,,,,,,,,,,,2.4,1.9,1.5*2B
$GPRMC,105153.00,A,4155.821901,N,01236.701772,E,000.0,,210219,,,A*7E
$GPGGA,105154.00,4155.821901,N,01236.701772,E,1,15,3.2,54.2,M,45.0,M,,*5B
$GPGSV,3,1,11,13,68,324,19,28,63,088,21,05,43,211,,30,41,060,39*7C
$GPGSV,3,2,11,15,34,306,,07,10,069,44,24,09,261,29,17,08,133,16*7E
$GPGSV,3,3,11,04,,,35,08,03,029,,21,00,308,*73
$GLGSV,3,1,10,73,61,252,20,71,61,317,22,70,59,165,14,80,49,032,25*69
$GLGSV,3,2,10,74,15,233,23,72,12,328,16,81,06,038,21,69,04,152,*63
$GLGSV,3,3,10,88,02,355,,79,00,045,*6A
$GPGSA,A,3,07,13,17,24,28,30,,,,,,,2.5,1.9,1.6*36
$GNGSA,A,3,07,13,17,24,28,30,,,,,,,2.5,1.9,1.6*28
$GNGSA,A,3,70,71,72,73,74,80,81,,,,,,2.5,1.9,1.6*26
$QZGSA,A,3,,,,,,,,,,,,,2.5,1.9,1.6*26
$IMGSA,A,3,,,,,,,,,,,,,2.5,1.9,1.6*29
$GPRMC,105154.00,A,4155.821901,N,01236.701772,E,000.0,,210219,,,A*79
$GPGGA,105155.00,4155.821901,N,01236.701772,E,1,18,3.2,54.2,M,45.0,M,,*57
$GPGSV,3,1,11,13,68,324,19,28,63,088,21,05,43,211,18,30,41,060,39*75
$GPGSV,3,2,11,15,34,306,18,07,10,069,44,24,09,261,29,17,08,133,16*77
$GPGSV,3,3,11,04,,,35,08,03,029,,21,00,308,*73
$GLGSV,3,1,10,73,61,252,20,71,61,317,21,70,59,165,16,80,49,032,25*68
$GLGSV,3,2,10,74,16,233,24,72,12,328,16,81,06,038,21,69,04,152,*67
$GLGSV,3,3,10,88,02,355,,79,00,045,*6A
$GPGSA,A,3,05,07,13,15,17,24,28,30,,,,,1.9,1.5,1.1*33
$GNGSA,A,3,05,07,13,15,17,24,28,30,,,,,1.9,1.5,1.1*2D
$GNGSA,A,3,70,71,72,73,74,80,81,,,,,,1.9,1.5,1.1*22
$QZGSA,A,3,,,,,,,,,,,,,1.9,1.5,1.1*22
$IMGSA,A,3,,,,,,,,,,,,,1.9,1.5,1.1*2D
$GPRMC,105155.00,A,4155.821901,N,01236.701772,E,000.0,,210219,,,A*78
$GPGGA,105156.00,4155.821901,N,01236.701772,E,1,17,3.2,54.2,M,45.0,M,,*5B
$GPGSV,3,1,11,13,68,324,19,28,63,088,22,05,43,211,,30,41,060,39*7F
$GPGSV,3,2,11,15,34,306,18,07,10,069,44,24,09,261,29,17,08,133,18*79
$GPGSV,3,3,11,04,,,34,08,03,029,,21,00,308,*72
$GLGSV,3,1,10,73,61,252,20,71,61,317,21,70,59,165,16,80,49,032,25*68
$GLGSV,3,2,10,74,16,233,24,72,12,328,16,81,06,038,21,69,04,152,*67
$GLGSV,3,3,10,88,02,355,,79,00,045,*6A
$GPGSA,A,3,07,13,15,17,24,28,30,,,,,,1.9,1.5,1.1*36
$GNGSA,A,3,07,13,15,17,24,28,30,,,,,,1.9,1.5,1.1*28
$GNGSA,A,3,70,71,72,73,74,80,81,,,,,,1.9,1.5,1.1*22
$QZGSA,A,3,,,,,,,,,,,,,1.9,1.5,1.1*22
$IMGSA,A,3,,,,,,,,,,,,,1.9,1.5,1.1*2D
$GPRMC,105156.00,A,4155.821901,N,01236.701772,E,000.0,,210219,,,A*7B
$GPGGA,105157.00,4155.821901,N,01236.701772,E,1,17,3.2,54.2,M,45.0,M,,*5A
$GPGSV,3,1,11,13,68,324,18,28,63,088,22,05,43,211,17,30,41,060,39*78
$GPGSV,3,2,11,15,34,306,,07,10,069,44,24,09,261,29,17,08,133,18*70
$GPGSV,3,3,11,04,,,34,08,03,029,,21,00,308,*72
$GLGSV,3,1,10,73,61,252,19,71,61,317,21,70,59,165,16,80,49,032,25*62
$GLGSV,3,2,10,74,16,233,24,72,12,328,16,81,06,038,21,69,04,152,*67
$GLGSV,3,3,10,88,02,355,,79,00,045,*6A
$GPGSA,A,3,05,07,13,17,24,28,30,,,,,,1.9,1.5,1.1*37
$GNGSA,A,3,05,07,13,17,24,28,30,,,,,,1.9,1.5,1.1*29
$GNGSA,A,3,70,71,72,73,74,80,81,,,,,,1.9,1.5,1.1*22
$QZGSA,A,3,,,,,,,,,,,,,1.9,1.5,1.1*22
$IMGSA,A,3,,,,,,,,,,,,,1.9,1.5,1.1*2D
$GPRMC,105157.00,A,4155.821901,N,01236.701772,E,000.0,,210219,,,A*7A
$GPGGA,105158.00,4155.821901,N,01236.701772,E,1,15,3.2,54.2,M,45.0,M,,*57
$GPGSV,3,1,11,13,68,324,18,28,63,088,22,05,43,211,,30,41,060,39*7E
$GPGSV,3,2,11,15,34,306,17,07,10,069,44,24,09,261,29,17,08,133,18*76
$GPGSV,3,3,11,04,,,34,08,03,029,,21,00,308,*72
$GLGSV,3,1,10,73,61,252,19,71,61,317,21,70,59,165,15,80,49,032,25*61
$GLGSV,3,2,10,74,16,233,24,72,12,328,17,81,06,038,22,69,04,152,*65
$GLGSV,3,3,10,88,02,355,,79,00,045,*6A
$GPGSA,A,3,07,13,15,17,24,28,30,,,,,,1.9,1.5,1.1*36
$GNGSA,A,3,07,13,15,17,24,28,30,,,,,,1.9,1.5,1.1*28
$GNGSA,A,3,71,72,73,74,80,81,,,,,,,1.9,1.5,1.1*25
$QZGSA,A,3,,,,,,,,,,,,,1.9,1.5,1.1*22
$IMGSA,A,3,,,,,,,,,,,,,1.9,1.5,1.1*2D
$GPRMC,105158.00,A,4155.821901,N,01236.701772,E,000.0,,210219,,,A*75
$GPGGA,105159.00,4155.821901,N,01236.701772,E,1,15,3.2,54.3,M,45.0,M,,*57
$GPGSV,3,1,11,13,68,324,18,28,63,088,21,05,43,211,,30,41,060,39*7D
